% program   : RTKPOST ver.2.4.3 b28
% inp file  : E:\Program\Fortran\Matlab_PPP\Net_Diff\for_redistribution_files_only\test\data\wtza1570.18o
% inp file  : E:\Program\Fortran\Matlab_PPP\Net_Diff\for_redistribution_files_only\test\data\brdm1570.18p
% inp file  : E:\Program\Fortran\Matlab_PPP\Net_Diff\for_redistribution_files_only\test\data\gbm20043.sp3
% inp file  : E:\Program\Fortran\Matlab_PPP\Net_Diff\for_redistribution_files_only\test\data\gbm20043.clk
% obs start : 2018/06/06 00:00:00.0 GPST (week2004 259200.0s)
% obs end   : 2018/06/06 23:59:30.0 GPST (week2004 345570.0s)
% pos mode  : ppp-kinematic
% solution  : forward
% elev mask : 10.0 deg
% dynamics  : off
% tidecorr  : on
% tropo opt : est ztd
% ephemeris : precise
% antenna1  : LEIAR25.R3      LEIT  ( 0.0000  0.0000  0.0710)
%
% (x/y/z-ecef=WGS84,Q=1:fix,2:float,3:sbas,4:dgps,5:single,6:ppp,ns=# of satellites)
%  GPST                      x-ecef(m)      y-ecef(m)      z-ecef(m)   Q  ns   sdx(m)   sdy(m)   sdz(m)  sdxy(m)  sdyz(m)  sdzx(m) age(s)  ratio
2018/06/06 00:00:00.000   4075580.2301    931854.0178   4801569.5873   6   7   2.5382   1.4815   2.4972   1.1446   1.1857   1.7612   0.00    0.0
2018/06/06 00:00:30.000   4075579.4624    931853.5276   4801569.9546   6   8   1.7567   1.0419   1.6765   0.8260   0.8156   1.2120   0.00    0.0
2018/06/06 00:01:00.000   4075579.7605    931853.6490   4801570.4036   6   8   1.4311   0.8447   1.2882   0.6811   0.6344   0.9882   0.00    0.0
2018/06/06 00:01:30.000   4075579.6027    931853.5561   4801570.6084   6   8   1.2419   0.7262   1.0488   0.5945   0.5215   0.8603   0.00    0.0
2018/06/06 00:02:00.000   4075579.5354    931853.6540   4801570.6909   6   8   1.1147   0.6452   0.8880   0.5356   0.4450   0.7761   0.00    0.0
2018/06/06 00:02:30.000   4075579.5706    931853.7358   4801570.6983   6   8   1.0218   0.5855   0.7751   0.4923   0.3907   0.7156   0.00    0.0
2018/06/06 00:03:00.000   4075579.5473    931853.6865   4801570.6303   6   8   0.9499   0.5391   0.6926   0.4586   0.3507   0.6692   0.00    0.0
2018/06/06 00:03:30.000   4075579.5802    931853.6913   4801570.6764   6   8   0.8920   0.5017   0.6299   0.4313   0.3201   0.6316   0.00    0.0
2018/06/06 00:04:00.000   4075579.4895    931853.6242   4801570.6362   6   8   0.8439   0.4706   0.5802   0.4083   0.2957   0.6000   0.00    0.0
2018/06/06 00:04:30.000   4075579.4657    931853.5851   4801570.6142   6   8   0.8027   0.4441   0.5395   0.3885   0.2757   0.5724   0.00    0.0
2018/06/06 00:05:00.000   4075579.4730    931853.5329   4801570.5836   6   8   0.7669   0.4211   0.5050   0.3712   0.2587   0.5479   0.00    0.0
2018/06/06 00:05:30.000   4075579.5640    931853.5416   4801570.6251   6   8   0.7353   0.4009   0.4752   0.3556   0.2441   0.5258   0.00    0.0
2018/06/06 00:06:00.000   4075579.5018    931853.5304   4801570.5988   6   8   0.7070   0.3828   0.4491   0.3416   0.2312   0.5056   0.00    0.0
2018/06/06 00:06:30.000   4075579.5133    931853.5513   4801570.5946   6   8   0.6814   0.3665   0.4259   0.3288   0.2198   0.4871   0.00    0.0
2018/06/06 00:07:00.000   4075579.4866    931853.5542   4801570.5686   6   8   0.6580   0.3517   0.4052   0.3169   0.2095   0.4701   0.00    0.0
2018/06/06 00:07:30.000   4075579.4281    931853.5361   4801570.5447   6   8   0.6366   0.3381   0.3865   0.3060   0.2002   0.4543   0.00    0.0
2018/06/06 00:08:00.000   4075579.4377    931853.5345   4801570.5505   6   8   0.6168   0.3255   0.3696   0.2958   0.1917   0.4396   0.00    0.0
2018/06/06 00:08:30.000   4075579.4364    931853.5548   4801570.5446   6   8   0.5984   0.3138   0.3543   0.2862   0.1838   0.4259   0.00    0.0
2018/06/06 00:09:00.000   4075579.4887    931853.5844   4801570.5559   6   8   0.5812   0.3030   0.3403   0.2771   0.1766   0.4131   0.00    0.0
2018/06/06 00:09:30.000   4075579.4225    931853.5508   4801570.5288   6   8   0.5650   0.2928   0.3275   0.2686   0.1699   0.4011   0.00    0.0
2018/06/06 00:10:00.000   4075579.3457    931853.5062   4801570.4975   6   8   0.5498   0.2832   0.3157   0.2604   0.1636   0.3898   0.00    0.0
2018/06/06 00:10:30.000   4075579.2959    931853.4777   4801570.4711   6   8   0.5354   0.2741   0.3048   0.2526   0.1577   0.3791   0.00    0.0
2018/06/06 00:11:00.000   4075579.2526    931853.4577   4801570.4548   6   8   0.5217   0.2656   0.2947   0.2452   0.1521   0.3690   0.00    0.0
2018/06/06 00:11:30.000   4075579.2180    931853.4522   4801570.4427   6   8   0.5087   0.2574   0.2852   0.2380   0.1468   0.3593   0.00    0.0
2018/06/06 00:12:00.000   4075579.1936    931853.4603   4801570.4428   6   8   0.4962   0.2497   0.2764   0.2311   0.1418   0.3501   0.00    0.0
2018/06/06 00:12:30.000   4075579.2151    931853.4734   4801570.4595   6   8   0.4842   0.2424   0.2681   0.2245   0.1369   0.3413   0.00    0.0
2018/06/06 00:13:00.000   4075579.1707    931853.4662   4801570.4454   6   8   0.4726   0.2353   0.2603   0.2180   0.1323   0.3329   0.00    0.0
2018/06/06 00:13:30.000   4075579.1821    931853.4731   4801570.4519   6   8   0.4615   0.2286   0.2529   0.2118   0.1278   0.3247   0.00    0.0
2018/06/06 00:14:00.000   4075579.1795    931853.4743   4801570.4440   6   8   0.4507   0.2222   0.2459   0.2057   0.1236   0.3169   0.00    0.0
2018/06/06 00:14:30.000   4075579.1418    931853.4589   4801570.4268   6   8   0.4402   0.2161   0.2392   0.1998   0.1194   0.3093   0.00    0.0
2018/06/06 00:15:00.000   4075579.1202    931853.4472   4801570.4202   6   8   0.4300   0.2102   0.2328   0.1941   0.1154   0.3019   0.00    0.0
2018/06/06 00:15:30.000   4075579.1021    931853.4396   4801570.4161   6   8   0.4201   0.2046   0.2267   0.1886   0.1115   0.2948   0.00    0.0
2018/06/06 00:16:00.000   4075579.0929    931853.4307   4801570.4139   6   8   0.4104   0.1991   0.2209   0.1832   0.1077   0.2878   0.00    0.0
2018/06/06 00:16:30.000   4075579.0529    931853.4215   4801570.3991   6   8   0.4010   0.1939   0.2152   0.1779   0.1041   0.2810   0.00    0.0
2018/06/06 00:17:00.000   4075579.0644    931853.4239   4801570.4034   6   8   0.3918   0.1889   0.2098   0.1728   0.1005   0.2744   0.00    0.0
2018/06/06 00:17:30.000   4075579.0754    931853.4237   4801570.4093   6   9   0.3828   0.1841   0.2046   0.1678   0.0970   0.2680   0.00    0.0
2018/06/06 00:18:00.000   4075579.0764    931853.4170   4801570.4219   6   9   0.3738   0.1795   0.1990   0.1628   0.0934   0.2614   0.00    0.0
2018/06/06 00:18:30.000   4075579.0711    931853.4187   4801570.4224   6   9   0.3648   0.1750   0.1935   0.1580   0.0900   0.2548   0.00    0.0
2018/06/06 00:19:00.000   4075579.0443    931853.4071   4801570.4110   6   9   0.3558   0.1708   0.1881   0.1534   0.0867   0.2482   0.00    0.0
2018/06/06 00:19:30.000   4075579.0348    931853.4003   4801570.4129   6   9   0.3467   0.1667   0.1827   0.1489   0.0835   0.2415   0.00    0.0
2018/06/06 00:20:00.000   4075579.0125    931853.3868   4801570.4061   6   9   0.3376   0.1627   0.1773   0.1445   0.0804   0.2347   0.00    0.0
2018/06/06 00:20:30.000   4075578.9991    931853.3716   4801570.4073   6   9   0.3285   0.1589   0.1719   0.1402   0.0774   0.2280   0.00    0.0
2018/06/06 00:21:00.000   4075578.9752    931853.3645   4801570.3956   6   9   0.3195   0.1552   0.1666   0.1362   0.0746   0.2212   0.00    0.0
2018/06/06 00:21:30.000   4075578.9434    931853.3528   4801570.3861   6   9   0.3104   0.1517   0.1612   0.1323   0.0719   0.2144   0.00    0.0
2018/06/06 00:22:00.000   4075578.9119    931853.3496   4801570.3690   6   9   0.3015   0.1483   0.1560   0.1285   0.0693   0.2077   0.00    0.0
2018/06/06 00:22:30.000   4075578.8700    931853.3422   4801570.3521   6   9   0.2927   0.1450   0.1508   0.1250   0.0669   0.2011   0.00    0.0
2018/06/06 00:23:00.000   4075578.8565    931853.3439   4801570.3426   6   9   0.2840   0.1419   0.1458   0.1216   0.0646   0.1947   0.00    0.0
2018/06/06 00:23:30.000   4075578.8431    931853.3474   4801570.3400   6   9   0.2756   0.1388   0.1409   0.1183   0.0624   0.1883   0.00    0.0
2018/06/06 00:24:00.000   4075578.8558    931853.3486   4801570.3433   6   9   0.2673   0.1359   0.1362   0.1153   0.0604   0.1822   0.00    0.0
2018/06/06 00:24:30.000   4075578.8422    931853.3508   4801570.3295   6   9   0.2594   0.1331   0.1316   0.1123   0.0585   0.1763   0.00    0.0
2018/06/06 00:25:00.000   4075578.8242    931853.3497   4801570.3240   6   9   0.2516   0.1303   0.1272   0.1096   0.0567   0.1705   0.00    0.0
2018/06/06 00:25:30.000   4075578.8026    931853.3468   4801570.3136   6   9   0.2442   0.1277   0.1230   0.1069   0.0550   0.1650   0.00    0.0
2018/06/06 00:26:00.000   4075578.7870    931853.3386   4801570.3092   6   9   0.2370   0.1252   0.1190   0.1044   0.0534   0.1597   0.00    0.0
2018/06/06 00:26:30.000   4075578.7460    931853.3257   4801570.2953   6   9   0.2301   0.1227   0.1151   0.1020   0.0520   0.1546   0.00    0.0
2018/06/06 00:27:00.000   4075578.7296    931853.3200   4801570.2841   6   9   0.2235   0.1203   0.1115   0.0998   0.0506   0.1497   0.00    0.0
2018/06/06 00:27:30.000   4075578.6945    931853.3165   4801570.2716   6   9   0.2172   0.1180   0.1080   0.0976   0.0493   0.1450   0.00    0.0
2018/06/06 00:28:00.000   4075578.6710    931853.3145   4801570.2573   6   9   0.2111   0.1158   0.1047   0.0955   0.0481   0.1406   0.00    0.0
2018/06/06 00:28:30.000   4075578.6422    931853.3067   4801570.2477   6   9   0.2053   0.1136   0.1015   0.0936   0.0470   0.1363   0.00    0.0
2018/06/06 00:29:00.000   4075578.6212    931853.3013   4801570.2418   6   9   0.1997   0.1115   0.0985   0.0917   0.0459   0.1323   0.00    0.0
2018/06/06 00:29:30.000   4075578.5962    931853.2982   4801570.2300   6   9   0.1944   0.1094   0.0957   0.0899   0.0449   0.1284   0.00    0.0
2018/06/06 00:30:00.000   4075578.5837    931853.2921   4801570.2217   6   9   0.1893   0.1075   0.0929   0.0882   0.0439   0.1247   0.00    0.0
2018/06/06 00:30:30.000   4075578.5473    931853.2857   4801570.2094   6   9   0.1844   0.1056   0.0904   0.0865   0.0430   0.1212   0.00    0.0
2018/06/06 00:31:00.000   4075578.5407    931853.2825   4801570.2117   6   9   0.1797   0.1037   0.0880   0.0850   0.0422   0.1178   0.00    0.0
2018/06/06 00:31:30.000   4075578.5191    931853.2684   4801570.2031   6   9   0.1753   0.1019   0.0856   0.0835   0.0413   0.1146   0.00    0.0
2018/06/06 00:32:00.000   4075578.5117    931853.2607   4801570.2010   6   9   0.1710   0.1002   0.0834   0.0820   0.0406   0.1116   0.00    0.0
2018/06/06 00:32:30.000   4075578.4999    931853.2455   4801570.2017   6   9   0.1669   0.0984   0.0814   0.0806   0.0399   0.1086   0.00    0.0
2018/06/06 00:33:00.000   4075578.4883    931853.2472   4801570.1955   6   9   0.1629   0.0968   0.0794   0.0792   0.0392   0.1059   0.00    0.0
2018/06/06 00:33:30.000   4075578.4824    931853.2389   4801570.1887   6   9   0.1592   0.0952   0.0775   0.0779   0.0385   0.1032   0.00    0.0
2018/06/06 00:34:00.000   4075578.4654    931853.2349   4801570.1852   6   9   0.1556   0.0936   0.0757   0.0767   0.0379   0.1007   0.00    0.0
2018/06/06 00:34:30.000   4075578.4543    931853.2253   4801570.1839   6   9   0.1521   0.0921   0.0740   0.0755   0.0373   0.0982   0.00    0.0
2018/06/06 00:35:00.000   4075578.4374    931853.2211   4801570.1806   6   9   0.1488   0.0906   0.0724   0.0743   0.0367   0.0959   0.00    0.0
2018/06/06 00:35:30.000   4075578.4379    931853.2172   4801570.1831   6   9   0.1456   0.0892   0.0709   0.0732   0.0362   0.0937   0.00    0.0
2018/06/06 00:36:00.000   4075578.4258    931853.2126   4801570.1778   6   9   0.1426   0.0878   0.0694   0.0721   0.0356   0.0916   0.00    0.0
2018/06/06 00:36:30.000   4075578.4296    931853.2066   4801570.1894   6   9   0.1397   0.0864   0.0680   0.0710   0.0351   0.0895   0.00    0.0
2018/06/06 00:37:00.000   4075578.4211    931853.2022   4801570.1866   6   9   0.1368   0.0850   0.0667   0.0700   0.0346   0.0876   0.00    0.0
2018/06/06 00:37:30.000   4075578.4075    931853.1943   4801570.1783   6   9   0.1341   0.0838   0.0654   0.0690   0.0341   0.0858   0.00    0.0
2018/06/06 00:38:00.000   4075578.3920    931853.1894   4801570.1772   6   9   0.1315   0.0825   0.0642   0.0680   0.0337   0.0840   0.00    0.0
2018/06/06 00:38:30.000   4075578.3852    931853.1893   4801570.1745   6   9   0.1290   0.0812   0.0631   0.0671   0.0332   0.0822   0.00    0.0
2018/06/06 00:39:00.000   4075578.3781    931853.1915   4801570.1709   6   9   0.1266   0.0800   0.0620   0.0662   0.0328   0.0806   0.00    0.0
2018/06/06 00:39:30.000   4075578.3772    931853.1901   4801570.1733   6   9   0.1243   0.0788   0.0610   0.0653   0.0323   0.0790   0.00    0.0
2018/06/06 00:40:00.000   4075578.3668    931853.1895   4801570.1679   6   9   0.1220   0.0777   0.0600   0.0644   0.0319   0.0775   0.00    0.0
2018/06/06 00:40:30.000   4075578.3667    931853.1870   4801570.1787   6   9   0.1199   0.0766   0.0590   0.0636   0.0315   0.0761   0.00    0.0
2018/06/06 00:41:00.000   4075578.3553    931853.1858   4801570.1704   6   9   0.1178   0.0755   0.0581   0.0628   0.0311   0.0747   0.00    0.0
2018/06/06 00:41:30.000   4075578.3457    931853.1853   4801570.1620   6   9   0.1158   0.0744   0.0573   0.0619   0.0307   0.0733   0.00    0.0
2018/06/06 00:42:00.000   4075578.3401    931853.1861   4801570.1570   6   9   0.1139   0.0733   0.0565   0.0612   0.0304   0.0721   0.00    0.0
2018/06/06 00:42:30.000   4075578.3292    931853.1854   4801570.1471   6   9   0.1120   0.0723   0.0557   0.0604   0.0300   0.0708   0.00    0.0
2018/06/06 00:43:00.000   4075578.3231    931853.1822   4801570.1473   6  10   0.1101   0.0713   0.0549   0.0596   0.0296   0.0696   0.00    0.0
2018/06/06 00:43:30.000   4075578.3119    931853.1818   4801570.1428   6  10   0.1081   0.0701   0.0540   0.0586   0.0289   0.0682   0.00    0.0
2018/06/06 00:44:00.000   4075578.3021    931853.1778   4801570.1406   6  10   0.1063   0.0691   0.0533   0.0577   0.0283   0.0670   0.00    0.0
2018/06/06 00:44:30.000   4075578.2966    931853.1772   4801570.1386   6  10   0.1046   0.0681   0.0526   0.0569   0.0279   0.0659   0.00    0.0
2018/06/06 00:45:00.000   4075578.2883    931853.1780   4801570.1302   6  10   0.1029   0.0671   0.0520   0.0561   0.0275   0.0647   0.00    0.0
2018/06/06 00:45:30.000   4075578.2774    931853.1741   4801570.1329   6  10   0.1013   0.0662   0.0513   0.0554   0.0271   0.0637   0.00    0.0
2018/06/06 00:46:00.000   4075578.2732    931853.1727   4801570.1366   6  10   0.0998   0.0653   0.0507   0.0547   0.0267   0.0627   0.00    0.0
2018/06/06 00:46:30.000   4075578.2690    931853.1701   4801570.1343   6  10   0.0983   0.0644   0.0501   0.0539   0.0263   0.0617   0.00    0.0
2018/06/06 00:47:00.000   4075578.2628    931853.1698   4801570.1305   6  10   0.0968   0.0635   0.0496   0.0533   0.0259   0.0608   0.00    0.0
2018/06/06 00:47:30.000   4075578.2562    931853.1672   4801570.1308   6  10   0.0954   0.0627   0.0490   0.0526   0.0256   0.0598   0.00    0.0
2018/06/06 00:48:00.000   4075578.2494    931853.1678   4801570.1305   6  10   0.0940   0.0619   0.0486   0.0519   0.0253   0.0590   0.00    0.0
2018/06/06 00:48:30.000   4075578.2508    931853.1683   4801570.1290   6   9   0.0940   0.0613   0.0483   0.0521   0.0254   0.0588   0.00    0.0
2018/06/06 00:49:00.000   4075578.2455    931853.1691   4801570.1185   6   9   0.0929   0.0606   0.0479   0.0516   0.0251   0.0580   0.00    0.0
2018/06/06 00:49:30.000   4075578.2378    931853.1716   4801570.1168   6   9   0.0918   0.0600   0.0475   0.0513   0.0247   0.0571   0.00    0.0
2018/06/06 00:50:00.000   4075578.2364    931853.1719   4801570.1165   6   9   0.0907   0.0594   0.0471   0.0509   0.0243   0.0564   0.00    0.0
2018/06/06 00:50:30.000   4075578.2350    931853.1726   4801570.1116   6   9   0.0896   0.0587   0.0467   0.0504   0.0240   0.0556   0.00    0.0
2018/06/06 00:51:00.000   4075578.2374    931853.1774   4801570.1105   6   9   0.0886   0.0581   0.0463   0.0500   0.0235   0.0549   0.00    0.0
2018/06/06 00:51:30.000   4075578.2409    931853.1798   4801570.1197   6   9   0.0876   0.0575   0.0460   0.0495   0.0233   0.0542   0.00    0.0
2018/06/06 00:52:00.000   4075578.2380    931853.1776   4801570.1208   6   9   0.0866   0.0569   0.0456   0.0491   0.0229   0.0535   0.00    0.0
2018/06/06 00:52:30.000   4075578.2311    931853.1771   4801570.1140   6   9   0.0857   0.0563   0.0453   0.0487   0.0225   0.0529   0.00    0.0
2018/06/06 00:53:00.000   4075578.2254    931853.1772   4801570.1092   6   9   0.0847   0.0557   0.0450   0.0483   0.0222   0.0522   0.00    0.0
2018/06/06 00:53:30.000   4075578.2308    931853.1748   4801570.1126   6   9   0.0838   0.0551   0.0447   0.0478   0.0219   0.0515   0.00    0.0
2018/06/06 00:54:00.000   4075578.2295    931853.1750   4801570.1108   6   9   0.0829   0.0545   0.0445   0.0474   0.0215   0.0509   0.00    0.0
2018/06/06 00:54:30.000   4075578.2184    931853.1704   4801570.1127   6   9   0.0820   0.0540   0.0442   0.0470   0.0212   0.0503   0.00    0.0
2018/06/06 00:55:00.000   4075578.2237    931853.1727   4801570.1137   6   8   0.0813   0.0537   0.0456   0.0462   0.0189   0.0504   0.00    0.0
2018/06/06 00:55:30.000   4075578.2160    931853.1754   4801570.1011   6   8   0.0805   0.0532   0.0454   0.0458   0.0186   0.0498   0.00    0.0
2018/06/06 00:56:00.000   4075578.2224    931853.1815   4801570.1049   6   8   0.0796   0.0528   0.0452   0.0454   0.0184   0.0493   0.00    0.0
2018/06/06 00:56:30.000   4075578.2236    931853.1827   4801570.1080   6   8   0.0788   0.0523   0.0449   0.0450   0.0180   0.0488   0.00    0.0
2018/06/06 00:57:00.000   4075578.2230    931853.1838   4801570.1062   6   8   0.0780   0.0518   0.0447   0.0446   0.0177   0.0483   0.00    0.0
2018/06/06 00:57:30.000   4075578.2305    931853.1879   4801570.1052   6   8   0.0772   0.0513   0.0445   0.0443   0.0175   0.0477   0.00    0.0
2018/06/06 00:58:00.000   4075578.2338    931853.1942   4801570.1054   6   8   0.0765   0.0509   0.0443   0.0438   0.0172   0.0473   0.00    0.0
2018/06/06 00:58:30.000   4075578.2351    931853.1950   4801570.1056   6   8   0.0757   0.0504   0.0441   0.0435   0.0168   0.0468   0.00    0.0
2018/06/06 00:59:00.000   4075578.2380    931853.1967   4801570.1103   6   8   0.0750   0.0499   0.0439   0.0431   0.0168   0.0463   0.00    0.0
2018/06/06 00:59:30.000   4075578.2474    931853.1990   4801570.1138   6   8   0.0743   0.0495   0.0438   0.0427   0.0164   0.0459   0.00    0.0
2018/06/06 01:00:00.000   4075578.2506    931853.2012   4801570.1118   6   8   0.0736   0.0490   0.0436   0.0423   0.0161   0.0454   0.00    0.0
2018/06/06 01:00:30.000   4075578.2480    931853.2006   4801570.1106   6   8   0.0729   0.0486   0.0434   0.0420   0.0159   0.0450   0.00    0.0
2018/06/06 01:01:00.000   4075578.2542    931853.2035   4801570.1055   6   8   0.0721   0.0481   0.0433   0.0416   0.0157   0.0445   0.00    0.0
2018/06/06 01:01:30.000   4075578.2576    931853.2022   4801570.1107   6   8   0.0715   0.0477   0.0432   0.0412   0.0154   0.0441   0.00    0.0
2018/06/06 01:02:00.000   4075578.2617    931853.2041   4801570.1136   6   8   0.0708   0.0472   0.0430   0.0408   0.0153   0.0437   0.00    0.0
2018/06/06 01:02:30.000   4075578.2650    931853.2035   4801570.1134   6   8   0.0702   0.0468   0.0430   0.0405   0.0150   0.0434   0.00    0.0
2018/06/06 01:03:00.000   4075578.2692    931853.2084   4801570.1127   6   8   0.0696   0.0464   0.0428   0.0401   0.0147   0.0430   0.00    0.0
2018/06/06 01:03:30.000   4075578.2680    931853.2070   4801570.1132   6   8   0.0690   0.0460   0.0427   0.0398   0.0145   0.0426   0.00    0.0
2018/06/06 01:04:00.000   4075578.2682    931853.2071   4801570.1156   6   8   0.0683   0.0455   0.0425   0.0394   0.0143   0.0422   0.00    0.0
2018/06/06 01:04:30.000   4075578.2706    931853.2058   4801570.1202   6   8   0.0677   0.0451   0.0425   0.0391   0.0142   0.0418   0.00    0.0
2018/06/06 01:05:00.000   4075578.2720    931853.2093   4801570.1162   6   8   0.0671   0.0447   0.0425   0.0387   0.0138   0.0416   0.00    0.0
2018/06/06 01:05:30.000   4075578.2628    931853.2031   4801570.1128   6   8   0.0665   0.0443   0.0423   0.0383   0.0137   0.0412   0.00    0.0
2018/06/06 01:06:00.000   4075578.2658    931853.2025   4801570.1164   6   8   0.0660   0.0439   0.0423   0.0380   0.0136   0.0409   0.00    0.0
2018/06/06 01:06:30.000   4075578.2563    931853.1963   4801570.1120   6   8   0.0655   0.0435   0.0422   0.0377   0.0131   0.0406   0.00    0.0
2018/06/06 01:07:00.000   4075578.2614    931853.1996   4801570.1097   6   8   0.0649   0.0432   0.0421   0.0373   0.0128   0.0403   0.00    0.0
2018/06/06 01:07:30.000   4075578.2628    931853.2000   4801570.1101   6   8   0.0644   0.0428   0.0421   0.0369   0.0127   0.0400   0.00    0.0
2018/06/06 01:08:00.000   4075578.2614    931853.1998   4801570.1138   6   8   0.0638   0.0424   0.0420   0.0367   0.0129   0.0398   0.00    0.0
2018/06/06 01:08:30.000   4075578.2545    931853.1951   4801570.1112   6   8   0.0633   0.0420   0.0419   0.0364   0.0123   0.0395   0.00    0.0
2018/06/06 01:09:00.000   4075578.2521    931853.1936   4801570.1137   6   8   0.0627   0.0417   0.0418   0.0360   0.0124   0.0391   0.00    0.0
2018/06/06 01:09:30.000   4075578.2591    931853.1964   4801570.1119   6   8   0.0623   0.0413   0.0417   0.0356   0.0119   0.0388   0.00    0.0
2018/06/06 01:10:00.000   4075578.2576    931853.1958   4801570.1115   6   8   0.0618   0.0409   0.0416   0.0353   0.0119   0.0385   0.00    0.0
2018/06/06 01:10:30.000   4075578.2547    931853.1943   4801570.1165   6   8   0.0613   0.0406   0.0416   0.0350   0.0118   0.0384   0.00    0.0
2018/06/06 01:11:00.000   4075578.2552    931853.1941   4801570.1120   6   8   0.0609   0.0402   0.0417   0.0348   0.0119   0.0382   0.00    0.0
2018/06/06 01:11:30.000   4075578.2613    931853.2002   4801570.1172   6   8   0.0604   0.0399   0.0416   0.0345   0.0115   0.0380   0.00    0.0
2018/06/06 01:12:00.000   4075578.2563    931853.1954   4801570.1152   6   8   0.0599   0.0395   0.0415   0.0341   0.0116   0.0376   0.00    0.0
2018/06/06 01:12:30.000   4075578.2504    931853.1949   4801570.1097   6   8   0.0595   0.0392   0.0414   0.0338   0.0115   0.0374   0.00    0.0
2018/06/06 01:13:00.000   4075578.2514    931853.1934   4801570.1123   6   8   0.0591   0.0389   0.0414   0.0336   0.0109   0.0371   0.00    0.0
2018/06/06 01:13:30.000   4075578.2500    931853.1911   4801570.1116   6   8   0.0585   0.0387   0.0414   0.0332   0.0110   0.0369   0.00    0.0
2018/06/06 01:14:00.000   4075578.2506    931853.1942   4801570.1139   6   8   0.0582   0.0383   0.0413   0.0330   0.0108   0.0367   0.00    0.0
2018/06/06 01:14:30.000   4075578.2428    931853.1888   4801570.1151   6   8   0.0577   0.0380   0.0412   0.0327   0.0107   0.0365   0.00    0.0
2018/06/06 01:15:00.000   4075578.2438    931853.1899   4801570.1158   6   8   0.0573   0.0377   0.0412   0.0325   0.0107   0.0363   0.00    0.0
2018/06/06 01:15:30.000   4075578.2425    931853.1927   4801570.1157   6   8   0.0570   0.0374   0.0412   0.0322   0.0105   0.0362   0.00    0.0
2018/06/06 01:16:00.000   4075578.2410    931853.1896   4801570.1137   6   8   0.0567   0.0371   0.0412   0.0319   0.0105   0.0360   0.00    0.0
2018/06/06 01:16:30.000   4075578.2380    931853.1888   4801570.1085   6   8   0.0561   0.0368   0.0412   0.0317   0.0104   0.0358   0.00    0.0
2018/06/06 01:17:00.000   4075578.2382    931853.1853   4801570.1136   6   8   0.0558   0.0365   0.0412   0.0314   0.0102   0.0356   0.00    0.0
2018/06/06 01:17:30.000   4075578.2328    931853.1838   4801570.1090   6   8   0.0555   0.0362   0.0411   0.0311   0.0102   0.0355   0.00    0.0
2018/06/06 01:18:00.000   4075578.2312    931853.1838   4801570.1036   6   8   0.0551   0.0359   0.0410   0.0309   0.0102   0.0353   0.00    0.0
2018/06/06 01:18:30.000   4075578.2289    931853.1802   4801570.1043   6   8   0.0548   0.0357   0.0410   0.0306   0.0099   0.0351   0.00    0.0
2018/06/06 01:19:00.000   4075578.2236    931853.1774   4801570.1039   6   8   0.0545   0.0354   0.0410   0.0304   0.0099   0.0350   0.00    0.0
2018/06/06 01:19:30.000   4075578.2203    931853.1769   4801570.1044   6   8   0.0541   0.0351   0.0409   0.0302   0.0097   0.0348   0.00    0.0
2018/06/06 01:20:00.000   4075578.2175    931853.1712   4801570.0996   6   8   0.0538   0.0348   0.0409   0.0299   0.0099   0.0346   0.00    0.0
2018/06/06 01:20:30.000   4075578.2122    931853.1662   4801570.1024   6   8   0.0535   0.0346   0.0409   0.0297   0.0099   0.0344   0.00    0.0
2018/06/06 01:21:00.000   4075578.2145    931853.1660   4801570.1020   6   8   0.0532   0.0344   0.0409   0.0295   0.0099   0.0343   0.00    0.0
2018/06/06 01:21:30.000   4075578.2158    931853.1656   4801570.1102   6   8   0.0529   0.0341   0.0409   0.0293   0.0098   0.0342   0.00    0.0
2018/06/06 01:22:00.000   4075578.2115    931853.1627   4801570.1081   6   8   0.0526   0.0339   0.0407   0.0291   0.0098   0.0340   0.00    0.0
2018/06/06 01:22:30.000   4075578.2064    931853.1590   4801570.1115   6   8   0.0522   0.0337   0.0408   0.0289   0.0099   0.0339   0.00    0.0
2018/06/06 01:23:00.000   4075578.2056    931853.1577   4801570.1148   6   8   0.0520   0.0334   0.0408   0.0287   0.0099   0.0338   0.00    0.0
2018/06/06 01:23:30.000   4075578.2006    931853.1550   4801570.1055   6   8   0.0516   0.0331   0.0407   0.0284   0.0096   0.0337   0.00    0.0
2018/06/06 01:24:00.000   4075578.1970    931853.1495   4801570.1161   6   8   0.0515   0.0329   0.0408   0.0283   0.0102   0.0336   0.00    0.0
2018/06/06 01:24:30.000   4075578.2006    931853.1458   4801570.1152   6   8   0.0511   0.0327   0.0406   0.0281   0.0100   0.0334   0.00    0.0
2018/06/06 01:25:00.000   4075578.1951    931853.1407   4801570.1220   6   8   0.0509   0.0325   0.0406   0.0280   0.0099   0.0332   0.00    0.0
2018/06/06 01:25:30.000   4075578.1920    931853.1372   4801570.1263   6   8   0.0507   0.0323   0.0406   0.0277   0.0098   0.0332   0.00    0.0
2018/06/06 01:26:00.000   4075578.1906    931853.1352   4801570.1208   6   8   0.0505   0.0320   0.0406   0.0276   0.0102   0.0331   0.00    0.0
2018/06/06 01:26:30.000   4075578.1867    931853.1317   4801570.1214   6   8   0.0502   0.0320   0.0405   0.0274   0.0098   0.0330   0.00    0.0
2018/06/06 01:27:00.000   4075578.1839    931853.1259   4801570.1168   6   8   0.0500   0.0317   0.0406   0.0272   0.0101   0.0329   0.00    0.0
2018/06/06 01:27:30.000   4075578.1803    931853.1232   4801570.1181   6   8   0.0498   0.0315   0.0405   0.0271   0.0100   0.0328   0.00    0.0
2018/06/06 01:28:00.000   4075578.1765    931853.1241   4801570.1180   6   8   0.0495   0.0313   0.0404   0.0268   0.0099   0.0327   0.00    0.0
2018/06/06 01:28:30.000   4075578.1787    931853.1237   4801570.1197   6   8   0.0493   0.0311   0.0404   0.0267   0.0101   0.0326   0.00    0.0
2018/06/06 01:29:00.000   4075578.1743    931853.1216   4801570.1135   6   8   0.0491   0.0309   0.0404   0.0266   0.0102   0.0325   0.00    0.0
2018/06/06 01:29:30.000   4075578.1786    931853.1185   4801570.1203   6   8   0.0489   0.0307   0.0404   0.0264   0.0101   0.0323   0.00    0.0
2018/06/06 01:30:00.000   4075578.1767    931853.1139   4801570.1218   6   8   0.0487   0.0305   0.0403   0.0263   0.0101   0.0323   0.00    0.0
2018/06/06 01:30:30.000   4075578.1753    931853.1110   4801570.1207   6   8   0.0485   0.0303   0.0403   0.0261   0.0103   0.0323   0.00    0.0
2018/06/06 01:31:00.000   4075578.1725    931853.1090   4801570.1231   6   8   0.0484   0.0302   0.0403   0.0260   0.0105   0.0322   0.00    0.0
2018/06/06 01:31:30.000   4075578.1720    931853.1090   4801570.1161   6   8   0.0482   0.0301   0.0403   0.0257   0.0104   0.0322   0.00    0.0
2018/06/06 01:32:00.000   4075578.1755    931853.1124   4801570.1218   6   8   0.0480   0.0299   0.0402   0.0257   0.0106   0.0321   0.00    0.0
2018/06/06 01:32:30.000   4075578.1747    931853.1134   4801570.1108   6   8   0.0478   0.0297   0.0402   0.0255   0.0105   0.0320   0.00    0.0
2018/06/06 01:33:00.000   4075578.1759    931853.1154   4801570.1127   6   8   0.0476   0.0296   0.0402   0.0254   0.0105   0.0320   0.00    0.0
2018/06/06 01:33:30.000   4075578.1771    931853.1176   4801570.1170   6   8   0.0475   0.0295   0.0402   0.0252   0.0107   0.0319   0.00    0.0
2018/06/06 01:34:00.000   4075578.1764    931853.1185   4801570.1139   6   8   0.0473   0.0292   0.0402   0.0252   0.0107   0.0319   0.00    0.0
2018/06/06 01:34:30.000   4075578.1755    931853.1184   4801570.1034   6   8   0.0472   0.0292   0.0402   0.0250   0.0107   0.0318   0.00    0.0
2018/06/06 01:35:00.000   4075578.1734    931853.1176   4801570.1116   6   8   0.0471   0.0290   0.0401   0.0250   0.0110   0.0317   0.00    0.0
2018/06/06 01:35:30.000   4075578.1711    931853.1167   4801570.1035   6   8   0.0469   0.0288   0.0401   0.0248   0.0110   0.0316   0.00    0.0
2018/06/06 01:36:00.000   4075578.1664    931853.1124   4801570.1092   6   8   0.0468   0.0287   0.0400   0.0246   0.0111   0.0317   0.00    0.0
2018/06/06 01:36:30.000   4075578.1699    931853.1144   4801570.1083   6   8   0.0467   0.0285   0.0401   0.0246   0.0112   0.0315   0.00    0.0
2018/06/06 01:37:00.000   4075578.1704    931853.1163   4801570.1048   6   8   0.0465   0.0285   0.0401   0.0245   0.0112   0.0316   0.00    0.0
2018/06/06 01:37:30.000   4075578.1738    931853.1198   4801570.1050   6   8   0.0464   0.0283   0.0400   0.0244   0.0113   0.0315   0.00    0.0
2018/06/06 01:38:00.000   4075578.1674    931853.1158   4801570.1079   6   8   0.0464   0.0281   0.0400   0.0242   0.0115   0.0316   0.00    0.0
2018/06/06 01:38:30.000   4075578.1614    931853.1101   4801570.1011   6   8   0.0462   0.0280   0.0400   0.0242   0.0115   0.0315   0.00    0.0
2018/06/06 01:39:00.000   4075578.1665    931853.1097   4801570.1212   6   8   0.0461   0.0279   0.0400   0.0242   0.0117   0.0314   0.00    0.0
2018/06/06 01:39:30.000   4075578.1646    931853.1086   4801570.1271   6   8   0.0460   0.0278   0.0400   0.0241   0.0116   0.0314   0.00    0.0
2018/06/06 01:40:00.000   4075578.1605    931853.1060   4801570.1037   6   8   0.0458   0.0276   0.0400   0.0240   0.0116   0.0314   0.00    0.0
2018/06/06 01:40:30.000   4075578.1648    931853.1051   4801570.1105   6   8   0.0458   0.0277   0.0400   0.0239   0.0118   0.0313   0.00    0.0
2018/06/06 01:41:00.000   4075578.1768    931853.1054   4801570.1489   6   8   0.0457   0.0275   0.0400   0.0237   0.0119   0.0315   0.00    0.0
2018/06/06 01:41:30.000   4075578.1635    931853.1011   4801570.1251   6   8   0.0456   0.0274   0.0400   0.0238   0.0121   0.0313   0.00    0.0
2018/06/06 01:42:00.000   4075578.1591    931853.0975   4801570.1043   6   8   0.0455   0.0273   0.0400   0.0237   0.0121   0.0313   0.00    0.0
2018/06/06 01:42:30.000   4075578.1644    931853.0987   4801570.1256   6   8   0.0455   0.0272   0.0401   0.0236   0.0123   0.0314   0.00    0.0
2018/06/06 01:43:00.000   4075578.1637    931853.0998   4801570.1334   6   8   0.0454   0.0271   0.0400   0.0236   0.0123   0.0313   0.00    0.0
2018/06/06 01:43:30.000   4075578.1603    931853.0993   4801570.1183   6   8   0.0453   0.0270   0.0400   0.0235   0.0125   0.0314   0.00    0.0
2018/06/06 01:44:00.000   4075578.1508    931853.0958   4801570.1150   6   8   0.0453   0.0269   0.0400   0.0234   0.0124   0.0313   0.00    0.0
2018/06/06 01:44:30.000   4075578.1548    931853.0956   4801570.1226   6   8   0.0452   0.0268   0.0401   0.0233   0.0126   0.0314   0.00    0.0
2018/06/06 01:45:00.000   4075578.1548    931853.0936   4801570.1239   6   8   0.0453   0.0268   0.0401   0.0233   0.0126   0.0314   0.00    0.0
2018/06/06 01:45:30.000   4075578.1529    931853.0954   4801570.1220   6   8   0.0452   0.0267   0.0401   0.0232   0.0127   0.0314   0.00    0.0
2018/06/06 01:46:00.000   4075578.1496    931853.0938   4801570.1178   6   8   0.0452   0.0266   0.0401   0.0231   0.0128   0.0314   0.00    0.0
2018/06/06 01:46:30.000   4075578.1450    931853.0929   4801570.1200   6   8   0.0451   0.0265   0.0401   0.0232   0.0129   0.0314   0.00    0.0
2018/06/06 01:47:00.000   4075578.1435    931853.0930   4801570.1179   6   8   0.0451   0.0265   0.0402   0.0232   0.0130   0.0314   0.00    0.0
2018/06/06 01:47:30.000   4075578.1464    931853.0949   4801570.1222   6   8   0.0451   0.0263   0.0402   0.0230   0.0132   0.0315   0.00    0.0
2018/06/06 01:48:00.000   4075578.1460    931853.0931   4801570.1194   6   8   0.0451   0.0263   0.0403   0.0231   0.0133   0.0315   0.00    0.0
2018/06/06 01:48:30.000   4075578.1444    931853.0935   4801570.1162   6   8   0.0450   0.0262   0.0403   0.0230   0.0134   0.0315   0.00    0.0
2018/06/06 01:49:00.000   4075578.1404    931853.0933   4801570.1146   6   8   0.0450   0.0261   0.0403   0.0230   0.0135   0.0316   0.00    0.0
2018/06/06 01:49:30.000   4075578.1363    931853.0922   4801570.1071   6   8   0.0450   0.0261   0.0403   0.0231   0.0135   0.0315   0.00    0.0
2018/06/06 01:50:00.000   4075578.1332    931853.0913   4801570.1069   6   8   0.0450   0.0261   0.0403   0.0229   0.0135   0.0316   0.00    0.0
2018/06/06 01:50:30.000   4075578.1320    931853.0890   4801570.1154   6   8   0.0450   0.0260   0.0404   0.0230   0.0138   0.0316   0.00    0.0
2018/06/06 01:51:00.000   4075578.1313    931853.0873   4801570.1177   6   8   0.0450   0.0259   0.0405   0.0230   0.0139   0.0317   0.00    0.0
2018/06/06 01:51:30.000   4075578.1294    931853.0845   4801570.1122   6   8   0.0450   0.0259   0.0405   0.0229   0.0138   0.0317   0.00    0.0
2018/06/06 01:52:00.000   4075578.1215    931853.0828   4801570.1058   6   8   0.0450   0.0257   0.0405   0.0229   0.0140   0.0318   0.00    0.0
2018/06/06 01:52:30.000   4075578.1169    931853.0808   4801570.1021   6   8   0.0450   0.0258   0.0406   0.0228   0.0141   0.0318   0.00    0.0
2018/06/06 01:53:00.000   4075578.1138    931853.0802   4801570.1084   6   8   0.0451   0.0257   0.0406   0.0229   0.0142   0.0319   0.00    0.0
2018/06/06 01:53:30.000   4075578.1094    931853.0748   4801570.1181   6   8   0.0451   0.0256   0.0407   0.0229   0.0142   0.0319   0.00    0.0
2018/06/06 01:54:00.000   4075578.0993    931853.0724   4801570.0951   6   8   0.0451   0.0256   0.0407   0.0228   0.0143   0.0320   0.00    0.0
2018/06/06 01:54:30.000   4075578.0992    931853.0707   4801570.1095   6   8   0.0451   0.0255   0.0408   0.0228   0.0144   0.0321   0.00    0.0
2018/06/06 01:55:00.000   4075578.0992    931853.0731   4801570.1161   6   8   0.0452   0.0255   0.0408   0.0228   0.0144   0.0320   0.00    0.0
2018/06/06 01:55:30.000   4075578.1012    931853.0738   4801570.1157   6   8   0.0452   0.0254   0.0408   0.0228   0.0145   0.0321   0.00    0.0
2018/06/06 01:56:00.000   4075578.0883    931853.0720   4801570.0937   6   8   0.0452   0.0254   0.0409   0.0229   0.0146   0.0322   0.00    0.0
2018/06/06 01:56:30.000   4075578.0847    931853.0697   4801570.0914   6   8   0.0452   0.0253   0.0410   0.0228   0.0147   0.0322   0.00    0.0
2018/06/06 01:57:00.000   4075578.0887    931853.0716   4801570.1039   6   8   0.0454   0.0253   0.0410   0.0229   0.0147   0.0322   0.00    0.0
2018/06/06 01:57:30.000   4075578.0842    931853.0724   4801570.1036   6   8   0.0454   0.0254   0.0411   0.0227   0.0148   0.0323   0.00    0.0
2018/06/06 01:58:00.000   4075578.0812    931853.0709   4801570.0914   6   8   0.0454   0.0253   0.0411   0.0227   0.0147   0.0324   0.00    0.0
2018/06/06 01:58:30.000   4075578.0808    931853.0735   4801570.0942   6   8   0.0455   0.0252   0.0411   0.0229   0.0148   0.0324   0.00    0.0
2018/06/06 01:59:00.000   4075578.0786    931853.0733   4801570.0985   6   8   0.0455   0.0252   0.0412   0.0228   0.0149   0.0324   0.00    0.0
2018/06/06 01:59:30.000   4075578.0738    931853.0705   4801570.0994   6   8   0.0455   0.0251   0.0412   0.0229   0.0149   0.0323   0.00    0.0
2018/06/06 02:00:00.000   4075578.0679    931853.0692   4801570.0980   6   8   0.0456   0.0251   0.0413   0.0228   0.0150   0.0324   0.00    0.0
2018/06/06 02:00:30.000   4075578.0653    931853.0688   4801570.0969   6   8   0.0457   0.0251   0.0413   0.0227   0.0149   0.0325   0.00    0.0
2018/06/06 02:01:00.000   4075578.0629    931853.0678   4801570.0855   6   8   0.0457   0.0250   0.0413   0.0227   0.0150   0.0325   0.00    0.0
2018/06/06 02:01:30.000   4075578.0702    931853.0669   4801570.0955   6   8   0.0458   0.0249   0.0414   0.0227   0.0151   0.0325   0.00    0.0
2018/06/06 02:02:00.000   4075578.0588    931853.0661   4801570.0834   6   8   0.0458   0.0250   0.0414   0.0227   0.0150   0.0325   0.00    0.0
2018/06/06 02:02:30.000   4075578.0615    931853.0651   4801570.0731   6   8   0.0458   0.0250   0.0414   0.0227   0.0150   0.0325   0.00    0.0
2018/06/06 02:03:00.000   4075578.0580    931853.0603   4801570.0918   6   8   0.0459   0.0249   0.0414   0.0226   0.0149   0.0325   0.00    0.0
2018/06/06 02:03:30.000   4075578.0580    931853.0561   4801570.0908   6   8   0.0460   0.0249   0.0414   0.0227   0.0149   0.0325   0.00    0.0
2018/06/06 02:04:00.000   4075578.0580    931853.0559   4801570.0795   6   8   0.0459   0.0248   0.0414   0.0227   0.0149   0.0324   0.00    0.0
2018/06/06 02:04:30.000   4075578.0597    931853.0535   4801570.0835   6   8   0.0461   0.0248   0.0414   0.0227   0.0149   0.0324   0.00    0.0
2018/06/06 02:05:00.000   4075578.0567    931853.0507   4801570.0958   6   8   0.0461   0.0247   0.0415   0.0225   0.0149   0.0324   0.00    0.0
2018/06/06 02:05:30.000   4075578.0596    931853.0488   4801570.1050   6   7   0.0498   0.0248   0.0417   0.0235   0.0153   0.0336   0.00    0.0
2018/06/06 02:06:00.000   4075578.0563    931853.0480   4801570.0947   6   8   0.0499   0.0247   0.0417   0.0236   0.0151   0.0335   0.00    0.0
2018/06/06 02:06:30.000   4075578.0459    931853.0464   4801570.0871   6   8   0.0496   0.0245   0.0412   0.0230   0.0143   0.0328   0.00    0.0
2018/06/06 02:07:00.000   4075578.0379    931853.0423   4801570.0902   6   8   0.0494   0.0245   0.0411   0.0228   0.0138   0.0324   0.00    0.0
2018/06/06 02:07:30.000   4075578.0377    931853.0452   4801570.0903   6   8   0.0493   0.0243   0.0409   0.0227   0.0136   0.0321   0.00    0.0
2018/06/06 02:08:00.000   4075578.0335    931853.0442   4801570.0876   6   8   0.0492   0.0243   0.0408   0.0227   0.0133   0.0318   0.00    0.0
2018/06/06 02:08:30.000   4075578.0316    931853.0449   4801570.0855   6   8   0.0492   0.0243   0.0407   0.0225   0.0129   0.0316   0.00    0.0
2018/06/06 02:09:00.000   4075578.0382    931853.0496   4801570.0779   6   8   0.0492   0.0242   0.0407   0.0224   0.0127   0.0314   0.00    0.0
2018/06/06 02:09:30.000   4075578.0361    931853.0514   4801570.0651   6   8   0.0491   0.0241   0.0406   0.0224   0.0125   0.0311   0.00    0.0
2018/06/06 02:10:00.000   4075578.0357    931853.0479   4801570.0693   6   8   0.0492   0.0241   0.0405   0.0222   0.0121   0.0308   0.00    0.0
2018/06/06 02:10:30.000   4075578.0329    931853.0488   4801570.0741   6   7   0.0514   0.0247   0.0429   0.0202   0.0079   0.0339   0.00    0.0
2018/06/06 02:11:00.000   4075578.0334    931853.0490   4801570.0724   6   7   0.0514   0.0246   0.0427   0.0203   0.0079   0.0336   0.00    0.0
2018/06/06 02:11:30.000   4075578.0425    931853.0488   4801570.0802   6   7   0.0512   0.0245   0.0426   0.0204   0.0077   0.0332   0.00    0.0
2018/06/06 02:12:00.000   4075578.0423    931853.0468   4801570.0774   6   7   0.0512   0.0246   0.0424   0.0203   0.0075   0.0329   0.00    0.0
2018/06/06 02:12:30.000   4075578.0418    931853.0499   4801570.0783   6   7   0.0511   0.0245   0.0423   0.0204   0.0073   0.0325   0.00    0.0
2018/06/06 02:13:00.000   4075578.0388    931853.0456   4801570.0819   6   7   0.0510   0.0244   0.0422   0.0205   0.0073   0.0322   0.00    0.0
2018/06/06 02:13:30.000   4075578.0316    931853.0425   4801570.0853   6   7   0.0510   0.0243   0.0421   0.0204   0.0071   0.0319   0.00    0.0
2018/06/06 02:14:00.000   4075578.0280    931853.0403   4801570.0879   6   6   0.0509   0.0245   0.0472   0.0203  -0.0040   0.0321   0.00    0.0
2018/06/06 02:14:30.000   4075578.0240    931853.0397   4801570.0853   6   6   0.0508   0.0244   0.0468   0.0204  -0.0042   0.0316   0.00    0.0
2018/06/06 02:15:00.000   4075578.0270    931853.0402   4801570.0904   6   6   0.0508   0.0245   0.0465   0.0205  -0.0037   0.0312   0.00    0.0
2018/06/06 02:15:30.000   4075578.0199    931853.0384   4801570.0761   6   6   0.0508   0.0245   0.0462   0.0206  -0.0037   0.0307   0.00    0.0
2018/06/06 02:16:00.000   4075578.0212    931853.0401   4801570.0806   6   6   0.0507   0.0244   0.0459   0.0207  -0.0034   0.0304   0.00    0.0
2018/06/06 02:16:30.000   4075578.0167    931853.0395   4801570.0777   6   6   0.0507   0.0245   0.0456   0.0208  -0.0040   0.0299   0.00    0.0
2018/06/06 02:17:00.000   4075578.0203    931853.0423   4801570.0842   6   6   0.0507   0.0245   0.0453   0.0210  -0.0034   0.0294   0.00    0.0
2018/06/06 02:17:30.000   4075578.0188    931853.0430   4801570.0809   6   6   0.0506   0.0244   0.0451   0.0210  -0.0029   0.0292   0.00    0.0
2018/06/06 02:18:00.000   4075578.0174    931853.0433   4801570.0814   6   6   0.0507   0.0245   0.0448   0.0211  -0.0031   0.0287   0.00    0.0
2018/06/06 02:18:30.000   4075578.0143    931853.0421   4801570.0839   6   6   0.0506   0.0245   0.0445   0.0212  -0.0034   0.0283   0.00    0.0
2018/06/06 02:19:00.000   4075578.0193    931853.0453   4801570.0843   6   6   0.0506   0.0244   0.0443   0.0213  -0.0037   0.0279   0.00    0.0
2018/06/06 02:19:30.000   4075578.0201    931853.0459   4801570.0847   6   7   0.0506   0.0244   0.0440   0.0213  -0.0038   0.0274   0.00    0.0
2018/06/06 02:20:00.000   4075578.0155    931853.0458   4801570.0783   6   7   0.0506   0.0242   0.0405   0.0215   0.0060   0.0265   0.00    0.0
2018/06/06 02:20:30.000   4075578.0199    931853.0437   4801570.0799   6   7   0.0506   0.0242   0.0390   0.0216   0.0074   0.0260   0.00    0.0
2018/06/06 02:21:00.000   4075578.0220    931853.0463   4801570.0711   6   7   0.0506   0.0242   0.0382   0.0217   0.0080   0.0257   0.00    0.0
2018/06/06 02:21:30.000   4075578.0220    931853.0465   4801570.0766   6   7   0.0506   0.0241   0.0375   0.0217   0.0081   0.0253   0.00    0.0
2018/06/06 02:22:00.000   4075578.0150    931853.0468   4801570.0753   6   7   0.0506   0.0241   0.0371   0.0218   0.0083   0.0251   0.00    0.0
2018/06/06 02:22:30.000   4075578.0189    931853.0470   4801570.0704   6   7   0.0506   0.0241   0.0366   0.0219   0.0084   0.0247   0.00    0.0
2018/06/06 02:23:00.000   4075578.0169    931853.0479   4801570.0703   6   7   0.0506   0.0240   0.0363   0.0218   0.0085   0.0245   0.00    0.0
2018/06/06 02:23:30.000   4075578.0269    931853.0500   4801570.0737   6   7   0.0507   0.0240   0.0359   0.0219   0.0089   0.0243   0.00    0.0
2018/06/06 02:24:00.000   4075578.0242    931853.0485   4801570.0692   6   7   0.0507   0.0239   0.0357   0.0219   0.0090   0.0240   0.00    0.0
2018/06/06 02:24:30.000   4075578.0243    931853.0440   4801570.0708   6   7   0.0507   0.0240   0.0352   0.0219   0.0087   0.0236   0.00    0.0
2018/06/06 02:25:00.000   4075578.0254    931853.0486   4801570.0733   6   7   0.0507   0.0239   0.0350   0.0219   0.0092   0.0235   0.00    0.0
2018/06/06 02:25:30.000   4075578.0227    931853.0469   4801570.0649   6   7   0.0507   0.0239   0.0348   0.0219   0.0093   0.0232   0.00    0.0
2018/06/06 02:26:00.000   4075578.0162    931853.0470   4801570.0692   6   7   0.0507   0.0239   0.0346   0.0219   0.0094   0.0231   0.00    0.0
2018/06/06 02:26:30.000   4075578.0057    931853.0445   4801570.0620   6   7   0.0507   0.0238   0.0344   0.0219   0.0094   0.0230   0.00    0.0
2018/06/06 02:27:00.000   4075578.0060    931853.0439   4801570.0646   6   7   0.0508   0.0238   0.0340   0.0219   0.0093   0.0226   0.00    0.0
2018/06/06 02:27:30.000   4075578.0072    931853.0420   4801570.0634   6   7   0.0508   0.0238   0.0339   0.0219   0.0092   0.0226   0.00    0.0
2018/06/06 02:28:00.000   4075577.9968    931853.0388   4801570.0658   6   7   0.0508   0.0238   0.0337   0.0220   0.0095   0.0224   0.00    0.0
2018/06/06 02:28:30.000   4075578.0012    931853.0379   4801570.0562   6   7   0.0508   0.0237   0.0335   0.0220   0.0095   0.0222   0.00    0.0
2018/06/06 02:29:00.000   4075577.9997    931853.0392   4801570.0643   6   7   0.0508   0.0237   0.0333   0.0219   0.0092   0.0220   0.00    0.0
2018/06/06 02:29:30.000   4075578.0055    931853.0372   4801570.0715   6   7   0.0508   0.0237   0.0332   0.0219   0.0095   0.0220   0.00    0.0
2018/06/06 02:30:00.000   4075578.0027    931853.0319   4801570.0717   6   7   0.0508   0.0237   0.0330   0.0219   0.0093   0.0218   0.00    0.0
2018/06/06 02:30:30.000   4075577.9999    931853.0344   4801570.0700   6   7   0.0508   0.0236   0.0329   0.0219   0.0097   0.0217   0.00    0.0
2018/06/06 02:31:00.000   4075578.0024    931853.0327   4801570.0772   6   7   0.0508   0.0236   0.0328   0.0218   0.0096   0.0216   0.00    0.0
2018/06/06 02:31:30.000   4075578.0020    931853.0337   4801570.0817   6   7   0.0507   0.0236   0.0326   0.0217   0.0098   0.0214   0.00    0.0
2018/06/06 02:32:00.000   4075577.9993    931853.0328   4801570.0809   6   7   0.0507   0.0235   0.0325   0.0218   0.0099   0.0213   0.00    0.0
2018/06/06 02:32:30.000   4075578.0017    931853.0293   4801570.0739   6   7   0.0507   0.0234   0.0324   0.0218   0.0098   0.0213   0.00    0.0
2018/06/06 02:33:00.000   4075577.9935    931853.0264   4801570.0788   6   7   0.0507   0.0235   0.0322   0.0218   0.0099   0.0212   0.00    0.0
2018/06/06 02:33:30.000   4075577.9902    931853.0279   4801570.0908   6   7   0.0507   0.0235   0.0321   0.0217   0.0098   0.0211   0.00    0.0
2018/06/06 02:34:00.000   4075577.9952    931853.0284   4801570.0951   6   7   0.0506   0.0234   0.0320   0.0216   0.0098   0.0210   0.00    0.0
2018/06/06 02:34:30.000   4075577.9934    931853.0292   4801570.0954   6   7   0.0506   0.0234   0.0319   0.0216   0.0101   0.0209   0.00    0.0
2018/06/06 02:35:00.000   4075578.0006    931853.0285   4801570.0982   6   7   0.0505   0.0233   0.0320   0.0216   0.0103   0.0210   0.00    0.0
2018/06/06 02:35:30.000   4075577.9982    931853.0292   4801570.0962   6   7   0.0505   0.0233   0.0317   0.0215   0.0100   0.0208   0.00    0.0
2018/06/06 02:36:00.000   4075577.9968    931853.0294   4801570.0936   6   7   0.0504   0.0233   0.0316   0.0215   0.0100   0.0208   0.00    0.0
2018/06/06 02:36:30.000   4075577.9954    931853.0277   4801570.0991   6   7   0.0504   0.0233   0.0316   0.0214   0.0103   0.0208   0.00    0.0
2018/06/06 02:37:00.000   4075577.9912    931853.0292   4801570.1117   6   7   0.0503   0.0232   0.0314   0.0214   0.0101   0.0206   0.00    0.0
2018/06/06 02:37:30.000   4075577.9910    931853.0302   4801570.1081   6   7   0.0503   0.0232   0.0314   0.0213   0.0102   0.0206   0.00    0.0
2018/06/06 02:38:00.000   4075577.9984    931853.0302   4801570.1013   6   7   0.0502   0.0232   0.0314   0.0213   0.0104   0.0206   0.00    0.0
2018/06/06 02:38:30.000   4075577.9966    931853.0259   4801570.0990   6   7   0.0501   0.0232   0.0313   0.0212   0.0107   0.0205   0.00    0.0
2018/06/06 02:39:00.000   4075577.9867    931853.0228   4801570.1077   6   7   0.0501   0.0232   0.0313   0.0212   0.0105   0.0206   0.00    0.0
2018/06/06 02:39:30.000   4075577.9884    931853.0260   4801570.1141   6   7   0.0500   0.0231   0.0312   0.0211   0.0107   0.0206   0.00    0.0
2018/06/06 02:40:00.000   4075577.9991    931853.0279   4801570.1039   6   7   0.0499   0.0231   0.0312   0.0211   0.0107   0.0206   0.00    0.0
2018/06/06 02:40:30.000   4075577.9932    931853.0236   4801570.0936   6   7   0.0498   0.0230   0.0312   0.0211   0.0110   0.0207   0.00    0.0
2018/06/06 02:41:00.000   4075577.9831    931853.0223   4801570.0932   6   7   0.0497   0.0231   0.0311   0.0210   0.0109   0.0206   0.00    0.0
2018/06/06 02:41:30.000   4075577.9811    931853.0261   4801570.1026   6   7   0.0497   0.0231   0.0310   0.0210   0.0110   0.0205   0.00    0.0
2018/06/06 02:42:00.000   4075577.9946    931853.0330   4801570.1008   6   7   0.0495   0.0231   0.0311   0.0210   0.0109   0.0207   0.00    0.0
2018/06/06 02:42:30.000   4075578.0047    931853.0348   4801570.0938   6   7   0.0495   0.0230   0.0311   0.0209   0.0110   0.0207   0.00    0.0
2018/06/06 02:43:00.000   4075577.9924    931853.0301   4801570.0915   6   7   0.0494   0.0230   0.0310   0.0207   0.0110   0.0207   0.00    0.0
2018/06/06 02:43:30.000   4075577.9992    931853.0390   4801570.1002   6   7   0.0493   0.0230   0.0310   0.0208   0.0111   0.0208   0.00    0.0
2018/06/06 02:44:00.000   4075577.9937    931853.0370   4801570.0945   6   7   0.0492   0.0230   0.0310   0.0207   0.0114   0.0208   0.00    0.0
2018/06/06 02:44:30.000   4075577.9891    931853.0398   4801570.0924   6   7   0.0491   0.0229   0.0309   0.0207   0.0115   0.0208   0.00    0.0
2018/06/06 02:45:00.000   4075577.9906    931853.0448   4801570.0911   6   7   0.0490   0.0228   0.0310   0.0206   0.0114   0.0209   0.00    0.0
2018/06/06 02:45:30.000   4075577.9828    931853.0426   4801570.0778   6   7   0.0488   0.0229   0.0310   0.0205   0.0115   0.0209   0.00    0.0
2018/06/06 02:46:00.000   4075577.9849    931853.0391   4801570.0734   6   7   0.0488   0.0229   0.0309   0.0205   0.0114   0.0210   0.00    0.0
2018/06/06 02:46:30.000   4075577.9932    931853.0445   4801570.0733   6   7   0.0486   0.0229   0.0310   0.0204   0.0116   0.0210   0.00    0.0
2018/06/06 02:47:00.000   4075577.9949    931853.0511   4801570.0916   6   7   0.0485   0.0229   0.0310   0.0204   0.0117   0.0211   0.00    0.0
2018/06/06 02:47:30.000   4075577.9851    931853.0479   4801570.0916   6   7   0.0484   0.0229   0.0309   0.0204   0.0118   0.0211   0.00    0.0
2018/06/06 02:48:00.000   4075577.9893    931853.0391   4801570.0669   6   7   0.0483   0.0229   0.0310   0.0203   0.0119   0.0212   0.00    0.0
2018/06/06 02:48:30.000   4075577.9963    931853.0358   4801570.0611   6   7   0.0482   0.0228   0.0311   0.0202   0.0118   0.0214   0.00    0.0
2018/06/06 02:49:00.000   4075577.9978    931853.0442   4801570.0796   6   7   0.0481   0.0229   0.0310   0.0202   0.0119   0.0214   0.00    0.0
2018/06/06 02:49:30.000   4075578.0073    931853.0484   4801570.0946   6   7   0.0479   0.0228   0.0312   0.0202   0.0122   0.0216   0.00    0.0
2018/06/06 02:50:00.000   4075578.0027    931853.0450   4801570.0856   6   7   0.0478   0.0228   0.0311   0.0201   0.0121   0.0215   0.00    0.0
2018/06/06 02:50:30.000   4075578.0100    931853.0397   4801570.0702   6   7   0.0477   0.0228   0.0312   0.0201   0.0122   0.0217   0.00    0.0
2018/06/06 02:51:00.000   4075578.0136    931853.0484   4801570.0905   6   7   0.0476   0.0228   0.0311   0.0200   0.0125   0.0217   0.00    0.0
2018/06/06 02:51:30.000   4075578.0215    931853.0502   4801570.0997   6   7   0.0475   0.0228   0.0313   0.0201   0.0124   0.0219   0.00    0.0
2018/06/06 02:52:00.000   4075578.0249    931853.0489   4801570.0996   6   7   0.0473   0.0228   0.0312   0.0200   0.0124   0.0218   0.00    0.0
2018/06/06 02:52:30.000   4075578.0206    931853.0446   4801570.0893   6   7   0.0472   0.0229   0.0314   0.0199   0.0128   0.0221   0.00    0.0
2018/06/06 02:53:00.000   4075578.0257    931853.0466   4801570.0937   6   7   0.0471   0.0228   0.0313   0.0199   0.0128   0.0221   0.00    0.0
2018/06/06 02:53:30.000   4075578.0226    931853.0443   4801570.0954   6   7   0.0470   0.0229   0.0314   0.0199   0.0128   0.0222   0.00    0.0
2018/06/06 02:54:00.000   4075578.0366    931853.0459   4801570.0981   6   7   0.0469   0.0229   0.0315   0.0199   0.0129   0.0223   0.00    0.0
2018/06/06 02:54:30.000   4075578.0343    931853.0458   4801570.1072   6   7   0.0467   0.0229   0.0316   0.0199   0.0130   0.0225   0.00    0.0
2018/06/06 02:55:00.000   4075578.0346    931853.0436   4801570.0966   6   7   0.0466   0.0229   0.0316   0.0199   0.0131   0.0225   0.00    0.0
2018/06/06 02:55:30.000   4075578.0321    931853.0333   4801570.0855   6   7   0.0464   0.0228   0.0317   0.0198   0.0134   0.0227   0.00    0.0
2018/06/06 02:56:00.000   4075578.0353    931853.0332   4801570.0900   6   7   0.0464   0.0228   0.0317   0.0198   0.0133   0.0227   0.00    0.0
2018/06/06 02:56:30.000   4075578.0380    931853.0380   4801570.1018   6   7   0.0462   0.0229   0.0317   0.0198   0.0133   0.0228   0.00    0.0
2018/06/06 02:57:00.000   4075578.0400    931853.0371   4801570.0972   6   7   0.0461   0.0229   0.0318   0.0197   0.0135   0.0229   0.00    0.0
2018/06/06 02:57:30.000   4075578.0321    931853.0306   4801570.0860   6   7   0.0459   0.0230   0.0319   0.0198   0.0135   0.0231   0.00    0.0
2018/06/06 02:58:00.000   4075578.0340    931853.0310   4801570.0862   6   7   0.0459   0.0230   0.0320   0.0197   0.0138   0.0232   0.00    0.0
2018/06/06 02:58:30.000   4075578.0340    931853.0345   4801570.0921   6   7   0.0457   0.0229   0.0321   0.0198   0.0138   0.0234   0.00    0.0
2018/06/06 02:59:00.000   4075578.0371    931853.0377   4801570.0888   6   7   0.0456   0.0230   0.0322   0.0198   0.0140   0.0235   0.00    0.0
2018/06/06 02:59:30.000   4075578.0308    931853.0393   4801570.0811   6   7   0.0455   0.0230   0.0323   0.0198   0.0143   0.0236   0.00    0.0
2018/06/06 03:00:00.000   4075578.0350    931853.0373   4801570.0687   6   7   0.0454   0.0230   0.0325   0.0197   0.0143   0.0238   0.00    0.0
2018/06/06 03:00:30.000   4075578.0317    931853.0401   4801570.0645   6   7   0.0453   0.0231   0.0325   0.0198   0.0142   0.0239   0.00    0.0
2018/06/06 03:01:00.000   4075578.0276    931853.0407   4801570.0681   6   7   0.0452   0.0231   0.0327   0.0198   0.0144   0.0241   0.00    0.0
2018/06/06 03:01:30.000   4075578.0248    931853.0412   4801570.0643   6   7   0.0450   0.0231   0.0327   0.0198   0.0146   0.0241   0.00    0.0
2018/06/06 03:02:00.000   4075578.0174    931853.0370   4801570.0544   6   6   0.0450   0.0237   0.0346   0.0201   0.0165   0.0248   0.00    0.0
2018/06/06 03:02:30.000   4075578.0217    931853.0379   4801570.0586   6   6   0.0449   0.0237   0.0347   0.0201   0.0165   0.0250   0.00    0.0
2018/06/06 03:03:00.000   4075578.0145    931853.0373   4801570.0655   6   6   0.0448   0.0237   0.0348   0.0201   0.0165   0.0251   0.00    0.0
2018/06/06 03:03:30.000   4075578.0187    931853.0371   4801570.0702   6   6   0.0447   0.0237   0.0349   0.0202   0.0168   0.0252   0.00    0.0
2018/06/06 03:04:00.000   4075578.0177    931853.0351   4801570.0653   6   6   0.0445   0.0238   0.0350   0.0202   0.0168   0.0254   0.00    0.0
2018/06/06 03:04:30.000   4075578.0179    931853.0334   4801570.0671   6   6   0.0445   0.0238   0.0351   0.0202   0.0168   0.0256   0.00    0.0
2018/06/06 03:05:00.000   4075578.0162    931853.0334   4801570.0697   6   6   0.0444   0.0238   0.0352   0.0203   0.0170   0.0257   0.00    0.0
2018/06/06 03:05:30.000   4075578.0224    931853.0323   4801570.0687   6   6   0.0443   0.0238   0.0353   0.0203   0.0170   0.0258   0.00    0.0
2018/06/06 03:06:00.000   4075578.0163    931853.0333   4801570.0665   6   6   0.0442   0.0239   0.0355   0.0203   0.0172   0.0261   0.00    0.0
2018/06/06 03:06:30.000   4075578.0138    931853.0317   4801570.0687   6   6   0.0442   0.0239   0.0356   0.0204   0.0172   0.0263   0.00    0.0
2018/06/06 03:07:00.000   4075578.0157    931853.0350   4801570.0671   6   6   0.0441   0.0239   0.0358   0.0204   0.0173   0.0265   0.00    0.0
2018/06/06 03:07:30.000   4075578.0142    931853.0379   4801570.0654   6   6   0.0440   0.0240   0.0359   0.0205   0.0173   0.0266   0.00    0.0
2018/06/06 03:08:00.000   4075578.0150    931853.0374   4801570.0630   6   6   0.0439   0.0240   0.0360   0.0205   0.0175   0.0267   0.00    0.0
2018/06/06 03:08:30.000   4075578.0087    931853.0366   4801570.0596   6   6   0.0439   0.0240   0.0361   0.0205   0.0175   0.0270   0.00    0.0
2018/06/06 03:09:00.000   4075578.0224    931853.0349   4801570.0578   6   6   0.0438   0.0241   0.0363   0.0206   0.0176   0.0271   0.00    0.0
2018/06/06 03:09:30.000   4075578.0245    931853.0384   4801570.0553   6   6   0.0437   0.0241   0.0364   0.0207   0.0179   0.0273   0.00    0.0
2018/06/06 03:10:00.000   4075578.0237    931853.0378   4801570.0557   6   6   0.0436   0.0241   0.0366   0.0207   0.0179   0.0275   0.00    0.0
2018/06/06 03:10:30.000   4075578.0165    931853.0378   4801570.0499   6   6   0.0436   0.0242   0.0367   0.0207   0.0180   0.0277   0.00    0.0
2018/06/06 03:11:00.000   4075578.0215    931853.0370   4801570.0509   6   6   0.0435   0.0242   0.0369   0.0208   0.0181   0.0279   0.00    0.0
2018/06/06 03:11:30.000   4075578.0225    931853.0392   4801570.0525   6   6   0.0434   0.0242   0.0371   0.0209   0.0181   0.0281   0.00    0.0
2018/06/06 03:12:00.000   4075578.0174    931853.0399   4801570.0544   6   6   0.0434   0.0243   0.0373   0.0210   0.0183   0.0283   0.00    0.0
2018/06/06 03:12:30.000   4075578.0250    931853.0409   4801570.0576   6   6   0.0434   0.0244   0.0374   0.0210   0.0184   0.0285   0.00    0.0
2018/06/06 03:13:00.000   4075578.0173    931853.0362   4801570.0464   6   6   0.0433   0.0244   0.0377   0.0211   0.0185   0.0287   0.00    0.0
2018/06/06 03:13:30.000   4075578.0093    931853.0394   4801570.0563   6   6   0.0432   0.0245   0.0379   0.0212   0.0185   0.0289   0.00    0.0
2018/06/06 03:14:00.000   4075578.0176    931853.0381   4801570.0570   6   6   0.0433   0.0245   0.0381   0.0213   0.0187   0.0292   0.00    0.0
2018/06/06 03:14:30.000   4075578.0174    931853.0374   4801570.0500   6   6   0.0432   0.0245   0.0382   0.0213   0.0188   0.0293   0.00    0.0
2018/06/06 03:15:00.000   4075578.0189    931853.0361   4801570.0555   6   6   0.0432   0.0246   0.0384   0.0214   0.0189   0.0295   0.00    0.0
2018/06/06 03:15:30.000   4075578.0214    931853.0352   4801570.0572   6   6   0.0431   0.0247   0.0386   0.0215   0.0191   0.0297   0.00    0.0
2018/06/06 03:16:00.000   4075578.0237    931853.0357   4801570.0550   6   6   0.0431   0.0247   0.0388   0.0215   0.0192   0.0299   0.00    0.0
2018/06/06 03:16:30.000   4075578.0250    931853.0390   4801570.0560   6   6   0.0431   0.0248   0.0390   0.0216   0.0193   0.0301   0.00    0.0
2018/06/06 03:17:00.000   4075578.0291    931853.0313   4801570.0551   6   6   0.0432   0.0248   0.0392   0.0216   0.0194   0.0303   0.00    0.0
2018/06/06 03:17:30.000   4075578.0294    931853.0314   4801570.0501   6   6   0.0431   0.0248   0.0394   0.0218   0.0195   0.0306   0.00    0.0
2018/06/06 03:18:00.000   4075578.0268    931853.0314   4801570.0485   6   6   0.0431   0.0249   0.0397   0.0218   0.0198   0.0308   0.00    0.0
2018/06/06 03:18:30.000   4075578.0327    931853.0320   4801570.0453   6   6   0.0431   0.0250   0.0399   0.0220   0.0198   0.0310   0.00    0.0
2018/06/06 03:19:00.000   4075578.0320    931853.0336   4801570.0514   6   6   0.0431   0.0250   0.0401   0.0220   0.0200   0.0312   0.00    0.0
2018/06/06 03:19:30.000   4075578.0299    931853.0338   4801570.0453   6   6   0.0431   0.0251   0.0404   0.0222   0.0200   0.0315   0.00    0.0
2018/06/06 03:20:00.000   4075578.0241    931853.0308   4801570.0455   6   6   0.0431   0.0252   0.0406   0.0223   0.0202   0.0317   0.00    0.0
2018/06/06 03:20:30.000   4075578.0256    931853.0288   4801570.0425   6   6   0.0432   0.0252   0.0408   0.0223   0.0204   0.0319   0.00    0.0
2018/06/06 03:21:00.000   4075578.0223    931853.0298   4801570.0506   6   6   0.0432   0.0253   0.0411   0.0224   0.0206   0.0322   0.00    0.0
