% program   : RTKPOST ver.2.4.3 b28
% inp file  : E:\Program\Fortran\Matlab_PPP\Net_Diff\for_redistribution_files_only\test\data\wtzr1570.18o
% inp file  : E:\Program\Fortran\Matlab_PPP\Net_Diff\for_redistribution_files_only\test\data\brdm1570.18p
% inp file  : E:\Program\Fortran\Matlab_PPP\Net_Diff\for_redistribution_files_only\test\data\gbm20043.sp3
% inp file  : E:\Program\Fortran\Matlab_PPP\Net_Diff\for_redistribution_files_only\test\data\gbm20043.clk
% obs start : 2018/06/06 00:00:00.0 GPST (week2004 259200.0s)
% obs end   : 2018/06/06 23:59:30.0 GPST (week2004 345570.0s)
% pos mode  : ppp-kinematic
% solution  : forward
% elev mask : 10.0 deg
% dynamics  : off
% tidecorr  : on
% tropo opt : est ztd
% ephemeris : precise
% antenna1  : LEIAR25.R3      LEIT  ( 0.0000  0.0000  0.0710)
%
% (x/y/z-ecef=WGS84,Q=1:fix,2:float,3:sbas,4:dgps,5:single,6:ppp,ns=# of satellites)
%  GPST                      x-ecef(m)      y-ecef(m)      z-ecef(m)   Q  ns   sdx(m)   sdy(m)   sdz(m)  sdxy(m)  sdyz(m)  sdzx(m) age(s)  ratio
2018/06/06 00:00:00.000   4075580.7593    931854.1119   4801568.6264   6   7   2.5382   1.4815   2.4972   1.1446   1.1857   1.7612   0.00    0.0
2018/06/06 00:00:30.000   4075580.7033    931853.8761   4801568.6710   6   8   1.7567   1.0419   1.6765   0.8260   0.8156   1.2120   0.00    0.0
2018/06/06 00:01:00.000   4075580.5128    931853.6425   4801568.5816   6   8   1.4311   0.8447   1.2882   0.6811   0.6344   0.9882   0.00    0.0
2018/06/06 00:01:30.000   4075580.3766    931853.4989   4801568.5236   6   8   1.2419   0.7262   1.0488   0.5945   0.5215   0.8603   0.00    0.0
2018/06/06 00:02:00.000   4075580.3610    931853.4343   4801568.4494   6   8   1.1147   0.6452   0.8880   0.5356   0.4450   0.7761   0.00    0.0
2018/06/06 00:02:30.000   4075580.3383    931853.4202   4801568.3975   6   8   1.0218   0.5855   0.7751   0.4923   0.3907   0.7156   0.00    0.0
2018/06/06 00:03:00.000   4075580.2364    931853.3505   4801568.2903   6   8   0.9499   0.5391   0.6926   0.4586   0.3507   0.6692   0.00    0.0
2018/06/06 00:03:30.000   4075580.1847    931853.3671   4801568.2983   6   8   0.8920   0.5017   0.6299   0.4313   0.3201   0.6316   0.00    0.0
2018/06/06 00:04:00.000   4075580.0595    931853.3785   4801568.2596   6   8   0.8439   0.4706   0.5802   0.4083   0.2957   0.6000   0.00    0.0
2018/06/06 00:04:30.000   4075580.0200    931853.4247   4801568.2344   6   8   0.8027   0.4441   0.5395   0.3885   0.2757   0.5724   0.00    0.0
2018/06/06 00:05:00.000   4075580.0287    931853.4895   4801568.2240   6   8   0.7669   0.4211   0.5050   0.3711   0.2587   0.5479   0.00    0.0
2018/06/06 00:05:30.000   4075580.0089    931853.5430   4801568.2354   6   8   0.7353   0.4009   0.4752   0.3556   0.2441   0.5258   0.00    0.0
2018/06/06 00:06:00.000   4075579.9801    931853.5799   4801568.2223   6   8   0.7070   0.3828   0.4491   0.3416   0.2312   0.5056   0.00    0.0
2018/06/06 00:06:30.000   4075579.9388    931853.5850   4801568.2034   6   8   0.6814   0.3665   0.4259   0.3288   0.2198   0.4871   0.00    0.0
2018/06/06 00:07:00.000   4075579.9745    931853.6283   4801568.2215   6   8   0.6580   0.3517   0.4051   0.3169   0.2095   0.4701   0.00    0.0
2018/06/06 00:07:30.000   4075579.9855    931853.6400   4801568.2242   6   8   0.6366   0.3380   0.3865   0.3060   0.2002   0.4543   0.00    0.0
2018/06/06 00:08:00.000   4075580.0096    931853.6593   4801568.2348   6   8   0.6168   0.3255   0.3696   0.2958   0.1917   0.4396   0.00    0.0
2018/06/06 00:08:30.000   4075580.0706    931853.6976   4801568.2543   6   8   0.5984   0.3138   0.3543   0.2862   0.1839   0.4259   0.00    0.0
2018/06/06 00:09:00.000   4075580.1387    931853.7306   4801568.2841   6   8   0.5812   0.3030   0.3403   0.2771   0.1766   0.4131   0.00    0.0
2018/06/06 00:09:30.000   4075580.2118    931853.7751   4801568.3347   6   8   0.5650   0.2928   0.3275   0.2686   0.1699   0.4011   0.00    0.0
2018/06/06 00:10:00.000   4075580.2867    931853.8251   4801568.3655   6   8   0.5498   0.2832   0.3157   0.2604   0.1636   0.3898   0.00    0.0
2018/06/06 00:10:30.000   4075580.3743    931853.8738   4801568.4042   6   8   0.5354   0.2741   0.3048   0.2526   0.1577   0.3791   0.00    0.0
2018/06/06 00:11:00.000   4075580.4752    931853.9091   4801568.4580   6   8   0.5217   0.2656   0.2947   0.2452   0.1521   0.3690   0.00    0.0
2018/06/06 00:11:30.000   4075580.5587    931853.9278   4801568.5045   6   8   0.5087   0.2574   0.2852   0.2380   0.1468   0.3593   0.00    0.0
2018/06/06 00:12:00.000   4075580.6077    931853.9202   4801568.5433   6   8   0.4962   0.2497   0.2764   0.2311   0.1418   0.3501   0.00    0.0
2018/06/06 00:12:30.000   4075580.6834    931853.9287   4801568.5751   6   8   0.4842   0.2424   0.2681   0.2245   0.1369   0.3413   0.00    0.0
2018/06/06 00:13:00.000   4075580.7340    931853.9245   4801568.5971   6   8   0.4726   0.2353   0.2603   0.2180   0.1323   0.3329   0.00    0.0
2018/06/06 00:13:30.000   4075580.7749    931853.9134   4801568.6225   6   8   0.4615   0.2286   0.2529   0.2118   0.1278   0.3247   0.00    0.0
2018/06/06 00:14:00.000   4075580.7933    931853.8931   4801568.6127   6   8   0.4507   0.2222   0.2459   0.2057   0.1236   0.3169   0.00    0.0
2018/06/06 00:14:30.000   4075580.8438    931853.9093   4801568.6254   6   8   0.4402   0.2161   0.2392   0.1999   0.1194   0.3093   0.00    0.0
2018/06/06 00:15:00.000   4075580.8663    931853.9202   4801568.6299   6   8   0.4300   0.2102   0.2328   0.1941   0.1154   0.3019   0.00    0.0
2018/06/06 00:15:30.000   4075580.8804    931853.9373   4801568.6387   6   8   0.4201   0.2046   0.2267   0.1886   0.1115   0.2948   0.00    0.0
2018/06/06 00:16:00.000   4075580.8661    931853.9558   4801568.6201   6   8   0.4104   0.1991   0.2209   0.1832   0.1077   0.2878   0.00    0.0
2018/06/06 00:16:30.000   4075580.8765    931853.9919   4801568.6044   6   8   0.4010   0.1939   0.2152   0.1779   0.1040   0.2810   0.00    0.0
2018/06/06 00:17:00.000   4075580.8478    931854.0184   4801568.5884   6   8   0.3918   0.1889   0.2098   0.1728   0.1005   0.2744   0.00    0.0
2018/06/06 00:17:30.000   4075580.7945    931854.0465   4801568.5503   6   9   0.3828   0.1841   0.2046   0.1678   0.0970   0.2680   0.00    0.0
2018/06/06 00:18:00.000   4075580.7754    931854.0829   4801568.5165   6   9   0.3738   0.1795   0.1990   0.1628   0.0934   0.2614   0.00    0.0
2018/06/06 00:18:30.000   4075580.7597    931854.1151   4801568.4955   6   9   0.3648   0.1750   0.1935   0.1580   0.0900   0.2548   0.00    0.0
2018/06/06 00:19:00.000   4075580.7108    931854.1298   4801568.4666   6   9   0.3558   0.1708   0.1881   0.1534   0.0867   0.2482   0.00    0.0
2018/06/06 00:19:30.000   4075580.6473    931854.1347   4801568.4309   6   9   0.3467   0.1667   0.1827   0.1488   0.0835   0.2415   0.00    0.0
2018/06/06 00:20:00.000   4075580.6047    931854.1397   4801568.4034   6   9   0.3377   0.1627   0.1773   0.1445   0.0804   0.2347   0.00    0.0
2018/06/06 00:20:30.000   4075580.5971    931854.1445   4801568.4028   6   9   0.3285   0.1589   0.1719   0.1402   0.0775   0.2280   0.00    0.0
2018/06/06 00:21:00.000   4075580.5355    931854.1438   4801568.3822   6   9   0.3195   0.1552   0.1666   0.1362   0.0746   0.2212   0.00    0.0
2018/06/06 00:21:30.000   4075580.5180    931854.1417   4801568.3726   6   9   0.3104   0.1517   0.1612   0.1323   0.0719   0.2144   0.00    0.0
2018/06/06 00:22:00.000   4075580.5081    931854.1496   4801568.3662   6   9   0.3015   0.1483   0.1560   0.1285   0.0693   0.2077   0.00    0.0
2018/06/06 00:22:30.000   4075580.5130    931854.1551   4801568.3616   6   9   0.2927   0.1450   0.1508   0.1250   0.0669   0.2011   0.00    0.0
2018/06/06 00:23:00.000   4075580.4995    931854.1539   4801568.3574   6   9   0.2840   0.1419   0.1458   0.1216   0.0646   0.1947   0.00    0.0
2018/06/06 00:23:30.000   4075580.4932    931854.1619   4801568.3519   6   9   0.2755   0.1388   0.1409   0.1183   0.0624   0.1884   0.00    0.0
2018/06/06 00:24:00.000   4075580.4929    931854.1618   4801568.3406   6   9   0.2673   0.1359   0.1362   0.1153   0.0604   0.1822   0.00    0.0
2018/06/06 00:24:30.000   4075580.4886    931854.1643   4801568.3375   6   9   0.2594   0.1331   0.1316   0.1124   0.0585   0.1763   0.00    0.0
2018/06/06 00:25:00.000   4075580.5190    931854.1734   4801568.3392   6   9   0.2517   0.1304   0.1272   0.1096   0.0567   0.1705   0.00    0.0
2018/06/06 00:25:30.000   4075580.4904    931854.1690   4801568.3225   6   9   0.2442   0.1277   0.1230   0.1069   0.0550   0.1650   0.00    0.0
2018/06/06 00:26:00.000   4075580.4996    931854.1704   4801568.3159   6   9   0.2370   0.1251   0.1190   0.1044   0.0535   0.1597   0.00    0.0
2018/06/06 00:26:30.000   4075580.4787    931854.1685   4801568.3133   6   9   0.2301   0.1227   0.1151   0.1020   0.0520   0.1546   0.00    0.0
2018/06/06 00:27:00.000   4075580.4510    931854.1630   4801568.2932   6   9   0.2235   0.1203   0.1115   0.0997   0.0506   0.1497   0.00    0.0
2018/06/06 00:27:30.000   4075580.4407    931854.1705   4801568.2863   6   9   0.2172   0.1180   0.1080   0.0976   0.0493   0.1451   0.00    0.0
2018/06/06 00:28:00.000   4075580.3961    931854.1615   4801568.2645   6   9   0.2111   0.1157   0.1047   0.0955   0.0481   0.1406   0.00    0.0
2018/06/06 00:28:30.000   4075580.3818    931854.1546   4801568.2477   6   9   0.2053   0.1136   0.1015   0.0936   0.0470   0.1363   0.00    0.0
2018/06/06 00:29:00.000   4075580.3491    931854.1392   4801568.2395   6   9   0.1997   0.1115   0.0985   0.0917   0.0459   0.1323   0.00    0.0
2018/06/06 00:29:30.000   4075580.3521    931854.1326   4801568.2454   6   9   0.1944   0.1094   0.0957   0.0899   0.0449   0.1284   0.00    0.0
2018/06/06 00:30:00.000   4075580.3048    931854.1113   4801568.2335   6   9   0.1893   0.1075   0.0930   0.0882   0.0439   0.1247   0.00    0.0
2018/06/06 00:30:30.000   4075580.3208    931854.1014   4801568.2257   6   9   0.1844   0.1056   0.0904   0.0865   0.0430   0.1212   0.00    0.0
2018/06/06 00:31:00.000   4075580.2954    931854.0881   4801568.2161   6   9   0.1797   0.1037   0.0880   0.0849   0.0422   0.1178   0.00    0.0
2018/06/06 00:31:30.000   4075580.2971    931854.0933   4801568.2198   6   9   0.1752   0.1019   0.0856   0.0835   0.0414   0.1146   0.00    0.0
2018/06/06 00:32:00.000   4075580.3146    931854.0993   4801568.2246   6   9   0.1710   0.1001   0.0834   0.0820   0.0406   0.1116   0.00    0.0
2018/06/06 00:32:30.000   4075580.2699    931854.0932   4801568.2061   6   9   0.1669   0.0984   0.0814   0.0806   0.0399   0.1086   0.00    0.0
2018/06/06 00:33:00.000   4075580.2901    931854.1079   4801568.2042   6   9   0.1630   0.0968   0.0794   0.0792   0.0392   0.1059   0.00    0.0
2018/06/06 00:33:30.000   4075580.2904    931854.1154   4801568.2060   6   9   0.1592   0.0952   0.0775   0.0780   0.0385   0.1032   0.00    0.0
2018/06/06 00:34:00.000   4075580.2952    931854.1251   4801568.2101   6   9   0.1556   0.0936   0.0757   0.0767   0.0379   0.1007   0.00    0.0
2018/06/06 00:34:30.000   4075580.2774    931854.1266   4801568.2032   6   9   0.1521   0.0921   0.0740   0.0755   0.0373   0.0982   0.00    0.0
2018/06/06 00:35:00.000   4075580.2997    931854.1289   4801568.2166   6   9   0.1488   0.0906   0.0724   0.0743   0.0367   0.0959   0.00    0.0
2018/06/06 00:35:30.000   4075580.2866    931854.1275   4801568.2130   6   9   0.1456   0.0892   0.0709   0.0732   0.0362   0.0937   0.00    0.0
2018/06/06 00:36:00.000   4075580.2958    931854.1293   4801568.2204   6   9   0.1426   0.0878   0.0694   0.0721   0.0356   0.0916   0.00    0.0
2018/06/06 00:36:30.000   4075580.3081    931854.1408   4801568.2170   6   9   0.1397   0.0864   0.0680   0.0710   0.0351   0.0896   0.00    0.0
2018/06/06 00:37:00.000   4075580.2888    931854.1358   4801568.2041   6   9   0.1368   0.0850   0.0667   0.0700   0.0346   0.0876   0.00    0.0
2018/06/06 00:37:30.000   4075580.3099    931854.1479   4801568.1989   6   9   0.1341   0.0837   0.0654   0.0690   0.0342   0.0857   0.00    0.0
2018/06/06 00:38:00.000   4075580.3104    931854.1565   4801568.1994   6   9   0.1315   0.0825   0.0642   0.0680   0.0337   0.0840   0.00    0.0
2018/06/06 00:38:30.000   4075580.3170    931854.1596   4801568.2020   6   9   0.1290   0.0812   0.0631   0.0671   0.0332   0.0823   0.00    0.0
2018/06/06 00:39:00.000   4075580.3105    931854.1591   4801568.2010   6   9   0.1266   0.0800   0.0620   0.0662   0.0328   0.0806   0.00    0.0
2018/06/06 00:39:30.000   4075580.3260    931854.1578   4801568.2070   6   9   0.1243   0.0788   0.0610   0.0653   0.0323   0.0790   0.00    0.0
2018/06/06 00:40:00.000   4075580.3300    931854.1556   4801568.2153   6   9   0.1220   0.0777   0.0600   0.0644   0.0320   0.0775   0.00    0.0
2018/06/06 00:40:30.000   4075580.3233    931854.1563   4801568.2155   6   9   0.1199   0.0765   0.0591   0.0636   0.0316   0.0761   0.00    0.0
2018/06/06 00:41:00.000   4075580.3350    931854.1516   4801568.2179   6   9   0.1178   0.0755   0.0581   0.0627   0.0311   0.0747   0.00    0.0
2018/06/06 00:41:30.000   4075580.3203    931854.1514   4801568.2130   6   9   0.1158   0.0744   0.0573   0.0620   0.0308   0.0733   0.00    0.0
2018/06/06 00:42:00.000   4075580.3339    931854.1602   4801568.2117   6   9   0.1138   0.0733   0.0565   0.0612   0.0304   0.0721   0.00    0.0
2018/06/06 00:42:30.000   4075580.3353    931854.1649   4801568.2116   6   9   0.1119   0.0723   0.0557   0.0604   0.0300   0.0708   0.00    0.0
2018/06/06 00:43:00.000   4075580.3282    931854.1677   4801568.2056   6  10   0.1101   0.0712   0.0549   0.0596   0.0297   0.0695   0.00    0.0
2018/06/06 00:43:30.000   4075580.3327    931854.1831   4801568.2151   6  10   0.1081   0.0701   0.0540   0.0586   0.0288   0.0682   0.00    0.0
2018/06/06 00:44:00.000   4075580.3229    931854.1816   4801568.2091   6  10   0.1063   0.0691   0.0533   0.0577   0.0284   0.0670   0.00    0.0
2018/06/06 00:44:30.000   4075580.3315    931854.1852   4801568.2011   6  10   0.1046   0.0681   0.0526   0.0569   0.0279   0.0658   0.00    0.0
2018/06/06 00:45:00.000   4075580.3254    931854.1864   4801568.2072   6  10   0.1029   0.0671   0.0519   0.0561   0.0275   0.0647   0.00    0.0
2018/06/06 00:45:30.000   4075580.3347    931854.1942   4801568.2077   6  10   0.1013   0.0662   0.0512   0.0554   0.0271   0.0637   0.00    0.0
2018/06/06 00:46:00.000   4075580.3242    931854.1934   4801568.2106   6  10   0.0998   0.0653   0.0507   0.0547   0.0268   0.0627   0.00    0.0
2018/06/06 00:46:30.000   4075580.3362    931854.1980   4801568.2082   6  10   0.0983   0.0644   0.0502   0.0540   0.0264   0.0617   0.00    0.0
2018/06/06 00:47:00.000   4075580.3237    931854.1950   4801568.2001   6  10   0.0968   0.0635   0.0496   0.0533   0.0260   0.0608   0.00    0.0
2018/06/06 00:47:30.000   4075580.3414    931854.2067   4801568.2097   6  10   0.0954   0.0627   0.0491   0.0526   0.0256   0.0599   0.00    0.0
2018/06/06 00:48:00.000   4075580.3311    931854.2011   4801568.2084   6  10   0.0940   0.0618   0.0486   0.0519   0.0252   0.0590   0.00    0.0
2018/06/06 00:48:30.000   4075580.3407    931854.2000   4801568.2079   6   9   0.0940   0.0612   0.0484   0.0521   0.0254   0.0588   0.00    0.0
2018/06/06 00:49:00.000   4075580.3475    931854.2009   4801568.2080   6   9   0.0929   0.0607   0.0479   0.0516   0.0251   0.0580   0.00    0.0
2018/06/06 00:49:30.000   4075580.3481    931854.1968   4801568.2139   6   9   0.0918   0.0600   0.0475   0.0512   0.0247   0.0572   0.00    0.0
2018/06/06 00:50:00.000   4075580.3479    931854.1871   4801568.2038   6   9   0.0906   0.0594   0.0471   0.0508   0.0243   0.0564   0.00    0.0
2018/06/06 00:50:30.000   4075580.3523    931854.1884   4801568.2087   6   9   0.0896   0.0587   0.0467   0.0504   0.0240   0.0556   0.00    0.0
2018/06/06 00:51:00.000   4075580.3614    931854.1857   4801568.2147   6   9   0.0886   0.0581   0.0463   0.0500   0.0236   0.0549   0.00    0.0
2018/06/06 00:51:30.000   4075580.3593    931854.1839   4801568.2103   6   9   0.0876   0.0575   0.0460   0.0496   0.0233   0.0542   0.00    0.0
2018/06/06 00:52:00.000   4075580.3665    931854.1826   4801568.2123   6   9   0.0866   0.0569   0.0456   0.0491   0.0229   0.0535   0.00    0.0
2018/06/06 00:52:30.000   4075580.3677    931854.1760   4801568.2232   6   9   0.0856   0.0563   0.0453   0.0487   0.0225   0.0529   0.00    0.0
2018/06/06 00:53:00.000   4075580.3750    931854.1747   4801568.2269   6   9   0.0847   0.0557   0.0450   0.0483   0.0222   0.0522   0.00    0.0
2018/06/06 00:53:30.000   4075580.3740    931854.1694   4801568.2211   6   9   0.0838   0.0551   0.0447   0.0478   0.0218   0.0516   0.00    0.0
2018/06/06 00:54:00.000   4075580.3827    931854.1661   4801568.2227   6   9   0.0828   0.0545   0.0444   0.0474   0.0214   0.0510   0.00    0.0
2018/06/06 00:54:30.000   4075580.3813    931854.1582   4801568.2307   6   9   0.0820   0.0539   0.0442   0.0469   0.0211   0.0503   0.00    0.0
2018/06/06 00:55:00.000   4075580.3913    931854.1640   4801568.2271   6   8   0.0813   0.0537   0.0456   0.0462   0.0189   0.0504   0.00    0.0
2018/06/06 00:55:30.000   4075580.3847    931854.1570   4801568.2310   6   8   0.0804   0.0532   0.0454   0.0458   0.0186   0.0499   0.00    0.0
2018/06/06 00:56:00.000   4075580.3854    931854.1544   4801568.2325   6   8   0.0796   0.0528   0.0452   0.0453   0.0182   0.0493   0.00    0.0
2018/06/06 00:56:30.000   4075580.3872    931854.1570   4801568.2264   6   8   0.0788   0.0523   0.0449   0.0450   0.0181   0.0488   0.00    0.0
2018/06/06 00:57:00.000   4075580.3882    931854.1541   4801568.2339   6   8   0.0780   0.0518   0.0447   0.0446   0.0178   0.0482   0.00    0.0
2018/06/06 00:57:30.000   4075580.3958    931854.1546   4801568.2311   6   8   0.0772   0.0513   0.0445   0.0442   0.0175   0.0477   0.00    0.0
2018/06/06 00:58:00.000   4075580.3896    931854.1525   4801568.2235   6   8   0.0765   0.0509   0.0443   0.0439   0.0171   0.0473   0.00    0.0
2018/06/06 00:58:30.000   4075580.3955    931854.1542   4801568.2393   6   8   0.0758   0.0504   0.0441   0.0435   0.0170   0.0467   0.00    0.0
2018/06/06 00:59:00.000   4075580.3930    931854.1551   4801568.2350   6   8   0.0750   0.0500   0.0439   0.0431   0.0166   0.0463   0.00    0.0
2018/06/06 00:59:30.000   4075580.3980    931854.1515   4801568.2369   6   8   0.0742   0.0495   0.0438   0.0427   0.0165   0.0459   0.00    0.0
2018/06/06 01:00:00.000   4075580.4024    931854.1513   4801568.2375   6   8   0.0735   0.0490   0.0436   0.0423   0.0162   0.0453   0.00    0.0
2018/06/06 01:00:30.000   4075580.4003    931854.1441   4801568.2503   6   8   0.0728   0.0486   0.0435   0.0420   0.0159   0.0450   0.00    0.0
2018/06/06 01:01:00.000   4075580.4026    931854.1447   4801568.2400   6   8   0.0722   0.0481   0.0433   0.0417   0.0158   0.0445   0.00    0.0
2018/06/06 01:01:30.000   4075580.4017    931854.1394   4801568.2395   6   8   0.0715   0.0477   0.0432   0.0413   0.0155   0.0441   0.00    0.0
2018/06/06 01:02:00.000   4075580.3986    931854.1346   4801568.2418   6   8   0.0709   0.0472   0.0430   0.0409   0.0154   0.0437   0.00    0.0
2018/06/06 01:02:30.000   4075580.3988    931854.1356   4801568.2495   6   8   0.0702   0.0468   0.0429   0.0405   0.0149   0.0433   0.00    0.0
2018/06/06 01:03:00.000   4075580.4153    931854.1406   4801568.2687   6   8   0.0696   0.0464   0.0428   0.0401   0.0146   0.0430   0.00    0.0
2018/06/06 01:03:30.000   4075580.4099    931854.1367   4801568.2560   6   8   0.0689   0.0460   0.0427   0.0398   0.0145   0.0425   0.00    0.0
2018/06/06 01:04:00.000   4075580.4126    931854.1411   4801568.2510   6   8   0.0683   0.0456   0.0426   0.0394   0.0143   0.0422   0.00    0.0
2018/06/06 01:04:30.000   4075580.4140    931854.1384   4801568.2603   6   8   0.0677   0.0452   0.0425   0.0390   0.0139   0.0418   0.00    0.0
2018/06/06 01:05:00.000   4075580.4062    931854.1432   4801568.2592   6   8   0.0672   0.0447   0.0424   0.0387   0.0136   0.0415   0.00    0.0
2018/06/06 01:05:30.000   4075580.4044    931854.1361   4801568.2530   6   8   0.0665   0.0443   0.0423   0.0384   0.0137   0.0412   0.00    0.0
2018/06/06 01:06:00.000   4075580.4079    931854.1423   4801568.2605   6   8   0.0660   0.0440   0.0423   0.0380   0.0135   0.0410   0.00    0.0
2018/06/06 01:06:30.000   4075580.4060    931854.1406   4801568.2492   6   8   0.0654   0.0435   0.0422   0.0376   0.0133   0.0406   0.00    0.0
2018/06/06 01:07:00.000   4075580.4091    931854.1398   4801568.2544   6   8   0.0648   0.0432   0.0420   0.0373   0.0130   0.0403   0.00    0.0
2018/06/06 01:07:30.000   4075580.4075    931854.1426   4801568.2479   6   8   0.0644   0.0427   0.0420   0.0370   0.0128   0.0400   0.00    0.0
2018/06/06 01:08:00.000   4075580.4024    931854.1413   4801568.2474   6   8   0.0638   0.0424   0.0419   0.0367   0.0128   0.0397   0.00    0.0
2018/06/06 01:08:30.000   4075580.3981    931854.1426   4801568.2439   6   8   0.0632   0.0420   0.0418   0.0362   0.0124   0.0393   0.00    0.0
2018/06/06 01:09:00.000   4075580.3996    931854.1389   4801568.2386   6   8   0.0627   0.0417   0.0418   0.0360   0.0123   0.0391   0.00    0.0
2018/06/06 01:09:30.000   4075580.4015    931854.1420   4801568.2378   6   8   0.0623   0.0413   0.0417   0.0357   0.0119   0.0389   0.00    0.0
2018/06/06 01:10:00.000   4075580.4046    931854.1394   4801568.2405   6   8   0.0618   0.0410   0.0417   0.0353   0.0120   0.0386   0.00    0.0
2018/06/06 01:10:30.000   4075580.4023    931854.1429   4801568.2378   6   8   0.0613   0.0406   0.0416   0.0351   0.0120   0.0383   0.00    0.0
2018/06/06 01:11:00.000   4075580.4053    931854.1406   4801568.2460   6   8   0.0608   0.0402   0.0416   0.0348   0.0117   0.0381   0.00    0.0
2018/06/06 01:11:30.000   4075580.4054    931854.1389   4801568.2266   6   8   0.0603   0.0399   0.0415   0.0344   0.0117   0.0378   0.00    0.0
2018/06/06 01:12:00.000   4075580.3939    931854.1335   4801568.2284   6   8   0.0599   0.0396   0.0416   0.0342   0.0117   0.0377   0.00    0.0
2018/06/06 01:12:30.000   4075580.4006    931854.1295   4801568.2424   6   8   0.0595   0.0393   0.0415   0.0338   0.0113   0.0374   0.00    0.0
2018/06/06 01:13:00.000   4075580.4000    931854.1281   4801568.2406   6   8   0.0590   0.0389   0.0413   0.0335   0.0111   0.0371   0.00    0.0
2018/06/06 01:13:30.000   4075580.4107    931854.1287   4801568.2431   6   8   0.0586   0.0386   0.0413   0.0332   0.0109   0.0368   0.00    0.0
2018/06/06 01:14:00.000   4075580.4019    931854.1241   4801568.2356   6   8   0.0582   0.0383   0.0413   0.0330   0.0108   0.0368   0.00    0.0
2018/06/06 01:14:30.000   4075580.4105    931854.1234   4801568.2618   6   8   0.0578   0.0380   0.0413   0.0327   0.0108   0.0365   0.00    0.0
2018/06/06 01:15:00.000   4075580.4127    931854.1267   4801568.2542   6   8   0.0574   0.0377   0.0413   0.0325   0.0108   0.0363   0.00    0.0
2018/06/06 01:15:30.000   4075580.4084    931854.1284   4801568.2463   6   8   0.0570   0.0373   0.0412   0.0323   0.0104   0.0361   0.00    0.0
2018/06/06 01:16:00.000   4075580.4100    931854.1280   4801568.2573   6   8   0.0566   0.0371   0.0411   0.0320   0.0104   0.0358   0.00    0.0
2018/06/06 01:16:30.000   4075580.4139    931854.1336   4801568.2543   6   8   0.0563   0.0368   0.0411   0.0317   0.0102   0.0358   0.00    0.0
2018/06/06 01:17:00.000   4075580.4138    931854.1284   4801568.2662   6   8   0.0558   0.0365   0.0410   0.0314   0.0101   0.0355   0.00    0.0
2018/06/06 01:17:30.000   4075580.4108    931854.1279   4801568.2533   6   8   0.0556   0.0362   0.0411   0.0312   0.0102   0.0354   0.00    0.0
2018/06/06 01:18:00.000   4075580.4053    931854.1269   4801568.2442   6   8   0.0551   0.0359   0.0410   0.0309   0.0102   0.0352   0.00    0.0
2018/06/06 01:18:30.000   4075580.4083    931854.1234   4801568.2546   6   8   0.0548   0.0357   0.0411   0.0306   0.0101   0.0352   0.00    0.0
2018/06/06 01:19:00.000   4075580.3999    931854.1161   4801568.2641   6   8   0.0544   0.0354   0.0410   0.0305   0.0102   0.0349   0.00    0.0
2018/06/06 01:19:30.000   4075580.4017    931854.1156   4801568.2361   6   8   0.0542   0.0351   0.0409   0.0302   0.0097   0.0347   0.00    0.0
2018/06/06 01:20:00.000   4075580.3979    931854.1137   4801568.2586   6   8   0.0538   0.0349   0.0409   0.0299   0.0100   0.0347   0.00    0.0
2018/06/06 01:20:30.000   4075580.3934    931854.1095   4801568.2420   6   8   0.0536   0.0347   0.0409   0.0297   0.0099   0.0345   0.00    0.0
2018/06/06 01:21:00.000   4075580.3960    931854.1128   4801568.2300   6   8   0.0532   0.0344   0.0408   0.0295   0.0098   0.0343   0.00    0.0
2018/06/06 01:21:30.000   4075580.3856    931854.1074   4801568.2535   6   8   0.0529   0.0341   0.0409   0.0293   0.0098   0.0343   0.00    0.0
2018/06/06 01:22:00.000   4075580.3969    931854.1122   4801568.2301   6   8   0.0527   0.0339   0.0408   0.0290   0.0100   0.0342   0.00    0.0
2018/06/06 01:22:30.000   4075580.3893    931854.1060   4801568.2447   6   8   0.0523   0.0337   0.0408   0.0289   0.0098   0.0340   0.00    0.0
2018/06/06 01:23:00.000   4075580.3873    931854.1075   4801568.2333   6   8   0.0520   0.0334   0.0408   0.0287   0.0100   0.0338   0.00    0.0
2018/06/06 01:23:30.000   4075580.3906    931854.1087   4801568.2450   6   8   0.0517   0.0331   0.0407   0.0284   0.0097   0.0336   0.00    0.0
2018/06/06 01:24:00.000   4075580.4025    931854.1090   4801568.2412   6   8   0.0515   0.0330   0.0407   0.0282   0.0098   0.0336   0.00    0.0
2018/06/06 01:24:30.000   4075580.3889    931854.1037   4801568.2422   6   8   0.0512   0.0327   0.0406   0.0281   0.0100   0.0334   0.00    0.0
2018/06/06 01:25:00.000   4075580.3907    931854.1017   4801568.2545   6   8   0.0509   0.0325   0.0406   0.0279   0.0098   0.0334   0.00    0.0
2018/06/06 01:25:30.000   4075580.3950    931854.0991   4801568.2634   6   8   0.0508   0.0324   0.0406   0.0276   0.0098   0.0332   0.00    0.0
2018/06/06 01:26:00.000   4075580.3883    931854.0933   4801568.2719   6   8   0.0505   0.0321   0.0406   0.0275   0.0100   0.0331   0.00    0.0
2018/06/06 01:26:30.000   4075580.4004    931854.0911   4801568.2682   6   8   0.0502   0.0318   0.0405   0.0275   0.0102   0.0330   0.00    0.0
2018/06/06 01:27:00.000   4075580.3926    931854.0805   4801568.2971   6   8   0.0500   0.0316   0.0405   0.0273   0.0102   0.0329   0.00    0.0
2018/06/06 01:27:30.000   4075580.4023    931854.0775   4801568.2906   6   8   0.0498   0.0315   0.0404   0.0271   0.0099   0.0327   0.00    0.0
2018/06/06 01:28:00.000   4075580.3933    931854.0748   4801568.2993   6   8   0.0495   0.0313   0.0404   0.0269   0.0100   0.0327   0.00    0.0
2018/06/06 01:28:30.000   4075580.4056    931854.0775   4801568.2961   6   8   0.0493   0.0311   0.0404   0.0267   0.0100   0.0327   0.00    0.0
2018/06/06 01:29:00.000   4075580.3961    931854.0708   4801568.2921   6   8   0.0492   0.0309   0.0404   0.0264   0.0101   0.0325   0.00    0.0
2018/06/06 01:29:30.000   4075580.3995    931854.0716   4801568.3010   6   8   0.0489   0.0308   0.0404   0.0264   0.0102   0.0325   0.00    0.0
2018/06/06 01:30:00.000   4075580.3961    931854.0664   4801568.2988   6   8   0.0486   0.0305   0.0403   0.0263   0.0102   0.0323   0.00    0.0
2018/06/06 01:30:30.000   4075580.3951    931854.0648   4801568.3005   6   8   0.0485   0.0304   0.0403   0.0261   0.0102   0.0323   0.00    0.0
2018/06/06 01:31:00.000   4075580.3871    931854.0655   4801568.2882   6   8   0.0483   0.0302   0.0403   0.0260   0.0105   0.0322   0.00    0.0
2018/06/06 01:31:30.000   4075580.3854    931854.0593   4801568.2995   6   8   0.0482   0.0300   0.0402   0.0259   0.0105   0.0321   0.00    0.0
2018/06/06 01:32:00.000   4075580.3837    931854.0572   4801568.2910   6   8   0.0480   0.0299   0.0403   0.0256   0.0105   0.0321   0.00    0.0
2018/06/06 01:32:30.000   4075580.3835    931854.0554   4801568.2947   6   8   0.0478   0.0297   0.0402   0.0256   0.0105   0.0320   0.00    0.0
2018/06/06 01:33:00.000   4075580.3856    931854.0536   4801568.3198   6   8   0.0478   0.0296   0.0402   0.0254   0.0106   0.0319   0.00    0.0
2018/06/06 01:33:30.000   4075580.3833    931854.0546   4801568.2954   6   8   0.0475   0.0294   0.0401   0.0252   0.0107   0.0319   0.00    0.0
2018/06/06 01:34:00.000   4075580.3730    931854.0561   4801568.2770   6   8   0.0473   0.0293   0.0402   0.0251   0.0107   0.0319   0.00    0.0
2018/06/06 01:34:30.000   4075580.3750    931854.0609   4801568.2883   6   8   0.0472   0.0291   0.0402   0.0251   0.0111   0.0318   0.00    0.0
2018/06/06 01:35:00.000   4075580.3730    931854.0619   4801568.2820   6   8   0.0470   0.0289   0.0401   0.0249   0.0110   0.0317   0.00    0.0
2018/06/06 01:35:30.000   4075580.3750    931854.0620   4801568.2700   6   8   0.0468   0.0289   0.0401   0.0248   0.0110   0.0317   0.00    0.0
2018/06/06 01:36:00.000   4075580.3620    931854.0594   4801568.2697   6   8   0.0467   0.0287   0.0401   0.0247   0.0110   0.0316   0.00    0.0
2018/06/06 01:36:30.000   4075580.3687    931854.0621   4801568.2710   6   8   0.0466   0.0285   0.0401   0.0246   0.0113   0.0316   0.00    0.0
2018/06/06 01:37:00.000   4075580.3743    931854.0671   4801568.2833   6   8   0.0465   0.0284   0.0401   0.0246   0.0113   0.0316   0.00    0.0
2018/06/06 01:37:30.000   4075580.3641    931854.0588   4801568.2657   6   8   0.0464   0.0281   0.0400   0.0244   0.0115   0.0315   0.00    0.0
2018/06/06 01:38:00.000   4075580.3611    931854.0620   4801568.2692   6   8   0.0462   0.0282   0.0400   0.0244   0.0113   0.0314   0.00    0.0
2018/06/06 01:38:30.000   4075580.3573    931854.0611   4801568.2579   6   8   0.0462   0.0280   0.0400   0.0242   0.0116   0.0315   0.00    0.0
2018/06/06 01:39:00.000   4075580.3591    931854.0622   4801568.2634   6   8   0.0461   0.0280   0.0400   0.0241   0.0116   0.0315   0.00    0.0
2018/06/06 01:39:30.000   4075580.3618    931854.0636   4801568.2743   6   8   0.0459   0.0278   0.0401   0.0241   0.0117   0.0314   0.00    0.0
2018/06/06 01:40:00.000   4075580.3611    931854.0636   4801568.2496   6   8   0.0459   0.0277   0.0400   0.0240   0.0118   0.0314   0.00    0.0
2018/06/06 01:40:30.000   4075580.3631    931854.0678   4801568.2556   6   8   0.0458   0.0276   0.0399   0.0239   0.0118   0.0313   0.00    0.0
2018/06/06 01:41:00.000   4075580.3676    931854.0600   4801568.2813   6   8   0.0457   0.0275   0.0400   0.0238   0.0120   0.0313   0.00    0.0
2018/06/06 01:41:30.000   4075580.3659    931854.0592   4801568.2650   6   8   0.0456   0.0274   0.0400   0.0237   0.0121   0.0313   0.00    0.0
2018/06/06 01:42:00.000   4075580.3655    931854.0637   4801568.2644   6   8   0.0456   0.0273   0.0400   0.0236   0.0122   0.0314   0.00    0.0
2018/06/06 01:42:30.000   4075580.3662    931854.0684   4801568.2720   6   8   0.0454   0.0272   0.0400   0.0236   0.0121   0.0313   0.00    0.0
2018/06/06 01:43:00.000   4075580.3679    931854.0714   4801568.2712   6   8   0.0454   0.0270   0.0401   0.0235   0.0124   0.0314   0.00    0.0
2018/06/06 01:43:30.000   4075580.3637    931854.0657   4801568.2576   6   8   0.0454   0.0270   0.0400   0.0235   0.0122   0.0313   0.00    0.0
2018/06/06 01:44:00.000   4075580.3686    931854.0697   4801568.2646   6   8   0.0452   0.0269   0.0400   0.0235   0.0124   0.0314   0.00    0.0
2018/06/06 01:44:30.000   4075580.3755    931854.0689   4801568.2828   6   8   0.0453   0.0269   0.0400   0.0233   0.0125   0.0314   0.00    0.0
2018/06/06 01:45:00.000   4075580.3702    931854.0710   4801568.2628   6   8   0.0452   0.0268   0.0401   0.0233   0.0127   0.0313   0.00    0.0
2018/06/06 01:45:30.000   4075580.3729    931854.0703   4801568.2728   6   8   0.0452   0.0266   0.0401   0.0232   0.0128   0.0314   0.00    0.0
2018/06/06 01:46:00.000   4075580.3743    931854.0688   4801568.2796   6   8   0.0452   0.0266   0.0401   0.0233   0.0128   0.0313   0.00    0.0
2018/06/06 01:46:30.000   4075580.3728    931854.0690   4801568.2698   6   8   0.0451   0.0265   0.0402   0.0233   0.0130   0.0314   0.00    0.0
2018/06/06 01:47:00.000   4075580.3816    931854.0685   4801568.2896   6   8   0.0451   0.0264   0.0402   0.0232   0.0131   0.0314   0.00    0.0
2018/06/06 01:47:30.000   4075580.3925    931854.0742   4801568.2914   6   8   0.0451   0.0264   0.0402   0.0232   0.0131   0.0314   0.00    0.0
2018/06/06 01:48:00.000   4075580.3812    931854.0703   4801568.2692   6   8   0.0450   0.0263   0.0402   0.0230   0.0131   0.0315   0.00    0.0
2018/06/06 01:48:30.000   4075580.3898    931854.0660   4801568.2918   6   8   0.0450   0.0262   0.0402   0.0231   0.0133   0.0314   0.00    0.0
2018/06/06 01:49:00.000   4075580.3890    931854.0652   4801568.2932   6   8   0.0450   0.0261   0.0402   0.0231   0.0133   0.0315   0.00    0.0
2018/06/06 01:49:30.000   4075580.3849    931854.0662   4801568.2723   6   8   0.0450   0.0261   0.0403   0.0231   0.0136   0.0316   0.00    0.0
2018/06/06 01:50:00.000   4075580.3818    931854.0659   4801568.2812   6   8   0.0450   0.0260   0.0404   0.0230   0.0136   0.0316   0.00    0.0
2018/06/06 01:50:30.000   4075580.3858    931854.0688   4801568.2932   6   8   0.0450   0.0260   0.0404   0.0229   0.0136   0.0316   0.00    0.0
2018/06/06 01:51:00.000   4075580.3794    931854.0664   4801568.2863   6   8   0.0450   0.0259   0.0404   0.0229   0.0138   0.0317   0.00    0.0
2018/06/06 01:51:30.000   4075580.3853    931854.0664   4801568.2942   6   8   0.0450   0.0259   0.0405   0.0229   0.0140   0.0318   0.00    0.0
2018/06/06 01:52:00.000   4075580.3799    931854.0702   4801568.2916   6   8   0.0450   0.0259   0.0405   0.0229   0.0138   0.0318   0.00    0.0
2018/06/06 01:52:30.000   4075580.3789    931854.0641   4801568.2847   6   8   0.0450   0.0257   0.0406   0.0229   0.0139   0.0318   0.00    0.0
2018/06/06 01:53:00.000   4075580.3728    931854.0607   4801568.2810   6   8   0.0450   0.0257   0.0406   0.0230   0.0142   0.0318   0.00    0.0
2018/06/06 01:53:30.000   4075580.3728    931854.0597   4801568.2987   6   8   0.0451   0.0256   0.0406   0.0229   0.0142   0.0319   0.00    0.0
2018/06/06 01:54:00.000   4075580.3701    931854.0613   4801568.2832   6   8   0.0451   0.0256   0.0407   0.0229   0.0142   0.0320   0.00    0.0
2018/06/06 01:54:30.000   4075580.3755    931854.0619   4801568.3031   6   8   0.0452   0.0255   0.0408   0.0228   0.0144   0.0320   0.00    0.0
2018/06/06 01:55:00.000   4075580.3766    931854.0618   4801568.3020   6   8   0.0452   0.0255   0.0408   0.0229   0.0144   0.0320   0.00    0.0
2018/06/06 01:55:30.000   4075580.3807    931854.0628   4801568.3018   6   8   0.0452   0.0254   0.0409   0.0229   0.0146   0.0321   0.00    0.0
2018/06/06 01:56:00.000   4075580.3617    931854.0572   4801568.2904   6   8   0.0452   0.0254   0.0409   0.0229   0.0146   0.0322   0.00    0.0
2018/06/06 01:56:30.000   4075580.3659    931854.0556   4801568.2843   6   8   0.0452   0.0253   0.0409   0.0228   0.0146   0.0322   0.00    0.0
2018/06/06 01:57:00.000   4075580.3593    931854.0549   4801568.2930   6   8   0.0453   0.0253   0.0410   0.0228   0.0148   0.0322   0.00    0.0
2018/06/06 01:57:30.000   4075580.3619    931854.0515   4801568.2910   6   8   0.0453   0.0253   0.0411   0.0229   0.0148   0.0323   0.00    0.0
2018/06/06 01:58:00.000   4075580.3690    931854.0541   4801568.3110   6   8   0.0454   0.0252   0.0411   0.0228   0.0148   0.0323   0.00    0.0
2018/06/06 01:58:30.000   4075580.3652    931854.0557   4801568.2926   6   8   0.0455   0.0251   0.0411   0.0228   0.0149   0.0323   0.00    0.0
2018/06/06 01:59:00.000   4075580.3626    931854.0542   4801568.2929   6   8   0.0455   0.0252   0.0412   0.0228   0.0149   0.0324   0.00    0.0
2018/06/06 01:59:30.000   4075580.3576    931854.0522   4801568.2997   6   8   0.0456   0.0252   0.0412   0.0227   0.0148   0.0324   0.00    0.0
2018/06/06 02:00:00.000   4075580.3554    931854.0517   4801568.2949   6   8   0.0456   0.0251   0.0413   0.0227   0.0150   0.0325   0.00    0.0
2018/06/06 02:00:30.000   4075580.3528    931854.0520   4801568.3023   6   8   0.0456   0.0251   0.0413   0.0228   0.0148   0.0325   0.00    0.0
2018/06/06 02:01:00.000   4075580.3542    931854.0559   4801568.2994   6   8   0.0457   0.0251   0.0413   0.0227   0.0149   0.0325   0.00    0.0
2018/06/06 02:01:30.000   4075580.3487    931854.0551   4801568.2878   6   8   0.0457   0.0250   0.0414   0.0228   0.0151   0.0324   0.00    0.0
2018/06/06 02:02:00.000   4075580.3465    931854.0535   4801568.2878   6   8   0.0458   0.0250   0.0414   0.0228   0.0150   0.0325   0.00    0.0
2018/06/06 02:02:30.000   4075580.3401    931854.0531   4801568.2729   6   8   0.0458   0.0249   0.0414   0.0227   0.0150   0.0326   0.00    0.0
2018/06/06 02:03:00.000   4075580.3484    931854.0513   4801568.2874   6   8   0.0459   0.0249   0.0414   0.0227   0.0149   0.0325   0.00    0.0
2018/06/06 02:03:30.000   4075580.3491    931854.0565   4801568.2903   6   8   0.0459   0.0249   0.0414   0.0227   0.0150   0.0325   0.00    0.0
2018/06/06 02:04:00.000   4075580.3362    931854.0514   4801568.2953   6   8   0.0461   0.0248   0.0415   0.0227   0.0149   0.0324   0.00    0.0
2018/06/06 02:04:30.000   4075580.3371    931854.0511   4801568.2849   6   8   0.0460   0.0248   0.0415   0.0227   0.0150   0.0325   0.00    0.0
2018/06/06 02:05:00.000   4075580.3304    931854.0468   4801568.2827   6   8   0.0461   0.0248   0.0415   0.0226   0.0148   0.0324   0.00    0.0
2018/06/06 02:05:30.000   4075580.3323    931854.0507   4801568.2872   6   7   0.0498   0.0248   0.0417   0.0234   0.0152   0.0336   0.00    0.0
2018/06/06 02:06:00.000   4075580.3324    931854.0501   4801568.2881   6   8   0.0499   0.0248   0.0417   0.0235   0.0150   0.0335   0.00    0.0
2018/06/06 02:06:30.000   4075580.3252    931854.0440   4801568.2750   6   8   0.0495   0.0246   0.0412   0.0230   0.0143   0.0328   0.00    0.0
2018/06/06 02:07:00.000   4075580.3265    931854.0435   4801568.2886   6   8   0.0494   0.0244   0.0411   0.0229   0.0139   0.0324   0.00    0.0
2018/06/06 02:07:30.000   4075580.3163    931854.0444   4801568.2759   6   8   0.0493   0.0243   0.0410   0.0228   0.0136   0.0321   0.00    0.0
2018/06/06 02:08:00.000   4075580.3124    931854.0388   4801568.2716   6   8   0.0493   0.0243   0.0409   0.0226   0.0133   0.0319   0.00    0.0
2018/06/06 02:08:30.000   4075580.3118    931854.0376   4801568.2711   6   8   0.0493   0.0243   0.0407   0.0225   0.0129   0.0316   0.00    0.0
2018/06/06 02:09:00.000   4075580.3215    931854.0402   4801568.2836   6   8   0.0492   0.0241   0.0407   0.0224   0.0127   0.0313   0.00    0.0
2018/06/06 02:09:30.000   4075580.3323    931854.0409   4801568.2757   6   8   0.0492   0.0242   0.0406   0.0223   0.0125   0.0311   0.00    0.0
2018/06/06 02:10:00.000   4075580.3345    931854.0414   4801568.2793   6   8   0.0491   0.0241   0.0405   0.0222   0.0121   0.0308   0.00    0.0
2018/06/06 02:10:30.000   4075580.3388    931854.0417   4801568.2839   6   7   0.0514   0.0247   0.0429   0.0202   0.0080   0.0339   0.00    0.0
2018/06/06 02:11:00.000   4075580.3346    931854.0406   4801568.2751   6   7   0.0513   0.0247   0.0428   0.0203   0.0079   0.0336   0.00    0.0
2018/06/06 02:11:30.000   4075580.3377    931854.0373   4801568.2809   6   7   0.0513   0.0246   0.0426   0.0204   0.0077   0.0333   0.00    0.0
2018/06/06 02:12:00.000   4075580.3382    931854.0340   4801568.2722   6   7   0.0512   0.0245   0.0424   0.0204   0.0076   0.0329   0.00    0.0
2018/06/06 02:12:30.000   4075580.3346    931854.0400   4801568.2809   6   7   0.0511   0.0245   0.0423   0.0205   0.0074   0.0326   0.00    0.0
2018/06/06 02:13:00.000   4075580.3393    931854.0379   4801568.2714   6   7   0.0510   0.0244   0.0422   0.0204   0.0073   0.0322   0.00    0.0
2018/06/06 02:13:30.000   4075580.3324    931854.0325   4801568.2667   6   7   0.0509   0.0243   0.0421   0.0204   0.0070   0.0319   0.00    0.0
2018/06/06 02:14:00.000   4075580.3382    931854.0332   4801568.2803   6   6   0.0509   0.0245   0.0472   0.0204  -0.0043   0.0321   0.00    0.0
2018/06/06 02:14:30.000   4075580.3303    931854.0288   4801568.2722   6   6   0.0508   0.0245   0.0469   0.0204  -0.0039   0.0317   0.00    0.0
2018/06/06 02:15:00.000   4075580.3259    931854.0305   4801568.2560   6   6   0.0508   0.0245   0.0465   0.0206  -0.0038   0.0312   0.00    0.0
2018/06/06 02:15:30.000   4075580.3332    931854.0298   4801568.2638   6   6   0.0508   0.0246   0.0462   0.0207  -0.0037   0.0308   0.00    0.0
2018/06/06 02:16:00.000   4075580.3282    931854.0321   4801568.2502   6   6   0.0507   0.0245   0.0459   0.0208  -0.0037   0.0303   0.00    0.0
2018/06/06 02:16:30.000   4075580.3362    931854.0304   4801568.2646   6   6   0.0507   0.0245   0.0456   0.0208  -0.0034   0.0299   0.00    0.0
2018/06/06 02:17:00.000   4075580.3293    931854.0340   4801568.2714   6   6   0.0507   0.0245   0.0454   0.0209  -0.0032   0.0295   0.00    0.0
2018/06/06 02:17:30.000   4075580.3261    931854.0393   4801568.2702   6   6   0.0507   0.0245   0.0450   0.0210  -0.0044   0.0290   0.00    0.0
2018/06/06 02:18:00.000   4075580.3169    931854.0375   4801568.2492   6   6   0.0506   0.0244   0.0448   0.0211  -0.0029   0.0287   0.00    0.0
2018/06/06 02:18:30.000   4075580.3368    931854.0358   4801568.2630   6   6   0.0506   0.0244   0.0446   0.0212  -0.0030   0.0284   0.00    0.0
2018/06/06 02:19:00.000   4075580.3390    931854.0352   4801568.2511   6   6   0.0506   0.0244   0.0443   0.0213  -0.0034   0.0279   0.00    0.0
2018/06/06 02:19:30.000   4075580.3257    931854.0352   4801568.2463   6   7   0.0506   0.0245   0.0440   0.0213  -0.0039   0.0274   0.00    0.0
2018/06/06 02:20:00.000   4075580.3306    931854.0348   4801568.2615   6   7   0.0506   0.0243   0.0405   0.0215   0.0061   0.0266   0.00    0.0
2018/06/06 02:20:30.000   4075580.3294    931854.0313   4801568.2636   6   7   0.0506   0.0242   0.0390   0.0217   0.0072   0.0260   0.00    0.0
2018/06/06 02:21:00.000   4075580.3327    931854.0366   4801568.2537   6   7   0.0506   0.0241   0.0382   0.0216   0.0077   0.0256   0.00    0.0
2018/06/06 02:21:30.000   4075580.3278    931854.0384   4801568.2512   6   7   0.0506   0.0241   0.0375   0.0217   0.0081   0.0252   0.00    0.0
2018/06/06 02:22:00.000   4075580.3318    931854.0372   4801568.2534   6   7   0.0506   0.0241   0.0370   0.0218   0.0083   0.0250   0.00    0.0
2018/06/06 02:22:30.000   4075580.3415    931854.0361   4801568.2560   6   7   0.0506   0.0241   0.0366   0.0218   0.0086   0.0246   0.00    0.0
2018/06/06 02:23:00.000   4075580.3447    931854.0413   4801568.2503   6   7   0.0507   0.0240   0.0362   0.0219   0.0087   0.0244   0.00    0.0
2018/06/06 02:23:30.000   4075580.3469    931854.0406   4801568.2575   6   7   0.0506   0.0240   0.0358   0.0220   0.0085   0.0242   0.00    0.0
2018/06/06 02:24:00.000   4075580.3475    931854.0414   4801568.2624   6   7   0.0507   0.0240   0.0356   0.0219   0.0090   0.0239   0.00    0.0
2018/06/06 02:24:30.000   4075580.3571    931854.0408   4801568.2632   6   7   0.0507   0.0239   0.0354   0.0219   0.0091   0.0238   0.00    0.0
2018/06/06 02:25:00.000   4075580.3499    931854.0456   4801568.2526   6   7   0.0507   0.0239   0.0351   0.0219   0.0091   0.0236   0.00    0.0
2018/06/06 02:25:30.000   4075580.3496    931854.0402   4801568.2534   6   7   0.0508   0.0239   0.0348   0.0219   0.0091   0.0233   0.00    0.0
2018/06/06 02:26:00.000   4075580.3467    931854.0421   4801568.2434   6   7   0.0507   0.0239   0.0346   0.0220   0.0091   0.0231   0.00    0.0
2018/06/06 02:26:30.000   4075580.3300    931854.0426   4801568.2517   6   7   0.0508   0.0238   0.0343   0.0219   0.0091   0.0229   0.00    0.0
2018/06/06 02:27:00.000   4075580.3390    931854.0452   4801568.2595   6   7   0.0507   0.0237   0.0341   0.0219   0.0093   0.0228   0.00    0.0
2018/06/06 02:27:30.000   4075580.3189    931854.0361   4801568.2432   6   7   0.0508   0.0238   0.0340   0.0219   0.0094   0.0227   0.00    0.0
2018/06/06 02:28:00.000   4075580.3298    931854.0363   4801568.2481   6   7   0.0508   0.0237   0.0337   0.0218   0.0095   0.0224   0.00    0.0
2018/06/06 02:28:30.000   4075580.3271    931854.0335   4801568.2500   6   7   0.0508   0.0238   0.0336   0.0219   0.0097   0.0223   0.00    0.0
2018/06/06 02:29:00.000   4075580.3199    931854.0372   4801568.2548   6   7   0.0508   0.0237   0.0334   0.0220   0.0093   0.0221   0.00    0.0
2018/06/06 02:29:30.000   4075580.3299    931854.0433   4801568.2569   6   7   0.0507   0.0237   0.0332   0.0219   0.0095   0.0220   0.00    0.0
2018/06/06 02:30:00.000   4075580.3149    931854.0395   4801568.2462   6   7   0.0508   0.0237   0.0330   0.0219   0.0097   0.0218   0.00    0.0
2018/06/06 02:30:30.000   4075580.3263    931854.0377   4801568.2368   6   7   0.0507   0.0237   0.0329   0.0218   0.0096   0.0218   0.00    0.0
2018/06/06 02:31:00.000   4075580.3088    931854.0428   4801568.2405   6   7   0.0507   0.0236   0.0328   0.0218   0.0096   0.0216   0.00    0.0
2018/06/06 02:31:30.000   4075580.3149    931854.0393   4801568.2571   6   7   0.0507   0.0235   0.0326   0.0218   0.0097   0.0215   0.00    0.0
2018/06/06 02:32:00.000   4075580.3047    931854.0385   4801568.2585   6   7   0.0507   0.0235   0.0326   0.0218   0.0097   0.0214   0.00    0.0
2018/06/06 02:32:30.000   4075580.3106    931854.0305   4801568.2488   6   7   0.0507   0.0235   0.0324   0.0217   0.0098   0.0213   0.00    0.0
2018/06/06 02:33:00.000   4075580.3139    931854.0392   4801568.2515   6   7   0.0507   0.0235   0.0323   0.0217   0.0100   0.0212   0.00    0.0
2018/06/06 02:33:30.000   4075580.3014    931854.0446   4801568.2566   6   7   0.0506   0.0235   0.0321   0.0218   0.0097   0.0211   0.00    0.0
2018/06/06 02:34:00.000   4075580.3139    931854.0422   4801568.2543   6   7   0.0506   0.0234   0.0320   0.0216   0.0098   0.0209   0.00    0.0
2018/06/06 02:34:30.000   4075580.2951    931854.0400   4801568.2530   6   7   0.0506   0.0234   0.0319   0.0216   0.0099   0.0209   0.00    0.0
2018/06/06 02:35:00.000   4075580.3022    931854.0345   4801568.2501   6   7   0.0505   0.0234   0.0319   0.0216   0.0099   0.0209   0.00    0.0
2018/06/06 02:35:30.000   4075580.2979    931854.0405   4801568.2512   6   7   0.0505   0.0234   0.0317   0.0215   0.0101   0.0208   0.00    0.0
2018/06/06 02:36:00.000   4075580.3068    931854.0401   4801568.2494   6   7   0.0504   0.0233   0.0317   0.0215   0.0103   0.0207   0.00    0.0
2018/06/06 02:36:30.000   4075580.2982    931854.0436   4801568.2452   6   7   0.0503   0.0232   0.0317   0.0215   0.0105   0.0208   0.00    0.0
2018/06/06 02:37:00.000   4075580.3088    931854.0395   4801568.2512   6   7   0.0503   0.0233   0.0315   0.0214   0.0102   0.0207   0.00    0.0
2018/06/06 02:37:30.000   4075580.3076    931854.0420   4801568.2651   6   7   0.0503   0.0233   0.0314   0.0213   0.0100   0.0206   0.00    0.0
2018/06/06 02:38:00.000   4075580.3063    931854.0368   4801568.2670   6   7   0.0502   0.0232   0.0315   0.0213   0.0105   0.0207   0.00    0.0
2018/06/06 02:38:30.000   4075580.3078    931854.0384   4801568.2485   6   7   0.0501   0.0232   0.0314   0.0213   0.0105   0.0206   0.00    0.0
2018/06/06 02:39:00.000   4075580.3020    931854.0437   4801568.2540   6   7   0.0501   0.0231   0.0312   0.0212   0.0103   0.0205   0.00    0.0
2018/06/06 02:39:30.000   4075580.3167    931854.0477   4801568.2669   6   7   0.0500   0.0231   0.0312   0.0212   0.0107   0.0206   0.00    0.0
2018/06/06 02:40:00.000   4075580.3114    931854.0448   4801568.2678   6   7   0.0499   0.0230   0.0312   0.0211   0.0107   0.0206   0.00    0.0
2018/06/06 02:40:30.000   4075580.3152    931854.0383   4801568.2548   6   7   0.0498   0.0231   0.0311   0.0211   0.0105   0.0205   0.00    0.0
2018/06/06 02:41:00.000   4075580.3057    931854.0385   4801568.2474   6   7   0.0497   0.0231   0.0310   0.0210   0.0108   0.0206   0.00    0.0
2018/06/06 02:41:30.000   4075580.3269    931854.0498   4801568.2636   6   7   0.0497   0.0230   0.0311   0.0209   0.0108   0.0207   0.00    0.0
2018/06/06 02:42:00.000   4075580.3273    931854.0519   4801568.2759   6   7   0.0496   0.0230   0.0310   0.0209   0.0109   0.0207   0.00    0.0
2018/06/06 02:42:30.000   4075580.3273    931854.0406   4801568.2649   6   7   0.0494   0.0230   0.0309   0.0209   0.0110   0.0206   0.00    0.0
2018/06/06 02:43:00.000   4075580.3335    931854.0410   4801568.2563   6   7   0.0494   0.0229   0.0310   0.0208   0.0112   0.0207   0.00    0.0
2018/06/06 02:43:30.000   4075580.3360    931854.0467   4801568.2584   6   7   0.0493   0.0230   0.0308   0.0208   0.0109   0.0206   0.00    0.0
2018/06/06 02:44:00.000   4075580.3452    931854.0464   4801568.2644   6   7   0.0492   0.0230   0.0309   0.0206   0.0109   0.0208   0.00    0.0
2018/06/06 02:44:30.000   4075580.3317    931854.0438   4801568.2563   6   7   0.0491   0.0229   0.0310   0.0206   0.0112   0.0208   0.00    0.0
2018/06/06 02:45:00.000   4075580.3254    931854.0459   4801568.2555   6   7   0.0490   0.0229   0.0309   0.0205   0.0113   0.0208   0.00    0.0
2018/06/06 02:45:30.000   4075580.3185    931854.0450   4801568.2527   6   7   0.0489   0.0229   0.0309   0.0205   0.0114   0.0209   0.00    0.0
2018/06/06 02:46:00.000   4075580.3261    931854.0515   4801568.2543   6   7   0.0488   0.0229   0.0310   0.0205   0.0115   0.0210   0.00    0.0
2018/06/06 02:46:30.000   4075580.3311    931854.0504   4801568.2548   6   7   0.0487   0.0229   0.0310   0.0204   0.0116   0.0211   0.00    0.0
2018/06/06 02:47:00.000   4075580.3191    931854.0464   4801568.2483   6   7   0.0486   0.0228   0.0310   0.0204   0.0118   0.0211   0.00    0.0
2018/06/06 02:47:30.000   4075580.3333    931854.0454   4801568.2565   6   7   0.0484   0.0229   0.0311   0.0204   0.0118   0.0213   0.00    0.0
2018/06/06 02:48:00.000   4075580.3116    931854.0373   4801568.2543   6   7   0.0483   0.0229   0.0311   0.0203   0.0120   0.0212   0.00    0.0
2018/06/06 02:48:30.000   4075580.3328    931854.0372   4801568.2442   6   7   0.0481   0.0228   0.0310   0.0203   0.0121   0.0213   0.00    0.0
2018/06/06 02:49:00.000   4075580.3334    931854.0451   4801568.2512   6   7   0.0481   0.0228   0.0310   0.0202   0.0120   0.0213   0.00    0.0
2018/06/06 02:49:30.000   4075580.3333    931854.0353   4801568.2546   6   7   0.0479   0.0228   0.0310   0.0203   0.0120   0.0215   0.00    0.0
2018/06/06 02:50:00.000   4075580.3322    931854.0356   4801568.2564   6   7   0.0478   0.0227   0.0311   0.0201   0.0122   0.0216   0.00    0.0
2018/06/06 02:50:30.000   4075580.3347    931854.0433   4801568.2609   6   7   0.0477   0.0228   0.0311   0.0201   0.0126   0.0216   0.00    0.0
2018/06/06 02:51:00.000   4075580.3380    931854.0392   4801568.2628   6   7   0.0476   0.0229   0.0312   0.0200   0.0123   0.0218   0.00    0.0
2018/06/06 02:51:30.000   4075580.3278    931854.0345   4801568.2670   6   7   0.0475   0.0229   0.0312   0.0200   0.0127   0.0218   0.00    0.0
2018/06/06 02:52:00.000   4075580.3383    931854.0367   4801568.2592   6   7   0.0474   0.0229   0.0311   0.0199   0.0124   0.0218   0.00    0.0
2018/06/06 02:52:30.000   4075580.3339    931854.0416   4801568.2617   6   7   0.0472   0.0228   0.0313   0.0200   0.0126   0.0220   0.00    0.0
2018/06/06 02:53:00.000   4075580.3368    931854.0454   4801568.2687   6   7   0.0471   0.0228   0.0313   0.0199   0.0126   0.0221   0.00    0.0
2018/06/06 02:53:30.000   4075580.3544    931854.0495   4801568.2721   6   7   0.0470   0.0228   0.0314   0.0198   0.0129   0.0222   0.00    0.0
2018/06/06 02:54:00.000   4075580.3569    931854.0511   4801568.2715   6   7   0.0469   0.0229   0.0314   0.0199   0.0129   0.0223   0.00    0.0
2018/06/06 02:54:30.000   4075580.3555    931854.0542   4801568.2745   6   7   0.0467   0.0228   0.0315   0.0199   0.0131   0.0223   0.00    0.0
2018/06/06 02:55:00.000   4075580.3522    931854.0459   4801568.2572   6   7   0.0466   0.0229   0.0315   0.0199   0.0131   0.0225   0.00    0.0
2018/06/06 02:55:30.000   4075580.3519    931854.0396   4801568.2516   6   7   0.0465   0.0230   0.0316   0.0198   0.0132   0.0226   0.00    0.0
2018/06/06 02:56:00.000   4075580.3470    931854.0355   4801568.2673   6   7   0.0463   0.0229   0.0317   0.0198   0.0132   0.0227   0.00    0.0
2018/06/06 02:56:30.000   4075580.3611    931854.0458   4801568.2722   6   7   0.0462   0.0229   0.0317   0.0198   0.0135   0.0228   0.00    0.0
2018/06/06 02:57:00.000   4075580.3649    931854.0424   4801568.2621   6   7   0.0461   0.0229   0.0319   0.0198   0.0134   0.0230   0.00    0.0
2018/06/06 02:57:30.000   4075580.3605    931854.0399   4801568.2586   6   7   0.0460   0.0230   0.0319   0.0197   0.0137   0.0230   0.00    0.0
2018/06/06 02:58:00.000   4075580.3503    931854.0352   4801568.2613   6   7   0.0459   0.0229   0.0320   0.0197   0.0138   0.0232   0.00    0.0
2018/06/06 02:58:30.000   4075580.3508    931854.0425   4801568.2723   6   7   0.0458   0.0229   0.0321   0.0197   0.0140   0.0234   0.00    0.0
2018/06/06 02:59:00.000   4075580.3600    931854.0452   4801568.2624   6   7   0.0456   0.0229   0.0323   0.0198   0.0141   0.0234   0.00    0.0
2018/06/06 02:59:30.000   4075580.3572    931854.0497   4801568.2560   6   7   0.0455   0.0230   0.0324   0.0198   0.0140   0.0236   0.00    0.0
2018/06/06 03:00:00.000   4075580.3459    931854.0454   4801568.2640   6   7   0.0454   0.0230   0.0324   0.0198   0.0143   0.0238   0.00    0.0
2018/06/06 03:00:30.000   4075580.3447    931854.0479   4801568.2614   6   7   0.0453   0.0231   0.0325   0.0197   0.0145   0.0238   0.00    0.0
2018/06/06 03:01:00.000   4075580.3518    931854.0485   4801568.2476   6   7   0.0452   0.0231   0.0326   0.0197   0.0145   0.0240   0.00    0.0
2018/06/06 03:01:30.000   4075580.3377    931854.0488   4801568.2589   6   7   0.0450   0.0231   0.0328   0.0198   0.0147   0.0242   0.00    0.0
2018/06/06 03:02:00.000   4075580.3429    931854.0494   4801568.2605   6   6   0.0450   0.0237   0.0346   0.0201   0.0165   0.0248   0.00    0.0
2018/06/06 03:02:30.000   4075580.3381    931854.0511   4801568.2514   6   6   0.0449   0.0237   0.0347   0.0201   0.0165   0.0250   0.00    0.0
2018/06/06 03:03:00.000   4075580.3421    931854.0516   4801568.2456   6   6   0.0448   0.0237   0.0348   0.0201   0.0166   0.0251   0.00    0.0
2018/06/06 03:03:30.000   4075580.3331    931854.0495   4801568.2538   6   6   0.0447   0.0237   0.0349   0.0202   0.0167   0.0253   0.00    0.0
2018/06/06 03:04:00.000   4075580.3320    931854.0462   4801568.2438   6   6   0.0445   0.0237   0.0350   0.0202   0.0167   0.0255   0.00    0.0
2018/06/06 03:04:30.000   4075580.3347    931854.0473   4801568.2374   6   6   0.0445   0.0238   0.0351   0.0202   0.0169   0.0256   0.00    0.0
2018/06/06 03:05:00.000   4075580.3365    931854.0386   4801568.2481   6   6   0.0444   0.0238   0.0352   0.0203   0.0169   0.0258   0.00    0.0
2018/06/06 03:05:30.000   4075580.3376    931854.0446   4801568.2462   6   6   0.0443   0.0238   0.0354   0.0203   0.0170   0.0259   0.00    0.0
2018/06/06 03:06:00.000   4075580.3392    931854.0500   4801568.2521   6   6   0.0443   0.0238   0.0354   0.0203   0.0171   0.0260   0.00    0.0
2018/06/06 03:06:30.000   4075580.3325    931854.0475   4801568.2486   6   6   0.0442   0.0239   0.0356   0.0203   0.0171   0.0263   0.00    0.0
2018/06/06 03:07:00.000   4075580.3230    931854.0410   4801568.2526   6   6   0.0441   0.0239   0.0358   0.0204   0.0174   0.0265   0.00    0.0
2018/06/06 03:07:30.000   4075580.3214    931854.0470   4801568.2501   6   6   0.0440   0.0240   0.0359   0.0204   0.0175   0.0266   0.00    0.0
2018/06/06 03:08:00.000   4075580.3387    931854.0477   4801568.2351   6   6   0.0439   0.0240   0.0359   0.0205   0.0175   0.0267   0.00    0.0
2018/06/06 03:08:30.000   4075580.3466    931854.0474   4801568.2475   6   6   0.0438   0.0240   0.0361   0.0205   0.0175   0.0269   0.00    0.0
2018/06/06 03:09:00.000   4075580.3295    931854.0479   4801568.2524   6   6   0.0437   0.0241   0.0362   0.0206   0.0177   0.0270   0.00    0.0
2018/06/06 03:09:30.000   4075580.3438    931854.0496   4801568.2372   6   6   0.0437   0.0242   0.0364   0.0207   0.0177   0.0273   0.00    0.0
2018/06/06 03:10:00.000   4075580.3416    931854.0515   4801568.2457   6   6   0.0437   0.0242   0.0366   0.0207   0.0178   0.0275   0.00    0.0
2018/06/06 03:10:30.000   4075580.3334    931854.0512   4801568.2457   6   6   0.0436   0.0242   0.0367   0.0208   0.0180   0.0277   0.00    0.0
2018/06/06 03:11:00.000   4075580.3348    931854.0521   4801568.2494   6   6   0.0436   0.0242   0.0370   0.0208   0.0181   0.0279   0.00    0.0
2018/06/06 03:11:30.000   4075580.3366    931854.0513   4801568.2424   6   6   0.0434   0.0242   0.0371   0.0209   0.0183   0.0281   0.00    0.0
2018/06/06 03:12:00.000   4075580.3441    931854.0525   4801568.2468   6   6   0.0434   0.0243   0.0372   0.0209   0.0182   0.0282   0.00    0.0
2018/06/06 03:12:30.000   4075580.3440    931854.0502   4801568.2469   6   6   0.0434   0.0243   0.0374   0.0210   0.0184   0.0285   0.00    0.0
2018/06/06 03:13:00.000   4075580.3397    931854.0549   4801568.2460   6   6   0.0433   0.0244   0.0376   0.0212   0.0185   0.0286   0.00    0.0
2018/06/06 03:13:30.000   4075580.3342    931854.0540   4801568.2538   6   6   0.0433   0.0245   0.0378   0.0212   0.0187   0.0288   0.00    0.0
2018/06/06 03:14:00.000   4075580.3457    931854.0550   4801568.2429   6   6   0.0432   0.0245   0.0380   0.0212   0.0187   0.0290   0.00    0.0
2018/06/06 03:14:30.000   4075580.3378    931854.0547   4801568.2418   6   6   0.0432   0.0245   0.0382   0.0213   0.0187   0.0293   0.00    0.0
2018/06/06 03:15:00.000   4075580.3368    931854.0524   4801568.2577   6   6   0.0432   0.0246   0.0384   0.0214   0.0189   0.0295   0.00    0.0
2018/06/06 03:15:30.000   4075580.3442    931854.0519   4801568.2504   6   6   0.0431   0.0247   0.0386   0.0215   0.0192   0.0297   0.00    0.0
2018/06/06 03:16:00.000   4075580.3463    931854.0519   4801568.2399   6   6   0.0431   0.0247   0.0388   0.0215   0.0192   0.0299   0.00    0.0
2018/06/06 03:16:30.000   4075580.3485    931854.0518   4801568.2523   6   6   0.0431   0.0248   0.0389   0.0216   0.0193   0.0300   0.00    0.0
2018/06/06 03:17:00.000   4075580.3509    931854.0454   4801568.2558   6   6   0.0431   0.0248   0.0392   0.0217   0.0194   0.0303   0.00    0.0
2018/06/06 03:17:30.000   4075580.3595    931854.0508   4801568.2580   6   6   0.0431   0.0248   0.0394   0.0218   0.0196   0.0305   0.00    0.0
2018/06/06 03:18:00.000   4075580.3592    931854.0473   4801568.2492   6   6   0.0431   0.0249   0.0396   0.0219   0.0197   0.0307   0.00    0.0
2018/06/06 03:18:30.000   4075580.3511    931854.0416   4801568.2570   6   6   0.0431   0.0249   0.0398   0.0219   0.0198   0.0309   0.00    0.0
2018/06/06 03:19:00.000   4075580.3519    931854.0469   4801568.2482   6   6   0.0430   0.0250   0.0401   0.0220   0.0199   0.0312   0.00    0.0
2018/06/06 03:19:30.000   4075580.3449    931854.0470   4801568.2460   6   6   0.0430   0.0251   0.0403   0.0222   0.0200   0.0314   0.00    0.0
2018/06/06 03:20:00.000   4075580.3364    931854.0435   4801568.2421   6   6   0.0431   0.0251   0.0406   0.0222   0.0202   0.0317   0.00    0.0
2018/06/06 03:20:30.000   4075580.3375    931854.0455   4801568.2340   6   6   0.0431   0.0252   0.0408   0.0224   0.0204   0.0319   0.00    0.0
2018/06/06 03:21:00.000   4075580.3237    931854.0344   4801568.2389   6   6   0.0432   0.0253   0.0411   0.0224   0.0205   0.0322   0.00    0.0
