%============NET Diff V1.9==============
%Developed by Yize Zhang, zhyize@163.com
%          day: 2017200
%     Station Fixed: 
%      reft   -3961905.593    3348996.204    3698212.015     0.000     0.000     0.000     NetR9                    TRM57971.00     NONE
%  Station Estimated:
%      rovm   -3961743.190    3349011.098    3698326.131     0.000     0.000     0.000                                                  
%  eopfile:         Input\EOP.txt
%  antfile:         Input\igs14_2082.atx
%planetfile:        Input\Planet.bin
% tidefile:         Input\tide.txt
%glofrefile:        Input\GLOFre.txt
% p1c1file:         Input\P1C11805.DCB
%  dcbfile:         E:\data\dcb\
%  obstype:         RNX
%   obsdir:         H:\
%   navdir:         H:\brdm2000.17p
%interva(s):        0.2
%   limele:          15
%   limSNR:          33
% stomodel:         ELE1
%  maxpdop:         100
%trop_model:       GPT2_5w  SAAS VMF1
%   t_start:       2017  7 19  8 18  0.0 1958  289080
%    t_end:        2017  7 19  8 59 59.0 1958  291599
%freq_comb:        G:L1L2    C:L1L2    E:L1L2    J:L1L2      
%combination:      Code 0.6  Phase 0.003
%systemused:        GPS    BDS  GALILEO   QZSS    
% admethod:          KF
%  postype:       Forward
%pos_state:           K
% proc_mod:           5
%   dd_coe:         1.0  0.0  0.0  0.0
%  ar_mode:         Instantaneous
%   fixele:         20
%partial_ar:       Data based
%success_rate:     0.68
% minratio:         2.0
%tightcombine         F
%est_wl_amb:          F
%ionocompensate:      F
% est_iono:           F
%      isb:           T  RW  1.0
%      ifb:           T  LM
%cycleslip:       LLI+P1L1            
%obscombine:        P1P2
%  iontype:           1
%   smooth:           N Hatch P1P2    0
%  posfile:           T
%   outdir:              H:\
% (x/y/z-ecef=WGS84,Q=1:fix,2:float,ns=# of satellites)
%  GPST                      x-ecef(m)      y-ecef(m)      z-ecef(m)   Q  ns
2017/07/19 08:24:19.199  -3961765.2182   3349012.3317   3698312.2400   1  14
2017/07/19 08:24:19.400  -3961765.2171   3349012.3303   3698312.2397   1  14
2017/07/19 08:24:19.600  -3961765.2165   3349012.3312   3698312.2397   1  14
2017/07/19 08:24:19.800  -3961765.2188   3349012.3322   3698312.2421   1  14
2017/07/19 08:24:20.000  -3961765.2141   3349012.3309   3698312.2378   1  14
2017/07/19 08:24:20.199  -3961765.2166   3349012.3310   3698312.2384   1  14
2017/07/19 08:24:20.400  -3961765.2170   3349012.3311   3698312.2396   1  14
2017/07/19 08:24:20.600  -3961765.2154   3349012.3306   3698312.2366   1  14
2017/07/19 08:24:20.800  -3961765.2150   3349012.3296   3698312.2378   1  14
2017/07/19 08:24:21.000  -3961765.2186   3349012.3324   3698312.2407   1  14
2017/07/19 08:24:21.199  -3961765.2145   3349012.3276   3698312.2376   1  14
2017/07/19 08:24:21.400  -3961765.2153   3349012.3285   3698312.2387   1  14
2017/07/19 08:24:21.600  -3961765.2170   3349012.3299   3698312.2383   1  14
2017/07/19 08:24:21.800  -3961765.2205   3349012.3312   3698312.2402   1  14
2017/07/19 08:24:22.000  -3961765.2182   3349012.3359   3698312.2417   1  14
2017/07/19 08:24:22.199  -3961765.2208   3349012.3379   3698312.2418   1  14
2017/07/19 08:24:22.400  -3961765.2198   3349012.3364   3698312.2430   1  14
2017/07/19 08:24:22.600  -3961765.2228   3349012.3392   3698312.2455   1  14
2017/07/19 08:24:22.800  -3961765.2234   3349012.3392   3698312.2450   1  14
2017/07/19 08:24:23.000  -3961765.2219   3349012.3352   3698312.2426   1  14
2017/07/19 08:24:23.199  -3961765.2219   3349012.3330   3698312.2415   1  14
2017/07/19 08:24:23.400  -3961765.2193   3349012.3312   3698312.2408   1  14
2017/07/19 08:24:23.600  -3961765.2157   3349012.3317   3698312.2373   1  14
2017/07/19 08:24:23.800  -3961765.2199   3349012.3324   3698312.2403   1  14
2017/07/19 08:24:24.000  -3961765.2186   3349012.3309   3698312.2399   1  14
2017/07/19 08:24:24.199  -3961765.2185   3349012.3300   3698312.2402   1  14
2017/07/19 08:24:24.400  -3961765.2179   3349012.3311   3698312.2387   1  14
2017/07/19 08:24:24.600  -3961765.2192   3349012.3313   3698312.2417   1  14
2017/07/19 08:24:24.800  -3961765.2133   3349012.3301   3698312.2420   1  14
2017/07/19 08:24:25.000  -3961765.2028   3349012.3392   3698312.2522   1  14
2017/07/19 08:24:25.199  -3961765.1754   3349012.3494   3698312.2725   1  14
2017/07/19 08:24:25.400  -3961765.1356   3349012.3619   3698312.3049   1  14
2017/07/19 08:24:25.600  -3961765.0793   3349012.3738   3698312.3469   1  14
2017/07/19 08:24:25.800  -3961765.0100   3349012.4006   3698312.4001   1  14
2017/07/19 08:24:26.000  -3961764.9215   3349012.4237   3698312.4634   1  14
2017/07/19 08:24:26.199  -3961764.8286   3349012.4578   3698312.5510   1  14
2017/07/19 08:24:26.400  -3961764.7047   3349012.4901   3698312.6329   1  14
2017/07/19 08:24:26.600  -3961764.5741   3349012.5266   3698312.7350   1  14
2017/07/19 08:24:26.800  -3961764.4313   3349012.5776   3698312.8545   1  14
2017/07/19 08:24:27.000  -3961764.2681   3349012.6334   3698312.9851   1  14
2017/07/19 08:24:27.199  -3961764.0592   3349012.7009   3698313.1337   1  14
2017/07/19 08:24:27.400  -3961763.8301   3349012.7865   3698313.3216   1  14
2017/07/19 08:24:27.600  -3961763.5438   3349012.8709   3698313.5398   1  14
2017/07/19 08:24:27.800  -3961763.2190   3349012.9790   3698313.7927   1  14
2017/07/19 08:24:28.000  -3961762.8478   3349013.0888   3698314.0695   1  13
2017/07/19 08:24:28.199  -3961762.4533   3349013.2192   3698314.3843   1  13
2017/07/19 08:24:28.400  -3961762.0070   3349013.3738   3698314.7189   1  13
2017/07/19 08:24:28.600  -3961761.5343   3349013.5390   3698315.0883   1  13
2017/07/19 08:24:28.800  -3961761.0183   3349013.6970   3698315.4728   1  13
2017/07/19 08:24:29.000  -3961760.4649   3349013.8664   3698315.8934   1  13
2017/07/19 08:24:29.199  -3961759.8945   3349014.0624   3698316.3459   1  13
2017/07/19 08:24:29.400  -3961759.2786   3349014.2642   3698316.8231   1  13
2017/07/19 08:24:29.600  -3961758.6308   3349014.4687   3698317.3169   1  13
2017/07/19 08:24:29.800  -3961757.9627   3349014.7107   3698317.8474   1  13
2017/07/19 08:24:30.000  -3961757.2472   3349014.9366   3698318.3897   1  13
2017/07/19 08:24:30.199  -3961756.5114   3349015.1708   3698318.9599   1  13
2017/07/19 08:24:30.400  -3961755.7545   3349015.4302   3698319.5436   1  14
2017/07/19 08:24:30.600  -3961754.9740   3349015.6843   3698320.1334   1  14
2017/07/19 08:24:30.800  -3961754.2009   3349015.9463   3698320.7300   1  14
2017/07/19 08:24:31.000  -3961753.4098   3349016.1959   3698321.3137   1  14
2017/07/19 08:24:31.199  -3961752.6311   3349016.4714   3698321.9132   1  14
2017/07/19 08:24:31.400  -3961751.8523   3349016.7272   3698322.5070   1  14
2017/07/19 08:24:31.600  -3961751.0847   3349016.9776   3698323.0792   1  14
2017/07/19 08:24:31.800  -3961750.3293   3349017.2316   3698323.6535   1  14
2017/07/19 08:24:32.000  -3961749.5977   3349017.4776   3698324.2175   1  14
2017/07/19 08:24:32.200  -3961748.8634   3349017.7092   3698324.7726   1  14
2017/07/19 08:24:32.399  -3961748.1620   3349017.9528   3698325.3130   1  14
2017/07/19 08:24:32.600  -3961747.4981   3349018.1829   3698325.8239   1  14
2017/07/19 08:24:32.799  -3961746.8753   3349018.3999   3698326.3127   1  14
2017/07/19 08:24:33.000  -3961746.2953   3349018.6060   3698326.7583   1  14
2017/07/19 08:24:33.200  -3961745.7727   3349018.7748   3698327.1699   1  14
2017/07/19 08:24:33.399  -3961745.2917   3349018.9195   3698327.5383   1  14
2017/07/19 08:24:33.600  -3961744.8632   3349019.0603   3698327.8556   1  14
2017/07/19 08:24:33.799  -3961744.4912   3349019.1901   3698328.1426   1  14
2017/07/19 08:24:34.000  -3961744.1523   3349019.2853   3698328.4021   1  14
2017/07/19 08:24:34.200  -3961743.8401   3349019.3849   3698328.6526   1  14
2017/07/19 08:24:34.399  -3961743.5246   3349019.4803   3698328.8850   1  14
2017/07/19 08:24:34.600  -3961743.3104   3349019.5771   3698329.0871   1  14
2017/07/19 08:24:34.800  -3961743.0415   3349019.6693   3698329.3005   1  14
2017/07/19 08:24:35.000  -3961742.6955   3349019.7619   3698329.5224   1  14
2017/07/19 08:24:35.200  -3961742.4578   3349019.8606   3698329.7264   1  14
2017/07/19 08:24:35.399  -3961742.2092   3349019.9426   3698329.9326   1  14
2017/07/19 08:24:35.600  -3961741.9143   3349020.0201   3698330.1457   1  14
2017/07/19 08:24:35.800  -3961741.6414   3349020.1071   3698330.3684   1  14
2017/07/19 08:24:36.000  -3961741.3845   3349020.2433   3698330.6419   1  14
2017/07/19 08:24:36.200  -3961741.1106   3349020.3209   3698330.8341   1  14
2017/07/19 08:24:36.399  -3961740.8204   3349020.3468   3698330.9882   1  14
2017/07/19 08:24:36.600  -3961740.5127   3349020.4829   3698331.2746   1  14
2017/07/19 08:24:36.800  -3961740.2053   3349020.5883   3698331.5309   1  14
2017/07/19 08:24:37.000  -3961739.8498   3349020.6596   3698331.8136   1  14
2017/07/19 08:24:37.200  -3961739.4668   3349020.7526   3698332.1624   1  14
2017/07/19 08:24:37.399  -3961739.0423   3349020.8430   3698332.5530   1  14
2017/07/19 08:24:37.600  -3961738.5698   3349020.9359   3698333.0012   1  14
2017/07/19 08:24:37.800  -3961738.0677   3349021.0191   3698333.5073   1  14
2017/07/19 08:24:38.000  -3961737.5454   3349021.0662   3698334.0653   1  14
2017/07/19 08:24:38.200  -3961736.9728   3349021.0953   3698334.6578   1  14
2017/07/19 08:24:38.399  -3961736.3757   3349021.1186   3698335.3139   1  14
2017/07/19 08:24:38.600  -3961735.7570   3349021.1142   3698336.0010   1  14
2017/07/19 08:24:38.800  -3961735.1370   3349021.1254   3698336.7120   1  14
2017/07/19 08:24:39.000  -3961734.5034   3349021.1218   3698337.4220   1  14
2017/07/19 08:24:39.200  -3961733.8572   3349021.1036   3698338.1397   1  14
2017/07/19 08:24:39.399  -3961733.2132   3349021.0839   3698338.8552   1  14
2017/07/19 08:24:39.600  -3961732.5579   3349021.0641   3698339.5559   1  14
2017/07/19 08:24:39.800  -3961731.9222   3349021.0429   3698340.2667   1  14
2017/07/19 08:24:40.000  -3961731.2931   3349020.9919   3698340.9628   1  14
2017/07/19 08:24:40.200  -3961730.6844   3349020.9387   3698341.6624   1  14
2017/07/19 08:24:40.399  -3961730.0815   3349020.8427   3698342.3544   1  14
2017/07/19 08:24:40.600  -3961729.5192   3349020.7305   3698343.0557   1  14
2017/07/19 08:24:40.800  -3961728.9981   3349020.5666   3698343.7467   1  15
2017/07/19 08:24:41.000  -3961728.5193   3349020.3498   3698344.4252   1  15
2017/07/19 08:24:41.200  -3961728.0964   3349020.0872   3698345.1052   1  15
2017/07/19 08:24:41.399  -3961727.7388   3349019.7835   3698345.7681   1  15
2017/07/19 08:24:41.600  -3961727.4355   3349019.4305   3698346.4140   1  15
2017/07/19 08:24:41.800  -3961727.2090   3349019.0276   3698347.0580   1  15
2017/07/19 08:24:42.000  -3961727.0325   3349018.5608   3698347.6674   1  15
2017/07/19 08:24:42.200  -3961726.9428   3349018.0646   3698348.2479   1  15
2017/07/19 08:24:42.399  -3961726.9270   3349017.5186   3698348.7686   1  15
2017/07/19 08:24:42.600  -3961726.9866   3349016.9321   3698349.2281   1  14
2017/07/19 08:24:42.800  -3961727.1337   3349016.3299   3698349.6360   1  14
2017/07/19 08:24:43.000  -3961727.3358   3349015.6958   3698349.9645   1  15
2017/07/19 08:24:43.200  -3961727.6066   3349015.0428   3698350.2179   1  15
2017/07/19 08:24:43.399  -3961727.9498   3349014.4196   3698350.4036   1  15
2017/07/19 08:24:43.600  -3961728.3802   3349013.8485   3698350.5258   1  14
2017/07/19 08:24:43.800  -3961728.8266   3349013.2700   3698350.5443   1  14
2017/07/19 08:24:44.000  -3961729.3234   3349012.7422   3698350.4987   1  14
2017/07/19 08:24:44.200  -3961729.8552   3349012.2552   3698350.3642   1  14
2017/07/19 08:24:44.399  -3961730.4210   3349011.8381   3698350.1361   1  14
2017/07/19 08:24:44.600  -3961730.9894   3349011.4876   3698349.8682   1  14
2017/07/19 08:24:44.800  -3961731.5512   3349011.2143   3698349.5198   1  14
2017/07/19 08:24:45.000  -3961732.0803   3349011.0247   3698349.0957   1  14
2017/07/19 08:24:45.200  -3961732.6025   3349010.8989   3698348.6286   1  14
2017/07/19 08:24:45.399  -3961733.1226   3349010.8671   3698348.1288   1  14
2017/07/19 08:24:45.600  -3961733.5750   3349010.9131   3698347.5736   1  14
2017/07/19 08:24:45.800  -3961733.9782   3349011.0465   3698347.0069   1  13
2017/07/19 08:24:46.000  -3961734.3536   3349011.2497   3698346.4210   1  13
2017/07/19 08:24:46.200  -3961734.6477   3349011.5571   3698345.8503   1  13
2017/07/19 08:24:46.399  -3961734.8794   3349011.9711   3698345.3052   1  12
2017/07/19 08:24:46.600  -3961735.0209   3349012.3363   3698344.7384   1  12
2017/07/19 08:24:46.800  -3961735.1011   3349012.8125   3698344.2256   1  12
2017/07/19 08:24:47.000  -3961735.1050   3349013.3233   3698343.7573   1  12
2017/07/19 08:24:47.200  -3961735.0415   3349013.8831   3698343.3541   1  12
2017/07/19 08:24:47.399  -3961734.8898   3349014.4625   3698342.9968   1  12
2017/07/19 08:24:47.600  -3961734.6854   3349015.0637   3698342.7086   1  13
2017/07/19 08:24:47.800  -3961734.4041   3349015.6402   3698342.4812   1  13
2017/07/19 08:24:48.000  -3961734.0808   3349016.2208   3698342.3217   1  13
2017/07/19 08:24:48.200  -3961733.6828   3349016.7729   3698342.2577   1  13
2017/07/19 08:24:48.399  -3961733.2477   3349017.2975   3698342.2523   1  13
2017/07/19 08:24:48.600  -3961732.7689   3349017.7811   3698342.3141   1  14
2017/07/19 08:24:48.800  -3961732.2627   3349018.2127   3698342.4543   1  14
2017/07/19 08:24:49.000  -3961731.7375   3349018.5957   3698342.6775   1  14
2017/07/19 08:24:49.200  -3961731.1850   3349018.9046   3698342.9575   1  14
2017/07/19 08:24:49.399  -3961730.6286   3349019.1767   3698343.2958   1  14
2017/07/19 08:24:49.600  -3961730.0811   3349019.3827   3698343.7004   1  14
2017/07/19 08:24:49.800  -3961729.5385   3349019.4965   3698344.1464   1  14
2017/07/19 08:24:50.000  -3961729.0218   3349019.5407   3698344.6428   1  14
2017/07/19 08:24:50.200  -3961728.5312   3349019.5191   3698345.1768   1  14
2017/07/19 08:24:50.399  -3961728.0850   3349019.4214   3698345.7492   1  14
2017/07/19 08:24:50.600  -3961727.6659   3349019.2639   3698346.3419   1  14
2017/07/19 08:24:50.800  -3961727.3018   3349019.0172   3698346.9469   1  15
2017/07/19 08:24:51.000  -3961726.9828   3349018.7233   3698347.5650   1  15
2017/07/19 08:24:51.200  -3961726.7213   3349018.3788   3698348.1881   1  15
2017/07/19 08:24:51.399  -3961726.5243   3349017.9533   3698348.7827   1  14
2017/07/19 08:24:51.600  -3961726.4302   3349017.4973   3698349.3618   1  15
2017/07/19 08:24:51.800  -3961726.3717   3349016.9667   3698349.8962   1  15
2017/07/19 08:24:52.000  -3961726.3869   3349016.4037   3698350.4083   1  15
2017/07/19 08:24:52.200  -3961726.4857   3349015.7990   3698350.8542   1  15
2017/07/19 08:24:52.399  -3961726.6370   3349015.1474   3698351.2211   1  15
2017/07/19 08:24:52.600  -3961726.8740   3349014.5154   3698351.5278   1  15
2017/07/19 08:24:52.800  -3961727.2021   3349013.8878   3698351.7540   1  14
2017/07/19 08:24:53.000  -3961727.5796   3349013.2700   3698351.8980   1  14
2017/07/19 08:24:53.200  -3961728.0127   3349012.6758   3698351.9547   1  14
2017/07/19 08:24:53.399  -3961728.4964   3349012.1219   3698351.9230   1  14
2017/07/19 08:24:53.600  -3961729.0230   3349011.6261   3698351.8131   1  14
2017/07/19 08:24:53.800  -3961729.5788   3349011.1884   3698351.6144   1  14
2017/07/19 08:24:54.000  -3961730.1351   3349010.8226   3698351.3378   1  14
2017/07/19 08:24:54.200  -3961730.7003   3349010.5404   3698350.9918   1  14
2017/07/19 08:24:54.399  -3961731.2395   3349010.3564   3698350.5830   1  14
2017/07/19 08:24:54.600  -3961731.7680   3349010.2930   3698350.1235   1  14
2017/07/19 08:24:54.800  -3961732.2120   3349010.2719   3698349.6004   1  14
2017/07/19 08:24:55.000  -3961732.6211   3349010.3786   3698349.0600   1  14
2017/07/19 08:24:55.200  -3961732.9962   3349010.5524   3698348.5214   1  14
2017/07/19 08:24:55.399  -3961733.2892   3349010.8237   3698347.9763   1  14
2017/07/19 08:24:55.600  -3961733.5046   3349011.1600   3698347.4414   1  14
2017/07/19 08:24:55.800  -3961733.6500   3349011.5406   3698346.9180   1  13
2017/07/19 08:24:56.000  -3961733.7169   3349011.9931   3698346.4368   1  13
2017/07/19 08:24:56.200  -3961733.7050   3349012.4988   3698346.0179   1  14
2017/07/19 08:24:56.399  -3961733.6144   3349013.0298   3698345.6470   1  14
2017/07/19 08:24:56.600  -3961733.4504   3349013.5640   3698345.3324   1  14
2017/07/19 08:24:56.800  -3961733.2109   3349014.1195   3698345.1047   1  14
2017/07/19 08:24:57.000  -3961732.9287   3349014.6578   3698344.9289   1  14
2017/07/19 08:24:57.200  -3961732.5729   3349015.1826   3698344.8188   1  14
2017/07/19 08:24:57.399  -3961732.1759   3349015.7001   3698344.7969   1  14
2017/07/19 08:24:57.600  -3961731.7361   3349016.1740   3698344.8364   1  14
2017/07/19 08:24:57.800  -3961731.2663   3349016.6019   3698344.9492   1  14
2017/07/19 08:24:58.000  -3961730.7774   3349016.9880   3698345.1237   1  14
2017/07/19 08:24:58.200  -3961730.2673   3349017.2997   3698345.3764   1  14
2017/07/19 08:24:58.399  -3961729.7596   3349017.5520   3698345.6961   1  14
2017/07/19 08:24:58.600  -3961729.2519   3349017.7258   3698346.0648   1  14
2017/07/19 08:24:58.800  -3961728.7637   3349017.8241   3698346.4908   1  14
2017/07/19 08:24:59.000  -3961728.3222   3349017.8436   3698346.9626   1  14
2017/07/19 08:24:59.200  -3961727.9046   3349017.7818   3698347.4559   1  14
2017/07/19 08:24:59.399  -3961727.5380   3349017.6551   3698347.9798   1  14
2017/07/19 08:24:59.600  -3961727.2240   3349017.4409   3698348.5036   1  14
2017/07/19 08:24:59.800  -3961726.9728   3349017.1616   3698349.0214   1  14
2017/07/19 08:25:00.000  -3961726.8039   3349016.8272   3698349.5395   1  14
2017/07/19 08:25:00.200  -3961726.6814   3349016.4315   3698350.0332   1  14
2017/07/19 08:25:00.400  -3961726.6219   3349015.9774   3698350.4851   1  14
2017/07/19 08:25:00.600  -3961726.6532   3349015.4962   3698350.9169   1  14
2017/07/19 08:25:00.800  -3961726.7350   3349014.9669   3698351.2862   1  14
2017/07/19 08:25:01.000  -3961726.8894   3349014.4272   3698351.6049   1  14
2017/07/19 08:25:01.199  -3961727.1142   3349013.8810   3698351.8525   1  14
2017/07/19 08:25:01.400  -3961727.3942   3349013.3290   3698352.0361   1  14
2017/07/19 08:25:01.600  -3961727.7385   3349012.7908   3698352.1578   1  14
2017/07/19 08:25:01.800  -3961728.1337   3349012.2697   3698352.1975   1  14
2017/07/19 08:25:02.000  -3961728.5603   3349011.7665   3698352.1818   1  14
2017/07/19 08:25:02.200  -3961729.0224   3349011.3102   3698352.1030   1  14
2017/07/19 08:25:02.399  -3961729.5069   3349010.8871   3698351.9615   1  14
2017/07/19 08:25:02.600  -3961729.9783   3349010.5263   3698351.7674   1  14
2017/07/19 08:25:02.800  -3961730.4361   3349010.2292   3698351.5406   1  14
2017/07/19 08:25:03.000  -3961730.8642   3349009.9954   3698351.2981   1  14
2017/07/19 08:25:03.200  -3961731.2512   3349009.8361   3698351.0423   1  14
2017/07/19 08:25:03.399  -3961731.6095   3349009.7096   3698350.7799   1  14
2017/07/19 08:25:03.600  -3961731.9573   3349009.6285   3698350.5113   1  14
2017/07/19 08:25:03.800  -3961732.2426   3349009.5386   3698350.2186   1  14
2017/07/19 08:25:04.000  -3961732.5232   3349009.5072   3698349.9440   1  14
2017/07/19 08:25:04.200  -3961732.7772   3349009.5192   3698349.6834   1  14
2017/07/19 08:25:04.400  -3961732.9968   3349009.5524   3698349.4282   1  14
2017/07/19 08:25:04.600  -3961733.1793   3349009.5943   3698349.1914   1  14
2017/07/19 08:25:04.799  -3961733.3379   3349009.6499   3698348.9775   1  14
2017/07/19 08:25:05.000  -3961733.4783   3349009.7404   3698348.7865   1  13
2017/07/19 08:25:05.200  -3961733.5930   3349009.7926   3698348.6099   1  14
2017/07/19 08:25:05.400  -3961733.6813   3349009.8502   3698348.4625   1  14
2017/07/19 08:25:05.600  -3961733.7305   3349009.8720   3698348.3269   1  14
2017/07/19 08:25:05.799  -3961733.8023   3349009.9495   3698348.2396   1  14
2017/07/19 08:25:06.000  -3961733.8388   3349009.9632   3698348.1497   1  14
2017/07/19 08:25:06.200  -3961733.8788   3349010.0234   3698348.0826   1  14
2017/07/19 08:25:06.400  -3961733.9078   3349010.0536   3698348.0207   1  14
2017/07/19 08:25:06.600  -3961733.9409   3349010.0907   3698347.9738   1  14
2017/07/19 08:25:06.799  -3961733.9517   3349010.1037   3698347.9230   1  14
2017/07/19 08:25:07.000  -3961733.9755   3349010.1266   3698347.8892   1  14
2017/07/19 08:25:07.200  -3961733.9885   3349010.1468   3698347.8511   1  14
2017/07/19 08:25:07.400  -3961734.0076   3349010.1805   3698347.8155   1  14
2017/07/19 08:25:07.600  -3961734.0261   3349010.2072   3698347.7750   1  14
2017/07/19 08:25:07.799  -3961734.0451   3349010.2320   3698347.7258   1  14
2017/07/19 08:25:08.000  -3961734.0635   3349010.2715   3698347.6619   1  14
2017/07/19 08:25:08.199  -3961734.0810   3349010.3068   3698347.5894   1  14
2017/07/19 08:25:08.400  -3961734.1124   3349010.3726   3698347.5137   1  14
2017/07/19 08:25:08.599  -3961734.1319   3349010.4285   3698347.4219   1  14
2017/07/19 08:25:08.800  -3961734.1586   3349010.5140   3698347.3287   1  14
2017/07/19 08:25:09.000  -3961734.1785   3349010.5905   3698347.2170   1  13
2017/07/19 08:25:09.200  -3961734.1976   3349010.6674   3698347.0991   1  12
2017/07/19 08:25:09.400  -3961734.2221   3349010.8092   3698346.9862   1  13
2017/07/19 08:25:09.599  -3961734.2424   3349010.9276   3698346.8549   1  13
2017/07/19 08:25:09.800  -3961734.2508   3349011.0519   3698346.7050   1  13
2017/07/19 08:25:10.000  -3961734.2446   3349011.2365   3698346.5322   1  13
2017/07/19 08:25:10.200  -3961734.2254   3349011.4721   3698346.3572   1  12
2017/07/19 08:25:10.400  -3961734.1853   3349011.7201   3698346.1745   1  12
2017/07/19 08:25:10.599  -3961734.1145   3349012.0104   3698345.9983   1  12
2017/07/19 08:25:10.800  -3961734.0164   3349012.3386   3698345.8281   1  12
2017/07/19 08:25:11.000  -3961733.8707   3349012.6828   3698345.6648   1  13
2017/07/19 08:25:11.200  -3961733.6817   3349013.0603   3698345.5410   1  13
2017/07/19 08:25:11.400  -3961733.4455   3349013.4549   3698345.4553   1  13
2017/07/19 08:25:11.599  -3961733.1520   3349013.8356   3698345.4001   1  13
2017/07/19 08:25:11.800  -3961732.8201   3349014.2269   3698345.4068   1  13
2017/07/19 08:25:12.000  -3961732.4507   3349014.5945   3698345.4722   1  14
2017/07/19 08:25:12.200  -3961732.0664   3349014.9229   3698345.5977   1  15
2017/07/19 08:25:12.400  -3961730.2638   3349013.3464   3698346.3103   1  15
2017/07/19 08:25:12.599  -3961730.4987   3349015.1616   3698346.0156   2  15
2017/07/19 08:25:12.800  -3961730.9251   3349015.5089   3698346.5326   2  15
2017/07/19 08:25:13.000  -3961729.3176   3349014.3864   3698346.0867   2  15
2017/07/19 08:25:13.200  -3961728.8152   3349014.9630   3698346.8556   2  15
2017/07/19 08:25:13.400  -3961728.5918   3349014.3393   3698347.0461   2  15
2017/07/19 08:25:13.599  -3961728.6910   3349014.7069   3698347.7805   2  15
2017/07/19 08:25:13.800  -3961727.4867   3349014.2074   3698348.0985   2  15
2017/07/19 08:25:14.000  -3961727.5135   3349013.9942   3698348.5730   2  15
2017/07/19 08:25:14.200  -3961727.8103   3349014.2155   3698349.1503   2  15
2017/07/19 08:25:14.400  -3961728.1629   3349014.9135   3698349.7743   1  14
2017/07/19 08:25:14.599  -3961727.8867   3349014.7273   3698350.2424   1  14
2017/07/19 08:25:14.800  -3961727.5928   3349014.5895   3698350.6936   1  14
2017/07/19 08:25:15.000  -3961727.3118   3349014.4732   3698351.1158   1  14
2017/07/19 08:25:15.200  -3961726.9968   3349014.4094   3698351.5040   1  14
2017/07/19 08:25:15.400  -3961726.6562   3349014.4111   3698351.8552   1  14
2017/07/19 08:25:15.599  -3961726.3227   3349014.4476   3698352.1769   1  14
2017/07/19 08:25:15.800  -3961725.9932   3349014.5472   3698352.4719   1  14
2017/07/19 08:25:16.000  -3961725.6215   3349014.6810   3698352.7091   1  14
2017/07/19 08:25:16.199  -3961725.2770   3349014.8670   3698352.9248   1  14
2017/07/19 08:25:16.399  -3961724.9155   3349015.0917   3698353.0977   1  14
2017/07/19 08:25:16.600  -3961724.5687   3349015.3531   3698353.2296   1  14
2017/07/19 08:25:16.800  -3961724.2342   3349015.6338   3698353.3285   1  14
2017/07/19 08:25:17.000  -3961723.9300   3349015.9597   3698353.3707   1  14
2017/07/19 08:25:17.199  -3961723.6537   3349016.2740   3698353.3692   1  14
2017/07/19 08:25:17.400  -3961723.4011   3349016.6075   3698353.3486   1  14
2017/07/19 08:25:17.600  -3961723.1947   3349016.9375   3698353.2638   1  14
2017/07/19 08:25:17.800  -3961722.9902   3349017.2581   3698353.1564   1  14
2017/07/19 08:25:18.000  -3961722.8567   3349017.5977   3698353.0263   1  14
2017/07/19 08:25:18.199  -3961722.7483   3349017.9130   3698352.8688   1  14
2017/07/19 08:25:18.400  -3961722.6630   3349018.2184   3698352.6929   1  14
2017/07/19 08:25:18.600  -3961722.6153   3349018.5058   3698352.4932   1  14
2017/07/19 08:25:18.800  -3961722.5870   3349018.7735   3698352.2793   1  14
2017/07/19 08:25:19.000  -3961722.5871   3349019.0352   3698352.0624   1  14
2017/07/19 08:25:19.199  -3961722.5904   3349019.2719   3698351.8373   1  14
2017/07/19 08:25:19.400  -3961722.6221   3349019.4864   3698351.6023   1  14
2017/07/19 08:25:19.600  -3961722.6781   3349019.6916   3698351.3653   1  14
2017/07/19 08:25:19.800  -3961722.7248   3349019.8571   3698351.1085   1  14
2017/07/19 08:25:20.000  -3961722.8298   3349020.0275   3698350.8700   1  14
2017/07/19 08:25:20.199  -3961722.9481   3349020.1662   3698350.6228   1  14
2017/07/19 08:25:20.400  -3961723.0683   3349020.2931   3698350.3713   1  14
2017/07/19 08:25:20.600  -3961723.1904   3349020.3974   3698350.1223   1  14
2017/07/19 08:25:20.800  -3961723.3520   3349020.4851   3698349.8704   1  14
2017/07/19 08:25:21.000  -3961723.5194   3349020.5575   3698349.6046   1  14
2017/07/19 08:25:21.199  -3961723.7209   3349020.6027   3698349.3378   1  14
2017/07/19 08:25:21.400  -3961723.9470   3349020.6315   3698349.0400   1  14
2017/07/19 08:25:21.600  -3961724.2053   3349020.6375   3698348.7407   1  14
2017/07/19 08:25:21.800  -3961724.5014   3349020.6461   3698348.4306   1  14
2017/07/19 08:25:22.000  -3961724.8057   3349020.6389   3698348.0867   1  14
2017/07/19 08:25:22.199  -3961725.1567   3349020.6107   3698347.7388   1  14
2017/07/19 08:25:22.400  -3961725.5346   3349020.5832   3698347.3571   1  14
2017/07/19 08:25:22.600  -3961725.9395   3349020.5344   3698346.9466   1  14
2017/07/19 08:25:22.800  -3961726.3875   3349020.4995   3698346.5214   1  14
2017/07/19 08:25:23.000  -3961726.8471   3349020.4499   3698346.0668   1  14
2017/07/19 08:25:23.199  -3961727.3390   3349020.4099   3698345.5881   1  14
2017/07/19 08:25:23.400  -3961727.8404   3349020.3606   3698345.1168   1  14
2017/07/19 08:25:23.600  -3961728.3444   3349020.2809   3698344.6657   1  14
2017/07/19 08:25:23.800  -3961728.8587   3349020.1599   3698344.2454   1  14
2017/07/19 08:25:24.000  -3961729.3691   3349020.0095   3698343.8486   1  14
2017/07/19 08:25:24.199  -3961729.8899   3349019.8042   3698343.4880   1  15
2017/07/19 08:25:24.400  -3961730.4246   3349019.5582   3698343.1655   1  15
2017/07/19 08:25:24.600  -3961730.9530   3349019.2818   3698342.8597   1  15
2017/07/19 08:25:24.800  -3961731.4785   3349018.9527   3698342.6079   1  15
2017/07/19 08:25:25.000  -3961731.9910   3349018.5918   3698342.3871   1  15
2017/07/19 08:25:25.199  -3961732.5042   3349018.1787   3698342.2105   1  15
2017/07/19 08:25:25.400  -3961733.0052   3349017.7303   3698342.0891   1  15
2017/07/19 08:25:25.600  -3961733.4895   3349017.2375   3698342.0264   1  15
2017/07/19 08:25:25.800  -3961733.9560   3349016.7197   3698341.9972   1  15
2017/07/19 08:25:26.000  -3961734.3743   3349016.1652   3698342.0458   1  15
2017/07/19 08:25:26.199  -3961734.7688   3349015.5895   3698342.1596   1  15
2017/07/19 08:25:26.400  -3961735.0984   3349014.9741   3698342.3146   1  14
2017/07/19 08:25:26.600  -3961735.3924   3349014.3909   3698342.5675   1  15
2017/07/19 08:25:26.800  -3961735.5881   3349013.7556   3698342.8669   1  13
2017/07/19 08:25:27.000  -3961735.7307   3349013.1668   3698343.2246   1  12
2017/07/19 08:25:27.199  -3961735.8196   3349012.5881   3698343.6460   1  12
2017/07/19 08:25:27.400  -3961735.8310   3349012.0555   3698344.1196   1  11
2017/07/19 08:25:27.600  -3961735.7894   3349011.5325   3698344.6191   1  11
2017/07/19 08:25:27.800  -3961735.6994   3349011.0543   3698345.1500   1  12
2017/07/19 08:25:28.000  -3961735.5134   3349010.6473   3698345.7006   1  12
2017/07/19 08:25:28.199  -3961735.2699   3349010.3177   3698346.2675   1  12
2017/07/19 08:25:28.400  -3961738.7377   3349011.1244   3698350.5580   1  13
2017/07/19 08:25:28.600  -3961734.6049   3349009.9020   3698347.4057   1  13
2017/07/19 08:25:28.800  -3961734.1957   3349009.8342   3698347.9542   1  13
2017/07/19 08:25:29.000  -3961733.7458   3349009.8066   3698348.4620   1  13
2017/07/19 08:25:29.199  -3961733.2383   3349009.0112   3698348.4116   2  13
2017/07/19 08:25:29.400  -3961732.7484   3349010.0702   3698349.3330   1  13
2017/07/19 08:25:29.600  -3961732.2462   3349010.2723   3698349.6789   1  13
2017/07/19 08:25:29.800  -3961731.7275   3349010.5385   3698349.9507   1  13
2017/07/19 08:25:30.000  -3961731.2247   3349010.8770   3698350.1387   1  13
2017/07/19 08:25:30.199  -3961729.2533   3349009.5934   3698350.6730   1  13
2017/07/19 08:25:30.400  -3961728.8019   3349010.0537   3698350.7581   1  13
2017/07/19 08:25:30.600  -3961729.8758   3349012.2171   3698350.3656   1  13
2017/07/19 08:25:30.800  -3961729.4987   3349012.7407   3698350.2898   1  14
2017/07/19 08:25:31.000  -3961729.1670   3349013.2880   3698350.1568   1  14
2017/07/19 08:25:31.199  -3961728.8850   3349013.8524   3698349.9596   1  14
2017/07/19 08:25:31.400  -3961728.6520   3349014.4241   3698349.6992   1  14
2017/07/19 08:25:31.600  -3961728.4748   3349014.9870   3698349.3828   1  14
2017/07/19 08:25:31.800  -3961728.3635   3349015.5406   3698349.0072   1  14
2017/07/19 08:25:32.000  -3961726.8144   3349014.3744   3698348.9784   1  15
2017/07/19 08:25:32.200  -3961725.5352   3349013.3341   3698346.4054   2  15
2017/07/19 08:25:32.399  -3961725.2639   3349016.1638   3698346.2793   1  15
2017/07/19 08:25:32.600  -3961726.1223   3349015.5115   3698346.0091   2  15
2017/07/19 08:25:32.799  -3961725.6068   3349017.6167   3698346.7607   1  15
2017/07/19 08:25:33.000  -3961725.9255   3349017.8770   3698346.1928   1  15
2017/07/19 08:25:33.200  -3961728.1847   3349017.2923   3698344.8025   2  15
2017/07/19 08:25:33.399  -3961726.7639   3349018.1156   3698345.0931   1  15
2017/07/19 08:25:33.600  -3961728.9064   3349018.0125   3698343.8312   2  15
2017/07/19 08:25:33.799  -3961727.7515   3349018.0385   3698344.0997   1  15
2017/07/19 08:25:34.000  -3961730.0084   3349017.1035   3698342.7960   2  15
2017/07/19 08:25:34.200  -3961730.9750   3349016.7984   3698342.3403   2  15
2017/07/19 08:25:34.399  -3961732.0529   3349016.8728   3698342.1837   2  15
2017/07/19 08:25:34.600  -3961732.0784   3349015.9919   3698341.8376   2  15
2017/07/19 08:25:34.800  -3961732.6739   3349015.5369   3698341.6739   2  15
2017/07/19 08:25:35.000  -3961732.7195   3349014.3194   3698342.7715   1  15
2017/07/19 08:25:35.200  -3961733.6689   3349014.6490   3698341.7382   2  15
2017/07/19 08:25:35.399  -3961730.2802   3349013.9240   3698341.4243   1  15
2017/07/19 08:25:35.600  -3961735.3360   3349014.2766   3698342.6863   1  14
2017/07/19 08:25:35.800  -3961735.5671   3349013.6966   3698342.9571   1  14
2017/07/19 08:25:36.000  -3961735.7388   3349013.1184   3698343.2893   1  12
2017/07/19 08:25:36.200  -3961735.8260   3349012.4900   3698343.6571   1  13
2017/07/19 08:25:36.399  -3961735.8631   3349012.0218   3698344.1326   1  11
2017/07/19 08:25:36.600  -3961735.8048   3349011.4913   3698344.6000   1  12
2017/07/19 08:25:36.800  -3961735.6763   3349011.0180   3698345.1047   1  12
2017/07/19 08:25:37.000  -3961735.4817   3349010.7248   3698345.6709   1  12
2017/07/19 08:25:37.200  -3961735.2188   3349010.4332   3698346.2236   1  12
2017/07/19 08:25:37.399  -3961734.8931   3349010.2154   3698346.7699   1  12
2017/07/19 08:25:37.600  -3961734.5138   3349010.0855   3698347.3159   1  12
2017/07/19 08:25:37.800  -3961734.0981   3349010.0640   3698347.8428   1  12
2017/07/19 08:25:38.000  -3961733.6256   3349010.0915   3698348.3312   1  12
2017/07/19 08:25:38.200  -3961733.1159   3349010.1327   3698348.7405   1  12
2017/07/19 08:25:38.399  -3961732.6092   3349010.3134   3698349.1223   1  13
2017/07/19 08:25:38.600  -3961732.1018   3349010.5347   3698349.4665   1  13
2017/07/19 08:25:38.800  -3961731.5814   3349010.8358   3698349.7277   1  13
2017/07/19 08:25:39.000  -3961731.1021   3349011.2469   3698349.9324   1  13
2017/07/19 08:25:39.200  -3961730.6115   3349011.6532   3698350.0636   1  13
2017/07/19 08:25:39.399  -3961730.1579   3349012.1252   3698350.1368   1  13
2017/07/19 08:25:39.600  -3961729.7462   3349012.6303   3698350.1290   1  13
2017/07/19 08:25:39.800  -3961729.3769   3349013.1595   3698350.0411   1  13
2017/07/19 08:25:40.000  -3961729.0670   3349013.7148   3698349.8855   1  13
2017/07/19 08:25:40.200  -3961728.8218   3349014.2860   3698349.6635   1  14
2017/07/19 08:25:40.399  -3961728.6117   3349014.8386   3698349.3683   1  14
2017/07/19 08:25:40.600  -3961728.4820   3349015.3795   3698349.0186   1  14
2017/07/19 08:25:40.800  -3961728.4166   3349015.9000   3698348.6146   1  14
2017/07/19 08:25:41.000  -3961728.4326   3349016.3770   3698348.1674   1  14
2017/07/19 08:25:41.200  -3961728.5051   3349016.8256   3698347.6688   1  15
2017/07/19 08:25:41.399  -3961725.3013   3349016.3803   3698345.6196   1  15
2017/07/19 08:25:41.600  -3961727.6616   3349015.8744   3698345.5139   2  15
2017/07/19 08:25:41.800  -3961728.1281   3349015.9888   3698345.0082   2  15
2017/07/19 08:25:42.000  -3961728.7100   3349017.2045   3698344.9763   2  15
2017/07/19 08:25:42.200  -3961728.4545   3349016.4472   3698345.3586   1  15
2017/07/19 08:25:42.399  -3961729.4204   3349016.2570   3698343.5013   2  15
2017/07/19 08:25:42.600  -3961727.5623   3349017.2594   3698342.4412   1  15
2017/07/19 08:25:42.800  -3961730.9152   3349016.1499   3698341.2896   1  15
2017/07/19 08:25:43.000  -3961732.4805   3349018.1144   3698343.3636   2  15
2017/07/19 08:25:43.200  -3961731.9554   3349016.5294   3698342.4849   2  15
2017/07/19 08:25:43.399  -3961730.3217   3349013.4668   3698341.6598   1  15
2017/07/19 08:25:43.600  -3961732.1702   3349015.2259   3698341.7575   2  15
2017/07/19 08:25:43.800  -3961732.6069   3349014.4234   3698342.7940   1  15
2017/07/19 08:25:44.000  -3961736.0883   3349011.6439   3698344.0414   1  15
2017/07/19 08:25:44.200  -3961729.9313   3349012.3758   3698341.1310   1  15
2017/07/19 08:25:44.399  -3961730.3027   3349011.8630   3698341.3380   1  14
2017/07/19 08:25:44.600  -3961740.8129   3349016.4910   3698346.2301   1  14
2017/07/19 08:25:44.800  -3961735.7408   3349013.1503   3698343.2385   1  12
2017/07/19 08:25:45.000  -3961735.8371   3349012.5818   3698343.6481   1  12
2017/07/19 08:25:45.200  -3961735.8545   3349012.0561   3698344.1081   1  11
2017/07/19 08:25:45.399  -3961735.7808   3349011.5771   3698344.6049   1  12
2017/07/19 08:25:45.600  -3961735.6355   3349011.1633   3698345.1265   1  12
2017/07/19 08:25:45.800  -3961735.4126   3349010.8361   3698345.6597   1  12
2017/07/19 08:25:46.000  -3961735.1390   3349010.5709   3698346.1900   1  12
2017/07/19 08:25:46.200  -3961734.8141   3349010.3911   3698346.7185   1  12
2017/07/19 08:25:46.399  -3961732.6986   3349006.9677   3698347.3541   1  13
2017/07/19 08:25:46.600  -3961732.6970   3349008.6042   3698348.1661   1  14
2017/07/19 08:25:46.800  -3961732.9851   3349008.8777   3698347.6243   2  14
2017/07/19 08:25:47.000  -3961732.5267   3349009.2164   3698348.1078   2  14
2017/07/19 08:25:47.200  -3961732.8588   3349010.2069   3698349.0619   1  14
2017/07/19 08:25:47.399  -3961732.4969   3349010.2248   3698349.4407   1  14
2017/07/19 08:25:47.600  -3961732.1439   3349010.2567   3698349.7741   1  14
2017/07/19 08:25:47.800  -3961731.8110   3349010.2833   3698350.0802   1  14
2017/07/19 08:25:48.000  -3961731.5005   3349010.2897   3698350.3551   1  14
2017/07/19 08:25:48.200  -3961731.2169   3349010.3314   3698350.6063   1  14
2017/07/19 08:25:48.399  -3961730.9656   3349010.3711   3698350.8326   1  14
2017/07/19 08:25:48.600  -3961730.7555   3349010.3984   3698351.0348   1  14
2017/07/19 08:25:48.800  -3961730.5805   3349010.4325   3698351.1868   1  14
2017/07/19 08:25:49.000  -3961730.4541   3349010.4603   3698351.3131   1  14
2017/07/19 08:25:49.200  -3961730.3685   3349010.4733   3698351.4023   1  14
2017/07/19 08:25:49.399  -3961730.3144   3349010.4810   3698351.4508   1  14
2017/07/19 08:25:49.600  -3961730.2998   3349010.4838   3698351.4620   1  14
2017/07/19 08:25:49.800  -3961730.3102   3349010.4821   3698351.4573   1  14
2017/07/19 08:25:50.000  -3961730.3022   3349010.4781   3698351.4558   1  14
2017/07/19 08:25:50.200  -3961730.3039   3349010.4799   3698351.4564   1  14
2017/07/19 08:25:50.399  -3961730.3024   3349010.4793   3698351.4553   1  14
2017/07/19 08:25:50.600  -3961730.3029   3349010.4798   3698351.4542   1  14
2017/07/19 08:25:50.800  -3961730.3034   3349010.4797   3698351.4561   1  14
2017/07/19 08:25:51.000  -3961730.3080   3349010.4810   3698351.4578   1  14
2017/07/19 08:25:51.200  -3961730.3031   3349010.4803   3698351.4543   1  14
2017/07/19 08:25:51.399  -3961730.3074   3349010.4822   3698351.4569   1  14
2017/07/19 08:25:51.600  -3961730.3045   3349010.4791   3698351.4559   1  14
2017/07/19 08:25:51.800  -3961730.3048   3349010.4793   3698351.4560   1  14
2017/07/19 08:25:52.000  -3961730.3060   3349010.4814   3698351.4564   1  14
2017/07/19 08:25:52.200  -3961730.3071   3349010.4812   3698351.4571   1  14
2017/07/19 08:25:52.399  -3961730.3059   3349010.4811   3698351.4556   1  14
2017/07/19 08:25:52.600  -3961730.3065   3349010.4815   3698351.4562   1  14
2017/07/19 08:25:52.800  -3961730.3040   3349010.4803   3698351.4569   1  14
2017/07/19 08:25:53.000  -3961730.3055   3349010.4817   3698351.4579   1  14
2017/07/19 08:25:53.200  -3961730.3026   3349010.4802   3698351.4559   1  14
2017/07/19 08:25:53.399  -3961730.3048   3349010.4788   3698351.4559   1  14
2017/07/19 08:25:53.600  -3961730.3040   3349010.4784   3698351.4554   1  14
2017/07/19 08:25:53.800  -3961730.3072   3349010.4787   3698351.4572   1  14
2017/07/19 08:25:54.000  -3961730.3041   3349010.4839   3698351.4577   1  14
2017/07/19 08:25:54.200  -3961730.3080   3349010.4844   3698351.4594   1  14
2017/07/19 08:25:54.399  -3961730.3087   3349010.4841   3698351.4592   1  14
2017/07/19 08:25:54.600  -3961730.3082   3349010.4833   3698351.4589   1  14
2017/07/19 08:25:54.800  -3961730.3059   3349010.4830   3698351.4575   1  14
2017/07/19 08:25:55.000  -3961730.3052   3349010.4837   3698351.4582   1  14
2017/07/19 08:25:55.200  -3961730.3054   3349010.4830   3698351.4573   1  14
2017/07/19 08:25:55.399  -3961730.3085   3349010.4829   3698351.4581   1  14
2017/07/19 08:25:55.600  -3961730.3047   3349010.4810   3698351.4561   1  14
2017/07/19 08:25:55.800  -3961730.3024   3349010.4798   3698351.4563   1  14
2017/07/19 08:25:56.000  -3961730.3050   3349010.4817   3698351.4563   1  14
2017/07/19 08:25:56.200  -3961730.3049   3349010.4810   3698351.4556   1  14
2017/07/19 08:25:56.399  -3961730.3024   3349010.4785   3698351.4536   1  14
2017/07/19 08:25:56.600  -3961730.3050   3349010.4797   3698351.4533   1  14
2017/07/19 08:25:56.800  -3961730.3071   3349010.4825   3698351.4554   1  14
2017/07/19 08:25:57.000  -3961730.3031   3349010.4817   3698351.4527   1  14
2017/07/19 08:25:57.200  -3961730.3031   3349010.4796   3698351.4543   1  14
2017/07/19 08:25:57.399  -3961730.3020   3349010.4799   3698351.4537   1  14
2017/07/19 08:25:57.600  -3961730.3037   3349010.4799   3698351.4539   1  14
2017/07/19 08:25:57.800  -3961730.3063   3349010.4816   3698351.4559   1  14
2017/07/19 08:25:58.000  -3961730.3007   3349010.4782   3698351.4549   1  14
2017/07/19 08:25:58.200  -3961730.3007   3349010.4776   3698351.4548   1  14
2017/07/19 08:25:58.399  -3961730.2978   3349010.4756   3698351.4524   1  14
2017/07/19 08:25:58.600  -3961730.2994   3349010.4759   3698351.4552   1  14
2017/07/19 08:25:58.800  -3961730.2993   3349010.4758   3698351.4557   1  14
2017/07/19 08:25:59.000  -3961730.3006   3349010.4759   3698351.4540   1  14
2017/07/19 08:25:59.200  -3961730.3006   3349010.4764   3698351.4545   1  14
2017/07/19 08:25:59.399  -3961730.2986   3349010.4762   3698351.4544   1  14
2017/07/19 08:25:59.600  -3961730.2994   3349010.4748   3698351.4525   1  14
2017/07/19 08:25:59.800  -3961730.2985   3349010.4745   3698351.4535   1  14
2017/07/19 08:26:00.000  -3961730.3054   3349010.4817   3698351.4574   1  14
2017/07/19 08:26:00.200  -3961730.3064   3349010.4827   3698351.4567   1  14
2017/07/19 08:26:00.400  -3961730.3058   3349010.4829   3698351.4560   1  14
2017/07/19 08:26:00.600  -3961730.3065   3349010.4811   3698351.4551   1  14
2017/07/19 08:26:00.800  -3961730.3035   3349010.4800   3698351.4539   1  14
2017/07/19 08:26:01.000  -3961730.3039   3349010.4757   3698351.4542   1  14
2017/07/19 08:26:01.199  -3961730.3053   3349010.4769   3698351.4568   1  14
2017/07/19 08:26:01.400  -3961730.3034   3349010.4755   3698351.4558   1  14
2017/07/19 08:26:01.600  -3961730.3058   3349010.4776   3698351.4556   1  14
2017/07/19 08:26:01.800  -3961730.3065   3349010.4762   3698351.4584   1  14
2017/07/19 08:26:02.000  -3961730.3058   3349010.4801   3698351.4571   1  14
2017/07/19 08:26:02.200  -3961730.3052   3349010.4778   3698351.4571   1  14
2017/07/19 08:26:02.399  -3961730.3055   3349010.4787   3698351.4560   1  14
2017/07/19 08:26:02.600  -3961730.3081   3349010.4785   3698351.4588   1  14
2017/07/19 08:26:02.800  -3961730.3093   3349010.4800   3698351.4588   1  14
2017/07/19 08:26:03.000  -3961730.3039   3349010.4794   3698351.4570   1  14
2017/07/19 08:26:03.200  -3961730.3029   3349010.4777   3698351.4566   1  14
2017/07/19 08:26:03.399  -3961730.3009   3349010.4790   3698351.4543   1  14
2017/07/19 08:26:03.600  -3961730.3012   3349010.4775   3698351.4545   1  14
2017/07/19 08:26:03.800  -3961730.3034   3349010.4787   3698351.4555   1  14
2017/07/19 08:26:04.000  -3961730.3040   3349010.4777   3698351.4561   1  14
2017/07/19 08:26:04.200  -3961730.3048   3349010.4779   3698351.4578   1  14
2017/07/19 08:26:04.400  -3961730.3020   3349010.4746   3698351.4534   1  14
2017/07/19 08:26:04.600  -3961730.3044   3349010.4766   3698351.4551   1  14
2017/07/19 08:26:04.799  -3961730.3060   3349010.4781   3698351.4560   1  14
2017/07/19 08:26:05.000  -3961730.3060   3349010.4814   3698351.4558   1  14
2017/07/19 08:26:05.200  -3961730.3058   3349010.4812   3698351.4546   1  14
2017/07/19 08:26:05.400  -3961730.3059   3349010.4797   3698351.4543   1  14
2017/07/19 08:26:05.600  -3961730.3048   3349010.4789   3698351.4544   1  14
2017/07/19 08:26:05.799  -3961730.3042   3349010.4798   3698351.4546   1  14
2017/07/19 08:26:06.000  -3961730.3056   3349010.4763   3698351.4596   1  14
2017/07/19 08:26:06.200  -3961730.3062   3349010.4779   3698351.4591   1  14
2017/07/19 08:26:06.400  -3961730.3060   3349010.4764   3698351.4579   1  14
2017/07/19 08:26:06.600  -3961730.3039   3349010.4762   3698351.4569   1  14
2017/07/19 08:26:06.799  -3961730.3061   3349010.4804   3698351.4585   1  14
2017/07/19 08:26:07.000  -3961730.3071   3349010.4769   3698351.4589   1  14
2017/07/19 08:26:07.200  -3961730.3055   3349010.4781   3698351.4570   1  14
2017/07/19 08:26:07.400  -3961730.3057   3349010.4784   3698351.4580   1  14
2017/07/19 08:26:07.600  -3961730.3072   3349010.4777   3698351.4588   1  14
2017/07/19 08:26:07.799  -3961730.3044   3349010.4766   3698351.4570   1  14
2017/07/19 08:26:08.000  -3961730.3070   3349010.4787   3698351.4578   1  14
2017/07/19 08:26:08.199  -3961730.3069   3349010.4805   3698351.4581   1  14
2017/07/19 08:26:08.400  -3961730.3079   3349010.4806   3698351.4586   1  14
2017/07/19 08:26:08.599  -3961730.3056   3349010.4786   3698351.4566   1  14
2017/07/19 08:26:08.800  -3961730.3071   3349010.4783   3698351.4585   1  14
2017/07/19 08:26:09.000  -3961730.3072   3349010.4804   3698351.4566   1  14
2017/07/19 08:26:09.200  -3961730.3048   3349010.4787   3698351.4555   1  14
2017/07/19 08:26:09.400  -3961730.3069   3349010.4783   3698351.4584   1  14
2017/07/19 08:26:09.599  -3961730.3080   3349010.4800   3698351.4586   1  14
2017/07/19 08:26:09.800  -3961730.3080   3349010.4796   3698351.4588   1  14
2017/07/19 08:26:10.000  -3961730.3002   3349010.4728   3698351.4535   1  14
2017/07/19 08:26:10.200  -3961730.2993   3349010.4721   3698351.4527   1  14
2017/07/19 08:26:10.400  -3961730.3015   3349010.4714   3698351.4535   1  14
2017/07/19 08:26:10.599  -3961730.3014   3349010.4710   3698351.4534   1  14
2017/07/19 08:26:10.800  -3961730.2995   3349010.4714   3698351.4529   1  14
2017/07/19 08:26:11.000  -3961730.3055   3349010.4776   3698351.4561   1  14
2017/07/19 08:26:11.200  -3961730.3081   3349010.4792   3698351.4571   1  14
2017/07/19 08:26:11.400  -3961730.3061   3349010.4755   3698351.4551   1  14
2017/07/19 08:26:11.599  -3961730.3060   3349010.4784   3698351.4563   1  14
2017/07/19 08:26:11.800  -3961730.3076   3349010.4776   3698351.4568   1  14
2017/07/19 08:26:12.000  -3961730.3088   3349010.4832   3698351.4593   1  14
2017/07/19 08:26:12.200  -3961730.3075   3349010.4803   3698351.4599   1  14
2017/07/19 08:26:12.400  -3961730.3058   3349010.4800   3698351.4585   1  14
2017/07/19 08:26:12.599  -3961730.3055   3349010.4797   3698351.4587   1  14
2017/07/19 08:26:12.800  -3961730.3054   3349010.4803   3698351.4592   1  14
2017/07/19 08:26:13.000  -3961730.2993   3349010.4749   3698351.4532   1  14
2017/07/19 08:26:13.200  -3961730.3018   3349010.4764   3698351.4555   1  14
2017/07/19 08:26:13.400  -3961730.3018   3349010.4758   3698351.4542   1  14
2017/07/19 08:26:13.599  -3961730.3024   3349010.4776   3698351.4529   1  14
2017/07/19 08:26:13.800  -3961730.3051   3349010.4766   3698351.4547   1  14
2017/07/19 08:26:14.000  -3961730.3049   3349010.4810   3698351.4539   1  14
2017/07/19 08:26:14.200  -3961730.3062   3349010.4813   3698351.4567   1  14
2017/07/19 08:26:14.400  -3961730.3048   3349010.4776   3698351.4555   1  14
2017/07/19 08:26:14.599  -3961730.3040   3349010.4774   3698351.4562   1  14
2017/07/19 08:26:14.800  -3961730.3019   3349010.4766   3698351.4549   1  14
2017/07/19 08:26:15.000  -3961730.3052   3349010.4761   3698351.4568   1  14
2017/07/19 08:26:15.200  -3961730.3076   3349010.4779   3698351.4574   1  14
2017/07/19 08:26:15.400  -3961730.3085   3349010.4782   3698351.4583   1  14
2017/07/19 08:26:15.599  -3961730.3057   3349010.4755   3698351.4572   1  14
2017/07/19 08:26:15.800  -3961730.3073   3349010.4767   3698351.4571   1  14
2017/07/19 08:26:16.000  -3961730.3025   3349010.4733   3698351.4534   1  14
2017/07/19 08:26:16.199  -3961730.3007   3349010.4726   3698351.4530   1  14
2017/07/19 08:26:16.399  -3961730.3027   3349010.4737   3698351.4533   1  14
2017/07/19 08:26:16.600  -3961730.3072   3349010.4788   3698351.4554   1  14
2017/07/19 08:26:16.800  -3961730.3050   3349010.4750   3698351.4551   1  14
2017/07/19 08:26:17.000  -3961730.3022   3349010.4759   3698351.4530   1  14
2017/07/19 08:26:17.199  -3961730.3002   3349010.4747   3698351.4517   1  14
2017/07/19 08:26:17.400  -3961730.3002   3349010.4741   3698351.4505   1  14
2017/07/19 08:26:17.600  -3961730.3026   3349010.4773   3698351.4529   1  14
2017/07/19 08:26:17.800  -3961730.2997   3349010.4739   3698351.4524   1  14
2017/07/19 08:26:18.000  -3961730.3051   3349010.4772   3698351.4541   1  14
2017/07/19 08:26:18.199  -3961730.3060   3349010.4777   3698351.4571   1  14
2017/07/19 08:26:18.400  -3961730.3040   3349010.4754   3698351.4541   1  14
2017/07/19 08:26:18.600  -3961730.3062   3349010.4774   3698351.4545   1  14
2017/07/19 08:26:18.800  -3961730.3084   3349010.4791   3698351.4557   1  14
2017/07/19 08:26:19.000  -3961730.3083   3349010.4807   3698351.4570   1  14
2017/07/19 08:26:19.199  -3961730.3077   3349010.4807   3698351.4553   1  14
2017/07/19 08:26:19.400  -3961730.3072   3349010.4792   3698351.4559   1  14
2017/07/19 08:26:19.600  -3961730.3063   3349010.4792   3698351.4552   1  14
2017/07/19 08:26:19.800  -3961730.3077   3349010.4803   3698351.4558   1  14
2017/07/19 08:26:20.000  -3961730.3049   3349010.4774   3698351.4541   1  14
2017/07/19 08:26:20.199  -3961730.3027   3349010.4747   3698351.4522   1  14
2017/07/19 08:26:20.400  -3961730.3057   3349010.4776   3698351.4525   1  14
2017/07/19 08:26:20.600  -3961730.3059   3349010.4766   3698351.4528   1  14
2017/07/19 08:26:20.800  -3961730.3073   3349010.4770   3698351.4541   1  14
2017/07/19 08:26:21.000  -3961730.3123   3349010.4827   3698351.4607   1  14
2017/07/19 08:26:21.199  -3961730.3081   3349010.4790   3698351.4567   1  14
2017/07/19 08:26:21.400  -3961730.3098   3349010.4810   3698351.4584   1  14
2017/07/19 08:26:21.600  -3961730.3093   3349010.4817   3698351.4593   1  14
2017/07/19 08:26:21.800  -3961730.3095   3349010.4807   3698351.4582   1  14
2017/07/19 08:26:22.000  -3961730.3049   3349010.4776   3698351.4559   1  14
2017/07/19 08:26:22.199  -3961730.3056   3349010.4776   3698351.4587   1  14
2017/07/19 08:26:22.400  -3961730.3041   3349010.4765   3698351.4571   1  14
2017/07/19 08:26:22.600  -3961730.3029   3349010.4751   3698351.4551   1  14
2017/07/19 08:26:22.800  -3961730.3053   3349010.4776   3698351.4571   1  14
2017/07/19 08:26:23.000  -3961730.3074   3349010.4783   3698351.4562   1  14
2017/07/19 08:26:23.199  -3961730.3049   3349010.4771   3698351.4537   1  14
2017/07/19 08:26:23.400  -3961730.3030   3349010.4765   3698351.4524   1  14
2017/07/19 08:26:23.600  -3961730.3038   3349010.4768   3698351.4540   1  14
2017/07/19 08:26:23.800  -3961730.3053   3349010.4759   3698351.4540   1  14
2017/07/19 08:26:24.000  -3961730.3038   3349010.4753   3698351.4515   1  14
2017/07/19 08:26:24.199  -3961730.3032   3349010.4743   3698351.4521   1  14
2017/07/19 08:26:24.400  -3961730.3028   3349010.4766   3698351.4529   1  14
2017/07/19 08:26:24.600  -3961730.3038   3349010.4755   3698351.4527   1  14
2017/07/19 08:26:24.800  -3961730.3032   3349010.4741   3698351.4517   1  14
2017/07/19 08:26:25.000  -3961730.3098   3349010.4807   3698351.4570   1  14
2017/07/19 08:26:25.199  -3961730.3092   3349010.4805   3698351.4556   1  14
2017/07/19 08:26:25.400  -3961730.3092   3349010.4800   3698351.4558   1  14
2017/07/19 08:26:25.600  -3961730.3089   3349010.4796   3698351.4561   1  14
2017/07/19 08:26:25.800  -3961730.3108   3349010.4798   3698351.4566   1  14
2017/07/19 08:26:26.000  -3961730.3081   3349010.4793   3698351.4557   1  14
2017/07/19 08:26:26.199  -3961730.3060   3349010.4783   3698351.4545   1  14
2017/07/19 08:26:26.400  -3961730.3099   3349010.4810   3698351.4571   1  14
2017/07/19 08:26:26.600  -3961730.3117   3349010.4821   3698351.4571   1  14
2017/07/19 08:26:26.800  -3961730.3122   3349010.4830   3698351.4581   1  14
2017/07/19 08:26:27.000  -3961730.3091   3349010.4788   3698351.4582   1  14
2017/07/19 08:26:27.199  -3961730.3059   3349010.4749   3698351.4562   1  14
2017/07/19 08:26:27.400  -3961730.3086   3349010.4783   3698351.4571   1  14
2017/07/19 08:26:27.600  -3961730.3074   3349010.4777   3698351.4557   1  14
2017/07/19 08:26:27.800  -3961730.3063   3349010.4770   3698351.4565   1  14
2017/07/19 08:26:28.000  -3961730.3093   3349010.4770   3698351.4572   1  14
2017/07/19 08:26:28.199  -3961730.3094   3349010.4790   3698351.4585   1  14
2017/07/19 08:26:28.400  -3961730.3094   3349010.4779   3698351.4583   1  14
2017/07/19 08:26:28.600  -3961730.3096   3349010.4784   3698351.4580   1  14
2017/07/19 08:26:28.800  -3961730.3091   3349010.4777   3698351.4570   1  14
2017/07/19 08:26:29.000  -3961730.3081   3349010.4771   3698351.4573   1  14
2017/07/19 08:26:29.199  -3961730.3075   3349010.4764   3698351.4587   1  14
2017/07/19 08:26:29.400  -3961730.3091   3349010.4773   3698351.4590   1  14
2017/07/19 08:26:29.600  -3961730.3071   3349010.4762   3698351.4572   1  14
2017/07/19 08:26:29.800  -3961730.3042   3349010.4754   3698351.4560   1  14
2017/07/19 08:26:30.000  -3961730.3111   3349010.4820   3698351.4592   1  14
2017/07/19 08:26:30.199  -3961730.3095   3349010.4808   3698351.4578   1  14
2017/07/19 08:26:30.400  -3961730.3102   3349010.4807   3698351.4593   1  14
2017/07/19 08:26:30.600  -3961730.3119   3349010.4813   3698351.4594   1  14
2017/07/19 08:26:30.800  -3961730.3091   3349010.4807   3698351.4591   1  14
2017/07/19 08:26:31.000  -3961730.3079   3349010.4779   3698351.4570   1  14
2017/07/19 08:26:31.199  -3961730.3061   3349010.4784   3698351.4564   1  14
2017/07/19 08:26:31.400  -3961730.3056   3349010.4770   3698351.4569   1  14
2017/07/19 08:26:31.600  -3961730.3054   3349010.4773   3698351.4563   1  14
2017/07/19 08:26:31.800  -3961730.3062   3349010.4771   3698351.4569   1  14
2017/07/19 08:26:32.000  -3961730.3095   3349010.4778   3698351.4571   1  14
2017/07/19 08:26:32.200  -3961730.3073   3349010.4777   3698351.4572   1  14
2017/07/19 08:26:32.399  -3961730.3048   3349010.4765   3698351.4557   1  14
2017/07/19 08:26:32.600  -3961730.3073   3349010.4781   3698351.4585   1  14
2017/07/19 08:26:32.799  -3961730.3064   3349010.4771   3698351.4580   1  14
2017/07/19 08:26:33.000  -3961730.3038   3349010.4793   3698351.4545   1  14
2017/07/19 08:26:33.200  -3961730.3064   3349010.4809   3698351.4571   1  14
2017/07/19 08:26:33.399  -3961730.3063   3349010.4789   3698351.4580   1  14
2017/07/19 08:26:33.600  -3961730.3095   3349010.4818   3698351.4590   1  14
2017/07/19 08:26:33.799  -3961730.3057   3349010.4777   3698351.4570   1  14
2017/07/19 08:26:34.000  -3961730.3062   3349010.4786   3698351.4557   1  14
2017/07/19 08:26:34.200  -3961730.3064   3349010.4773   3698351.4563   1  14
2017/07/19 08:26:34.399  -3961730.3077   3349010.4801   3698351.4558   1  14
2017/07/19 08:26:34.600  -3961730.3089   3349010.4802   3698351.4586   1  14
2017/07/19 08:26:34.800  -3961730.3087   3349010.4801   3698351.4566   1  14
2017/07/19 08:26:35.000  -3961730.3046   3349010.4798   3698351.4550   1  14
2017/07/19 08:26:35.200  -3961730.3076   3349010.4815   3698351.4563   1  14
2017/07/19 08:26:35.399  -3961730.3072   3349010.4803   3698351.4568   1  14
2017/07/19 08:26:35.600  -3961730.3059   3349010.4782   3698351.4547   1  14
2017/07/19 08:26:35.800  -3961730.3047   3349010.4792   3698351.4549   1  14
2017/07/19 08:26:36.000  -3961730.3099   3349010.4791   3698351.4614   1  14
2017/07/19 08:26:36.200  -3961730.3116   3349010.4821   3698351.4605   1  14
2017/07/19 08:26:36.399  -3961730.3123   3349010.4812   3698351.4637   1  14
2017/07/19 08:26:36.600  -3961730.3118   3349010.4811   3698351.4615   1  14
2017/07/19 08:26:36.800  -3961730.3142   3349010.4835   3698351.4633   1  14
2017/07/19 08:26:37.000  -3961730.3104   3349010.4827   3698351.4594   1  14
2017/07/19 08:26:37.200  -3961730.3128   3349010.4838   3698351.4601   1  14
2017/07/19 08:26:37.399  -3961730.3118   3349010.4845   3698351.4613   1  14
2017/07/19 08:26:37.600  -3961730.3113   3349010.4842   3698351.4608   1  14
2017/07/19 08:26:37.800  -3961730.3114   3349010.4840   3698351.4610   1  14
2017/07/19 08:26:38.000  -3961730.3019   3349010.4767   3698351.4556   1  14
2017/07/19 08:26:38.200  -3961730.3059   3349010.4785   3698351.4565   1  14
2017/07/19 08:26:38.399  -3961730.3031   3349010.4783   3698351.4549   1  14
2017/07/19 08:26:38.600  -3961730.3044   3349010.4788   3698351.4565   1  14
2017/07/19 08:26:38.800  -3961730.3018   3349010.4770   3698351.4559   1  14
2017/07/19 08:26:39.000  -3961730.3042   3349010.4758   3698351.4539   1  14
2017/07/19 08:26:39.200  -3961730.3024   3349010.4760   3698351.4548   1  14
2017/07/19 08:26:39.399  -3961730.3020   3349010.4756   3698351.4546   1  14
2017/07/19 08:26:39.600  -3961730.3042   3349010.4754   3698351.4558   1  14
2017/07/19 08:26:39.800  -3961730.3021   3349010.4745   3698351.4553   1  14
2017/07/19 08:26:40.000  -3961730.3045   3349010.4782   3698351.4551   1  14
2017/07/19 08:26:40.200  -3961730.3047   3349010.4773   3698351.4556   1  14
2017/07/19 08:26:40.399  -3961730.3029   3349010.4795   3698351.4562   1  14
2017/07/19 08:26:40.600  -3961730.2984   3349010.4741   3698351.4532   1  14
2017/07/19 08:26:40.800  -3961730.3004   3349010.4767   3698351.4553   1  14
2017/07/19 08:26:41.000  -3961730.3018   3349010.4776   3698351.4546   1  14
2017/07/19 08:26:41.200  -3961730.3026   3349010.4776   3698351.4550   1  14
2017/07/19 08:26:41.399  -3961730.3030   3349010.4779   3698351.4558   1  14
2017/07/19 08:26:41.600  -3961730.3081   3349010.4816   3698351.4584   1  14
2017/07/19 08:26:41.800  -3961730.3061   3349010.4810   3698351.4588   1  14
2017/07/19 08:26:42.000  -3961730.3023   3349010.4789   3698351.4558   1  14
2017/07/19 08:26:42.200  -3961730.3044   3349010.4788   3698351.4571   1  14
2017/07/19 08:26:42.399  -3961730.3042   3349010.4801   3698351.4560   1  14
2017/07/19 08:26:42.600  -3961730.3037   3349010.4764   3698351.4574   1  14
2017/07/19 08:26:42.800  -3961730.3015   3349010.4770   3698351.4559   1  14
2017/07/19 08:26:43.000  -3961730.3010   3349010.4768   3698351.4545   1  14
2017/07/19 08:26:43.200  -3961730.3018   3349010.4765   3698351.4551   1  14
2017/07/19 08:26:43.399  -3961730.3030   3349010.4786   3698351.4553   1  14
2017/07/19 08:26:43.600  -3961730.3046   3349010.4792   3698351.4556   1  14
2017/07/19 08:26:43.800  -3961730.3073   3349010.4821   3698351.4566   1  14
2017/07/19 08:26:44.000  -3961730.3031   3349010.4771   3698351.4553   1  14
2017/07/19 08:26:44.200  -3961730.3019   3349010.4757   3698351.4542   1  14
2017/07/19 08:26:44.399  -3961730.2990   3349010.4751   3698351.4520   1  14
2017/07/19 08:26:44.600  -3961730.3002   3349010.4749   3698351.4533   1  14
2017/07/19 08:26:44.800  -3961730.3032   3349010.4778   3698351.4553   1  14
2017/07/19 08:26:45.000  -3961730.3009   3349010.4764   3698351.4545   1  14
2017/07/19 08:26:45.200  -3961730.3025   3349010.4775   3698351.4559   1  14
2017/07/19 08:26:45.399  -3961730.3007   3349010.4786   3698351.4561   1  14
2017/07/19 08:26:45.600  -3961730.2990   3349010.4781   3698351.4551   1  14
2017/07/19 08:26:45.800  -3961730.2969   3349010.4757   3698351.4533   1  14
2017/07/19 08:26:46.000  -3961730.2994   3349010.4758   3698351.4529   1  14
2017/07/19 08:26:46.200  -3961730.3017   3349010.4761   3698351.4559   1  14
2017/07/19 08:26:46.399  -3961730.2982   3349010.4766   3698351.4543   1  14
2017/07/19 08:26:46.600  -3961730.3000   3349010.4788   3698351.4552   1  14
2017/07/19 08:26:46.800  -3961730.2997   3349010.4778   3698351.4544   1  14
2017/07/19 08:26:47.000  -3961730.3027   3349010.4788   3698351.4546   1  14
2017/07/19 08:26:47.200  -3961730.3027   3349010.4777   3698351.4546   1  14
2017/07/19 08:26:47.399  -3961730.3011   3349010.4784   3698351.4531   1  14
2017/07/19 08:26:47.600  -3961730.3015   3349010.4777   3698351.4537   1  14
