% (lat/lon/height=WGS84/ellipsoidal,Q=1:fix,2:float,3:sbas,4:dgps,5:single,6:ppp,ns=# of satellites)
%  GPST          latitude(deg) longitude(deg)  height(m)   Q  ns   sdn(m)   sde(m)   sdu(m)  sdne(m)  sdeu(m)  sdun(m) age(s)  ratio
1958 289469.000   35.667619690  139.791018900    39.5180   1  10  0.0000  0.0000  0.0000  0.0000  0.0000  0.0000  0.0000   10.0
1958 289469.200   35.667624400  139.791012800    39.5210   1  10  0.0000  0.0000  0.0000  0.0000  0.0000  0.0000  0.0000   10.0
1958 289469.400   35.667629330  139.791006400    39.5230   1  10  0.0000  0.0000  0.0000  0.0000  0.0000  0.0000  0.0000   10.0
1958 289469.600   35.667634550  139.790999600    39.5230   1  10  0.0000  0.0000  0.0000  0.0000  0.0000  0.0000  0.0000   10.0
1958 289469.800   35.667640040  139.790992500    39.5200   1  10  0.0000  0.0000  0.0000  0.0000  0.0000  0.0000  0.0000   10.0
1958 289470.000   35.667645780  139.790985100    39.5190   1  10  0.0000  0.0000  0.0000  0.0000  0.0000  0.0000  0.0000   10.0
1958 289470.200   35.667652080  139.790977800    39.5190   1  10  0.0000  0.0000  0.0000  0.0000  0.0000  0.0000  0.0000   10.0
1958 289470.400   35.667658540  139.790970200    39.5210   1  10  0.0000  0.0000  0.0000  0.0000  0.0000  0.0000  0.0000   10.0
1958 289470.600   35.667665090  139.790962500    39.5210   1  10  0.0000  0.0000  0.0000  0.0000  0.0000  0.0000  0.0000   10.0
1958 289470.800   35.667671670  139.790954800    39.5220   1  10  0.0000  0.0000  0.0000  0.0000  0.0000  0.0000  0.0000   10.0
1958 289471.000   35.667678250  139.790947000    39.5180   1  10  0.0000  0.0000  0.0000  0.0000  0.0000  0.0000  0.0000   10.0
1958 289471.200   35.667684860  139.790939200    39.5150   1  10  0.0000  0.0000  0.0000  0.0000  0.0000  0.0000  0.0000   10.0
1958 289471.400   35.667691430  139.790931400    39.5140   1  10  0.0000  0.0000  0.0000  0.0000  0.0000  0.0000  0.0000   10.0
1958 289471.600   35.667697870  139.790923800    39.5090   1  10  0.0000  0.0000  0.0000  0.0000  0.0000  0.0000  0.0000   10.0
1958 289471.800   35.667704230  139.790916400    39.5060   1  10  0.0000  0.0000  0.0000  0.0000  0.0000  0.0000  0.0000   10.0
1958 289472.000   35.667710490  139.790909000    39.5000   1  10  0.0000  0.0000  0.0000  0.0000  0.0000  0.0000  0.0000   10.0
1958 289472.200   35.667716660  139.790901800    39.4990   1  10  0.0000  0.0000  0.0000  0.0000  0.0000  0.0000  0.0000   10.0
1958 289472.400   35.667722610  139.790894800    39.5020   1  10  0.0000  0.0000  0.0000  0.0000  0.0000  0.0000  0.0000   10.0
1958 289472.600   35.667728290  139.790888200    39.5070   1  10  0.0000  0.0000  0.0000  0.0000  0.0000  0.0000  0.0000   10.0
1958 289472.800   35.667733670  139.790881900    39.5080   1  10  0.0000  0.0000  0.0000  0.0000  0.0000  0.0000  0.0000   10.0
1958 289473.000   35.667738580  139.790876100    39.5140   1  10  0.0000  0.0000  0.0000  0.0000  0.0000  0.0000  0.0000   10.0
1958 289473.200   35.667743090  139.790870900    39.5230   1  10  0.0000  0.0000  0.0000  0.0000  0.0000  0.0000  0.0000   10.0
1958 289473.400   35.667747170  139.790866200    39.5210   1  10  0.0000  0.0000  0.0000  0.0000  0.0000  0.0000  0.0000   10.0
1958 289473.600   35.667750730  139.790861900    39.5220   1  10  0.0000  0.0000  0.0000  0.0000  0.0000  0.0000  0.0000   10.0
1958 289473.800   35.667753900  139.790858200    39.5300   1  10  0.0000  0.0000  0.0000  0.0000  0.0000  0.0000  0.0000   10.0
1958 289474.000   35.667756820  139.790854900    39.5330   1  10  0.0000  0.0000  0.0000  0.0000  0.0000  0.0000  0.0000   10.0
1958 289474.200   35.667759560  139.790851900    39.5330   1  10  0.0000  0.0000  0.0000  0.0000  0.0000  0.0000  0.0000   10.0
1958 289474.400   35.667762200  139.790848900    39.5320   1  10  0.0000  0.0000  0.0000  0.0000  0.0000  0.0000  0.0000   10.0
1958 289474.600   35.667764290  139.790846400    39.5570   1  10  0.0000  0.0000  0.0000  0.0000  0.0000  0.0000  0.0000   10.0
1958 289474.800   35.667766590  139.790843700    39.5620   1  10  0.0000  0.0000  0.0000  0.0000  0.0000  0.0000  0.0000   10.0
1958 289475.000   35.667769240  139.790840600    39.5310   1  10  0.0000  0.0000  0.0000  0.0000  0.0000  0.0000  0.0000   10.0
1958 289475.200   35.667771420  139.790838000    39.5450   1  10  0.0000  0.0000  0.0000  0.0000  0.0000  0.0000  0.0000   10.0
1958 289475.400   35.667773630  139.790835500    39.5580   1  10  0.0000  0.0000  0.0000  0.0000  0.0000  0.0000  0.0000   10.0
1958 289475.600   35.667776090  139.790832800    39.5510   1  10  0.0000  0.0000  0.0000  0.0000  0.0000  0.0000  0.0000   10.0
1958 289475.800   35.667778560  139.790830100    39.5530   1  10  0.0000  0.0000  0.0000  0.0000  0.0000  0.0000  0.0000   10.0
1958 289476.000   35.667781110  139.790827200    39.6190   1  10  0.0000  0.0000  0.0000  0.0000  0.0000  0.0000  0.0000   10.0
1958 289476.200   35.667783350  139.790824600    39.6080   1  10  0.0000  0.0000  0.0000  0.0000  0.0000  0.0000  0.0000   10.0
1958 289476.400   35.667785580  139.790822200    39.5410   1  10  0.0000  0.0000  0.0000  0.0000  0.0000  0.0000  0.0000   10.0
1958 289476.600   35.667788380  139.790819000    39.5820   1  10  0.0000  0.0000  0.0000  0.0000  0.0000  0.0000  0.0000   10.0
1958 289476.800   35.667791170  139.790815900    39.5930   1  10  0.0000  0.0000  0.0000  0.0000  0.0000  0.0000  0.0000   10.0
1958 289477.000   35.667794370  139.790812800    39.5880   1  10  0.0000  0.0000  0.0000  0.0000  0.0000  0.0000  0.0000   10.0
1958 289477.200   35.667798110  139.790809400    39.6030   1  10  0.0000  0.0000  0.0000  0.0000  0.0000  0.0000  0.0000   10.0
1958 289477.400   35.667802330  139.790805600    39.6150   1  10  0.0000  0.0000  0.0000  0.0000  0.0000  0.0000  0.0000   10.0
1958 289477.600   35.667807150  139.790801500    39.6310   1  10  0.0000  0.0000  0.0000  0.0000  0.0000  0.0000  0.0000   10.0
1958 289477.800   35.667812540  139.790797300    39.6520   1  10  0.0000  0.0000  0.0000  0.0000  0.0000  0.0000  0.0000   10.0
1958 289478.000   35.667818530  139.790793200    39.6700   1  10  0.0000  0.0000  0.0000  0.0000  0.0000  0.0000  0.0000   10.0
1958 289478.200   35.667825080  139.790788900    39.6880   1  10  0.0000  0.0000  0.0000  0.0000  0.0000  0.0000  0.0000   10.0
1958 289478.400   35.667832190  139.790784400    39.7120   1  10  0.0000  0.0000  0.0000  0.0000  0.0000  0.0000  0.0000   10.0
1958 289478.600   35.667839730  139.790780100    39.7400   1  10  0.0000  0.0000  0.0000  0.0000  0.0000  0.0000  0.0000   10.0
1958 289478.800   35.667847420  139.790775600    39.7630   1  10  0.0000  0.0000  0.0000  0.0000  0.0000  0.0000  0.0000   10.0
1958 289479.000   35.667855210  139.790771200    39.7830   1  10  0.0000  0.0000  0.0000  0.0000  0.0000  0.0000  0.0000   10.0
1958 289479.200   35.667863110  139.790766700    39.7940   1  10  0.0000  0.0000  0.0000  0.0000  0.0000  0.0000  0.0000   10.0
1958 289479.400   35.667871000  139.790762300    39.8040   1  10  0.0000  0.0000  0.0000  0.0000  0.0000  0.0000  0.0000   10.0
1958 289479.600   35.667878840  139.790757900    39.8050   1  10  0.0000  0.0000  0.0000  0.0000  0.0000  0.0000  0.0000   10.0
1958 289479.800   35.667886650  139.790753500    39.8040   1  10  0.0000  0.0000  0.0000  0.0000  0.0000  0.0000  0.0000   10.0
1958 289480.000   35.667894450  139.790749400    39.8030   1  10  0.0000  0.0000  0.0000  0.0000  0.0000  0.0000  0.0000   10.0
1958 289480.200   35.667902200  139.790745600    39.7970   1  10  0.0000  0.0000  0.0000  0.0000  0.0000  0.0000  0.0000   10.0
1958 289480.400   35.667909980  139.790742100    39.7840   1  10  0.0000  0.0000  0.0000  0.0000  0.0000  0.0000  0.0000   10.0
1958 289480.600   35.667917750  139.790739100    39.7770   1  10  0.0000  0.0000  0.0000  0.0000  0.0000  0.0000  0.0000   10.0
1958 289480.800   35.667925420  139.790736800    39.7710   1  10  0.0000  0.0000  0.0000  0.0000  0.0000  0.0000  0.0000   10.0
1958 289481.000   35.667933020  139.790735200    39.7590   1  10  0.0000  0.0000  0.0000  0.0000  0.0000  0.0000  0.0000   10.0
1958 289481.200   35.667940520  139.790734400    39.7570   1  10  0.0000  0.0000  0.0000  0.0000  0.0000  0.0000  0.0000   10.0
1958 289481.400   35.667947800  139.790734400    39.7620   1  10  0.0000  0.0000  0.0000  0.0000  0.0000  0.0000  0.0000   10.0
1958 289481.600   35.667954900  139.790735300    39.7670   1  10  0.0000  0.0000  0.0000  0.0000  0.0000  0.0000  0.0000   10.0
1958 289481.800   35.667961860  139.790737000    39.7790   1  10  0.0000  0.0000  0.0000  0.0000  0.0000  0.0000  0.0000   10.0
1958 289482.000   35.667968530  139.790739700    39.7870   1  10  0.0000  0.0000  0.0000  0.0000  0.0000  0.0000  0.0000   10.0
1958 289482.200   35.667974790  139.790743200    39.8010   1  10  0.0000  0.0000  0.0000  0.0000  0.0000  0.0000  0.0000   10.0
1958 289482.400   35.667980460  139.790747700    39.8100   1  10  0.0000  0.0000  0.0000  0.0000  0.0000  0.0000  0.0000   10.0
1958 289482.600   35.667985500  139.790753000    39.8100   1  10  0.0000  0.0000  0.0000  0.0000  0.0000  0.0000  0.0000   10.0
1958 289482.800   35.667989910  139.790759100    39.8130   1  10  0.0000  0.0000  0.0000  0.0000  0.0000  0.0000  0.0000   10.0
1958 289483.000   35.667993570  139.790765900    39.8180   1  10  0.0000  0.0000  0.0000  0.0000  0.0000  0.0000  0.0000   10.0
1958 289483.200   35.667996420  139.790773100    39.8180   1  10  0.0000  0.0000  0.0000  0.0000  0.0000  0.0000  0.0000   10.0
1958 289483.400   35.667998480  139.790780800    39.8160   1  10  0.0000  0.0000  0.0000  0.0000  0.0000  0.0000  0.0000   10.0
1958 289483.600   35.667999670  139.790788700    39.8130   1  10  0.0000  0.0000  0.0000  0.0000  0.0000  0.0000  0.0000   10.0
1958 289483.800   35.667999950  139.790796700    39.8080   1  10  0.0000  0.0000  0.0000  0.0000  0.0000  0.0000  0.0000   10.0
1958 289484.000   35.667999400  139.790804600    39.8020   1  10  0.0000  0.0000  0.0000  0.0000  0.0000  0.0000  0.0000   10.0
1958 289484.200   35.667997930  139.790812400    39.7940   1  10  0.0000  0.0000  0.0000  0.0000  0.0000  0.0000  0.0000   10.0
1958 289484.400   35.667995470  139.790819900    39.7840   1  10  0.0000  0.0000  0.0000  0.0000  0.0000  0.0000  0.0000   10.0
1958 289484.600   35.667992440  139.790826800    39.7850   1  10  0.0000  0.0000  0.0000  0.0000  0.0000  0.0000  0.0000   10.0
1958 289484.800   35.667988600  139.790833100    39.7860   1  10  0.0000  0.0000  0.0000  0.0000  0.0000  0.0000  0.0000   10.0
1958 289485.000   35.667984050  139.790838500    39.7710   1  10  0.0000  0.0000  0.0000  0.0000  0.0000  0.0000  0.0000   10.0
1958 289485.200   35.667978960  139.790843200    39.7700   1  10  0.0000  0.0000  0.0000  0.0000  0.0000  0.0000  0.0000   10.0
1958 289485.400   35.667973360  139.790847100    39.7800   1  10  0.0000  0.0000  0.0000  0.0000  0.0000  0.0000  0.0000   10.0
1958 289485.600   35.667967370  139.790849800    39.7730   1  10  0.0000  0.0000  0.0000  0.0000  0.0000  0.0000  0.0000   10.0
1958 289485.800   35.667961150  139.790851600    39.7660   1  10  0.0000  0.0000  0.0000  0.0000  0.0000  0.0000  0.0000   10.0
1958 289486.000   35.667954760  139.790852500    39.7680   1  10  0.0000  0.0000  0.0000  0.0000  0.0000  0.0000  0.0000   10.0
1958 289486.200   35.667948410  139.790852100    39.7670   1  10  0.0000  0.0000  0.0000  0.0000  0.0000  0.0000  0.0000   10.0
1958 289486.400   35.667942250  139.790850600    39.7640   1  10  0.0000  0.0000  0.0000  0.0000  0.0000  0.0000  0.0000   10.0
1958 289486.600   35.667936290  139.790848100    39.7620   1  10  0.0000  0.0000  0.0000  0.0000  0.0000  0.0000  0.0000   10.0
1958 289486.800   35.667930660  139.790844600    39.7650   1  10  0.0000  0.0000  0.0000  0.0000  0.0000  0.0000  0.0000   10.0
1958 289487.000   35.667925520  139.790840300    39.7720   1  10  0.0000  0.0000  0.0000  0.0000  0.0000  0.0000  0.0000   10.0
1958 289487.200   35.667920980  139.790835100    39.7810   1  10  0.0000  0.0000  0.0000  0.0000  0.0000  0.0000  0.0000   10.0
1958 289487.400   35.667917060  139.790829200    39.7890   1  10  0.0000  0.0000  0.0000  0.0000  0.0000  0.0000  0.0000   10.0
1958 289487.600   35.667913780  139.790822800    39.7960   1  10  0.0000  0.0000  0.0000  0.0000  0.0000  0.0000  0.0000   10.0
1958 289487.800   35.667911310  139.790815900    39.8060   1  10  0.0000  0.0000  0.0000  0.0000  0.0000  0.0000  0.0000   10.0
1958 289488.000   35.667909550  139.790808700    39.8090   1  10  0.0000  0.0000  0.0000  0.0000  0.0000  0.0000  0.0000   10.0
1958 289488.200   35.667908810  139.790801300    39.8110   1  10  0.0000  0.0000  0.0000  0.0000  0.0000  0.0000  0.0000   10.0
1958 289488.400   35.667908780  139.790793800    39.8140   1  10  0.0000  0.0000  0.0000  0.0000  0.0000  0.0000  0.0000   10.0
1958 289488.600   35.667909510  139.790786400    39.8090   1  10  0.0000  0.0000  0.0000  0.0000  0.0000  0.0000  0.0000   10.0
1958 289488.800   35.667911110  139.790779200    39.8020   1  10  0.0000  0.0000  0.0000  0.0000  0.0000  0.0000  0.0000   10.0
1958 289489.000   35.667913610  139.790772300    39.7990   1  10  0.0000  0.0000  0.0000  0.0000  0.0000  0.0000  0.0000   10.0
1958 289489.200   35.667916810  139.790765800    39.7900   1  10  0.0000  0.0000  0.0000  0.0000  0.0000  0.0000  0.0000   10.0
1958 289489.400   35.667920600  139.790759600    39.7800   1  10  0.0000  0.0000  0.0000  0.0000  0.0000  0.0000  0.0000   10.0
1958 289489.600   35.667925050  139.790754000    39.7790   1  10  0.0000  0.0000  0.0000  0.0000  0.0000  0.0000  0.0000   10.0
1958 289489.800   35.667930070  139.790749200    39.7760   1  10  0.0000  0.0000  0.0000  0.0000  0.0000  0.0000  0.0000   10.0
1958 289490.000   35.667935580  139.790745200    39.7660   1  10  0.0000  0.0000  0.0000  0.0000  0.0000  0.0000  0.0000   10.0
1958 289490.200   35.667941520  139.790742000    39.7620   1  10  0.0000  0.0000  0.0000  0.0000  0.0000  0.0000  0.0000   10.0
1958 289490.400   35.667947790  139.790739600    39.7640   1  10  0.0000  0.0000  0.0000  0.0000  0.0000  0.0000  0.0000   10.0
1958 289490.600   35.667954290  139.790738000    39.7700   1  10  0.0000  0.0000  0.0000  0.0000  0.0000  0.0000  0.0000   10.0
1958 289490.800   35.667960980  139.790737500    39.7710   1  10  0.0000  0.0000  0.0000  0.0000  0.0000  0.0000  0.0000   10.0
1958 289491.000   35.667967770  139.790737700    39.7770   1  10  0.0000  0.0000  0.0000  0.0000  0.0000  0.0000  0.0000   10.0
1958 289491.200   35.667974510  139.790738900    39.7900   1  10  0.0000  0.0000  0.0000  0.0000  0.0000  0.0000  0.0000   10.0
1958 289491.400   35.667981020  139.790741100    39.7990   1  10  0.0000  0.0000  0.0000  0.0000  0.0000  0.0000  0.0000   10.0
1958 289491.600   35.667987200  139.790744400    39.8020   1  10  0.0000  0.0000  0.0000  0.0000  0.0000  0.0000  0.0000   10.0
1958 289491.800   35.667993090  139.790748500    39.8060   1  10  0.0000  0.0000  0.0000  0.0000  0.0000  0.0000  0.0000   10.0
1958 289492.000   35.667998600  139.790753400    39.8140   1  10  0.0000  0.0000  0.0000  0.0000  0.0000  0.0000  0.0000   10.0
1958 289492.200   35.668003450  139.790759200    39.8190   1  10  0.0000  0.0000  0.0000  0.0000  0.0000  0.0000  0.0000   10.0
1958 289492.400   35.668007590  139.790765600    39.8200   1  10  0.0000  0.0000  0.0000  0.0000  0.0000  0.0000  0.0000   10.0
1958 289492.600   35.668011000  139.790772600    39.8170   1  10  0.0000  0.0000  0.0000  0.0000  0.0000  0.0000  0.0000   10.0
1958 289492.800   35.668013430  139.790780200    39.8140   1  10  0.0000  0.0000  0.0000  0.0000  0.0000  0.0000  0.0000   10.0
1958 289493.000   35.668015020  139.790788000    39.8110   1  10  0.0000  0.0000  0.0000  0.0000  0.0000  0.0000  0.0000   10.0
1958 289493.200   35.668015670  139.790796100    39.8080   1  10  0.0000  0.0000  0.0000  0.0000  0.0000  0.0000  0.0000   10.0
1958 289493.400   35.668015350  139.790804100    39.8050   1  10  0.0000  0.0000  0.0000  0.0000  0.0000  0.0000  0.0000   10.0
1958 289493.600   35.668014100  139.790812000    39.7980   1  10  0.0000  0.0000  0.0000  0.0000  0.0000  0.0000  0.0000   10.0
1958 289493.800   35.668011920  139.790819500    39.7930   1  10  0.0000  0.0000  0.0000  0.0000  0.0000  0.0000  0.0000   10.0
1958 289494.000   35.668008890  139.790826500    39.7890   1  10  0.0000  0.0000  0.0000  0.0000  0.0000  0.0000  0.0000   10.0
1958 289494.200   35.668005070  139.790832700    39.7850   1  10  0.0000  0.0000  0.0000  0.0000  0.0000  0.0000  0.0000   10.0
1958 289494.400   35.668000570  139.790838100    39.7800   1  10  0.0000  0.0000  0.0000  0.0000  0.0000  0.0000  0.0000   10.0
1958 289494.600   35.667995430  139.790842500    39.7800   1  10  0.0000  0.0000  0.0000  0.0000  0.0000  0.0000  0.0000   10.0
1958 289494.800   35.667989830  139.790845600    39.7740   1  10  0.0000  0.0000  0.0000  0.0000  0.0000  0.0000  0.0000   10.0
1958 289495.000   35.667983940  139.790847600    39.7700   1  10  0.0000  0.0000  0.0000  0.0000  0.0000  0.0000  0.0000   10.0
1958 289495.200   35.667977920  139.790848800    39.7750   1  10  0.0000  0.0000  0.0000  0.0000  0.0000  0.0000  0.0000   10.0
1958 289495.400   35.667971890  139.790848700    39.7760   1  10  0.0000  0.0000  0.0000  0.0000  0.0000  0.0000  0.0000   10.0
1958 289495.600   35.667966020  139.790847300    39.7720   1  10  0.0000  0.0000  0.0000  0.0000  0.0000  0.0000  0.0000   10.0
1958 289495.800   35.667960420  139.790845000    39.7670   1  10  0.0000  0.0000  0.0000  0.0000  0.0000  0.0000  0.0000   10.0
1958 289496.000   35.667955160  139.790841600    39.7660   1  10  0.0000  0.0000  0.0000  0.0000  0.0000  0.0000  0.0000   10.0
1958 289496.200   35.667950450  139.790837400    39.7710   1  10  0.0000  0.0000  0.0000  0.0000  0.0000  0.0000  0.0000   10.0
1958 289496.400   35.667946370  139.790832300    39.7720   1  10  0.0000  0.0000  0.0000  0.0000  0.0000  0.0000  0.0000   10.0
1958 289496.600   35.667943010  139.790826600    39.7770   1  10  0.0000  0.0000  0.0000  0.0000  0.0000  0.0000  0.0000   10.0
1958 289496.800   35.667940450  139.790820300    39.7840   1  10  0.0000  0.0000  0.0000  0.0000  0.0000  0.0000  0.0000   10.0
1958 289497.000   35.667938580  139.790813700    39.7890   1  10  0.0000  0.0000  0.0000  0.0000  0.0000  0.0000  0.0000   10.0
1958 289497.200   35.667937440  139.790806800    39.7920   1  10  0.0000  0.0000  0.0000  0.0000  0.0000  0.0000  0.0000   10.0
1958 289497.400   35.667937140  139.790799700    39.7960   1  10  0.0000  0.0000  0.0000  0.0000  0.0000  0.0000  0.0000   10.0
1958 289497.600   35.667937600  139.790792600    39.7990   1  10  0.0000  0.0000  0.0000  0.0000  0.0000  0.0000  0.0000   10.0
1958 289497.800   35.667938860  139.790785700    39.8010   1  10  0.0000  0.0000  0.0000  0.0000  0.0000  0.0000  0.0000   10.0
1958 289498.000   35.667940830  139.790779100    39.7970   1  10  0.0000  0.0000  0.0000  0.0000  0.0000  0.0000  0.0000   10.0
1958 289498.200   35.667943620  139.790772900    39.7950   1  10  0.0000  0.0000  0.0000  0.0000  0.0000  0.0000  0.0000   10.0
1958 289498.400   35.667947150  139.790767200    39.7960   1  10  0.0000  0.0000  0.0000  0.0000  0.0000  0.0000  0.0000   10.0
1958 289498.600   35.667951260  139.790762200    39.7920   1  10  0.0000  0.0000  0.0000  0.0000  0.0000  0.0000  0.0000   10.0
1958 289498.800   35.667955940  139.790757900    39.7930   1  10  0.0000  0.0000  0.0000  0.0000  0.0000  0.0000  0.0000   10.0
1958 289499.000   35.667961090  139.790754700    39.7950   1  10  0.0000  0.0000  0.0000  0.0000  0.0000  0.0000  0.0000   10.0
1958 289499.200   35.667966570  139.790752300    39.7930   1  10  0.0000  0.0000  0.0000  0.0000  0.0000  0.0000  0.0000   10.0
1958 289499.400   35.667972240  139.790750800    39.7960   1  10  0.0000  0.0000  0.0000  0.0000  0.0000  0.0000  0.0000   10.0
1958 289499.600   35.667978000  139.790750400    39.8020   1  10  0.0000  0.0000  0.0000  0.0000  0.0000  0.0000  0.0000   10.0
1958 289499.800   35.667983690  139.790751000    39.8030   1  10  0.0000  0.0000  0.0000  0.0000  0.0000  0.0000  0.0000   10.0
1958 289500.000   35.667989250  139.790752700    39.8050   1  10  0.0000  0.0000  0.0000  0.0000  0.0000  0.0000  0.0000   10.0
1958 289500.200   35.667994620  139.790755100    39.8100   1  10  0.0000  0.0000  0.0000  0.0000  0.0000  0.0000  0.0000   10.0
1958 289500.400   35.667999670  139.790758600    39.8140   1  10  0.0000  0.0000  0.0000  0.0000  0.0000  0.0000  0.0000   10.0
1958 289500.600   35.668004260  139.790762800    39.8170   1  10  0.0000  0.0000  0.0000  0.0000  0.0000  0.0000  0.0000   10.0
1958 289500.800   35.668008340  139.790767800    39.8160   1  10  0.0000  0.0000  0.0000  0.0000  0.0000  0.0000  0.0000   10.0
1958 289501.000   35.668011820  139.790773400    39.8130   1  10  0.0000  0.0000  0.0000  0.0000  0.0000  0.0000  0.0000   10.0
1958 289501.200   35.668014550  139.790779600    39.8100   1  10  0.0000  0.0000  0.0000  0.0000  0.0000  0.0000  0.0000   10.0
1958 289501.400   35.668016580  139.790786200    39.8070   1  10  0.0000  0.0000  0.0000  0.0000  0.0000  0.0000  0.0000   10.0
1958 289501.600   35.668017880  139.790793100    39.8040   1  10  0.0000  0.0000  0.0000  0.0000  0.0000  0.0000  0.0000   10.0
1958 289501.800   35.668018330  139.790800300    39.8010   1  10  0.0000  0.0000  0.0000  0.0000  0.0000  0.0000  0.0000   10.0
1958 289502.000   35.668018140  139.790807500    39.7960   1  10  0.0000  0.0000  0.0000  0.0000  0.0000  0.0000  0.0000   10.0
1958 289502.200   35.668017260  139.790814600    39.7920   1  10  0.0000  0.0000  0.0000  0.0000  0.0000  0.0000  0.0000   10.0
1958 289502.400   35.668015690  139.790821500    39.7870   1  10  0.0000  0.0000  0.0000  0.0000  0.0000  0.0000  0.0000   10.0
1958 289502.600   35.668013600  139.790827800    39.7850   1  10  0.0000  0.0000  0.0000  0.0000  0.0000  0.0000  0.0000   10.0
1958 289502.800   35.668011120  139.790833500    39.7810   1  10  0.0000  0.0000  0.0000  0.0000  0.0000  0.0000  0.0000   10.0
1958 289503.000   35.668008440  139.790838500    39.7740   1  10  0.0000  0.0000  0.0000  0.0000  0.0000  0.0000  0.0000   10.0
1958 289503.200   35.668005580  139.790842600    39.7720   1  10  0.0000  0.0000  0.0000  0.0000  0.0000  0.0000  0.0000   10.0
1958 289503.400   35.668002680  139.790846200    39.7720   1  10  0.0000  0.0000  0.0000  0.0000  0.0000  0.0000  0.0000   10.0
1958 289503.600   35.667999680  139.790849400    39.7720   1  10  0.0000  0.0000  0.0000  0.0000  0.0000  0.0000  0.0000   10.0
1958 289503.800   35.667996610  139.790852000    39.7710   1  10  0.0000  0.0000  0.0000  0.0000  0.0000  0.0000  0.0000   10.0
1958 289504.000   35.667993600  139.790854200    39.7720   1  10  0.0000  0.0000  0.0000  0.0000  0.0000  0.0000  0.0000   10.0
1958 289504.200   35.667990650  139.790855900    39.7710   1  10  0.0000  0.0000  0.0000  0.0000  0.0000  0.0000  0.0000   10.0
1958 289504.400   35.667987840  139.790857200    39.7730   1  10  0.0000  0.0000  0.0000  0.0000  0.0000  0.0000  0.0000   10.0
1958 289504.600   35.667985240  139.790858200    39.7730   1  10  0.0000  0.0000  0.0000  0.0000  0.0000  0.0000  0.0000   10.0
1958 289504.800   35.667982860  139.790858800    39.7730   1  10  0.0000  0.0000  0.0000  0.0000  0.0000  0.0000  0.0000   10.0
1958 289505.000   35.667980690  139.790859200    39.7730   1  10  0.0000  0.0000  0.0000  0.0000  0.0000  0.0000  0.0000   10.0
1958 289505.200   35.667978790  139.790859400    39.7730   1  10  0.0000  0.0000  0.0000  0.0000  0.0000  0.0000  0.0000   10.0
1958 289505.400   35.667977180  139.790859500    39.7730   1  10  0.0000  0.0000  0.0000  0.0000  0.0000  0.0000  0.0000   10.0
1958 289505.600   35.667975860  139.790859600    39.7720   1  10  0.0000  0.0000  0.0000  0.0000  0.0000  0.0000  0.0000   10.0
1958 289505.800   35.667974760  139.790859600    39.7720   1  10  0.0000  0.0000  0.0000  0.0000  0.0000  0.0000  0.0000   10.0
1958 289506.000   35.667973820  139.790859500    39.7720   1  10  0.0000  0.0000  0.0000  0.0000  0.0000  0.0000  0.0000   10.0
1958 289506.200   35.667973040  139.790859500    39.7710   1  10  0.0000  0.0000  0.0000  0.0000  0.0000  0.0000  0.0000   10.0
1958 289506.400   35.667972390  139.790859400    39.7700   1  10  0.0000  0.0000  0.0000  0.0000  0.0000  0.0000  0.0000   10.0
1958 289506.600   35.667971830  139.790859300    39.7700   1  10  0.0000  0.0000  0.0000  0.0000  0.0000  0.0000  0.0000   10.0
1958 289506.800   35.667971350  139.790859300    39.7700   1  10  0.0000  0.0000  0.0000  0.0000  0.0000  0.0000  0.0000   10.0
1958 289507.000   35.667970930  139.790859200    39.7690   1  10  0.0000  0.0000  0.0000  0.0000  0.0000  0.0000  0.0000   10.0
1958 289507.200   35.667970550  139.790859200    39.7680   1  10  0.0000  0.0000  0.0000  0.0000  0.0000  0.0000  0.0000   10.0
1958 289507.400   35.667970130  139.790859100    39.7680   1  10  0.0000  0.0000  0.0000  0.0000  0.0000  0.0000  0.0000   10.0
1958 289507.600   35.667969680  139.790859000    39.7680   1  10  0.0000  0.0000  0.0000  0.0000  0.0000  0.0000  0.0000   10.0
1958 289507.800   35.667969150  139.790858900    39.7670   1  10  0.0000  0.0000  0.0000  0.0000  0.0000  0.0000  0.0000   10.0
1958 289508.000   35.667968510  139.790858800    39.7660   1  10  0.0000  0.0000  0.0000  0.0000  0.0000  0.0000  0.0000   10.0
1958 289508.200   35.667967760  139.790858500    39.7660   1  10  0.0000  0.0000  0.0000  0.0000  0.0000  0.0000  0.0000   10.0
1958 289508.400   35.667966900  139.790858300    39.7650   1  10  0.0000  0.0000  0.0000  0.0000  0.0000  0.0000  0.0000   10.0
1958 289508.600   35.667965940  139.790857900    39.7630   1  10  0.0000  0.0000  0.0000  0.0000  0.0000  0.0000  0.0000   10.0
1958 289508.800   35.667964890  139.790857500    39.7620   1  10  0.0000  0.0000  0.0000  0.0000  0.0000  0.0000  0.0000   10.0
1958 289509.000   35.667963750  139.790856900    39.7600   1  10  0.0000  0.0000  0.0000  0.0000  0.0000  0.0000  0.0000   10.0
1958 289509.200   35.667962490  139.790856200    39.7570   1  10  0.0000  0.0000  0.0000  0.0000  0.0000  0.0000  0.0000   10.0
1958 289509.400   35.667961120  139.790855400    39.7570   1  10  0.0000  0.0000  0.0000  0.0000  0.0000  0.0000  0.0000   10.0
1958 289509.600   35.667959680  139.790854500    39.7580   1  10  0.0000  0.0000  0.0000  0.0000  0.0000  0.0000  0.0000   10.0
1958 289509.800   35.667958110  139.790853300    39.7550   1  10  0.0000  0.0000  0.0000  0.0000  0.0000  0.0000  0.0000   10.0
1958 289510.000   35.667956290  139.790851700    39.7520   1  10  0.0000  0.0000  0.0000  0.0000  0.0000  0.0000  0.0000   10.0
1958 289510.200   35.667954310  139.790849700    39.7530   1  10  0.0000  0.0000  0.0000  0.0000  0.0000  0.0000  0.0000   10.0
1958 289510.400   35.667952330  139.790847300    39.7530   1  10  0.0000  0.0000  0.0000  0.0000  0.0000  0.0000  0.0000   10.0
1958 289510.600   35.667950350  139.790844400    39.7530   1  10  0.0000  0.0000  0.0000  0.0000  0.0000  0.0000  0.0000   10.0
1958 289510.800   35.667948480  139.790841000    39.7550   1  10  0.0000  0.0000  0.0000  0.0000  0.0000  0.0000  0.0000   10.0
1958 289511.000   35.667946780  139.790837100    39.7560   1  10  0.0000  0.0000  0.0000  0.0000  0.0000  0.0000  0.0000   10.0
1958 289511.200   35.667945360  139.790832600    39.7560   1  10  0.0000  0.0000  0.0000  0.0000  0.0000  0.0000  0.0000   10.0
1958 289511.400   35.667944400  139.790827700    39.7630   1  10  0.0000  0.0000  0.0000  0.0000  0.0000  0.0000  0.0000   10.0
1958 289511.600   35.667943930  139.790822300    39.7660   1  10  0.0000  0.0000  0.0000  0.0000  0.0000  0.0000  0.0000   10.0
1958 289511.800   35.667944030  139.790816700    39.7690   1  10  0.0000  0.0000  0.0000  0.0000  0.0000  0.0000  0.0000   10.0
1958 289512.000   35.667944760  139.790811100    39.7740   1  10  0.0000  0.0000  0.0000  0.0000  0.0000  0.0000  0.0000   10.0
1958 289512.200   35.667946120  139.790805600    39.7780   1  10  0.0000  0.0000  0.0000  0.0000  0.0000  0.0000  0.0000   10.0
1958 289512.400   35.667948190  139.790800400    39.7780   1  10  0.0000  0.0000  0.0000  0.0000  0.0000  0.0000  0.0000   10.0
1958 289512.600   35.667950810  139.790795500    39.7780   1  10  0.0000  0.0000  0.0000  0.0000  0.0000  0.0000  0.0000   10.0
1958 289512.800   35.667954010  139.790791200    39.7780   1  10  0.0000  0.0000  0.0000  0.0000  0.0000  0.0000  0.0000   10.0
1958 289513.000   35.667957720  139.790787400    39.7800   1  10  0.0000  0.0000  0.0000  0.0000  0.0000  0.0000  0.0000   10.0
1958 289513.200   35.667961870  139.790784300    39.7850   1  10  0.0000  0.0000  0.0000  0.0000  0.0000  0.0000  0.0000   10.0
1958 289513.400   35.667966410  139.790781900    39.7850   1  10  0.0000  0.0000  0.0000  0.0000  0.0000  0.0000  0.0000   10.0
1958 289513.600   35.667971270  139.790780500    39.7860   1  10  0.0000  0.0000  0.0000  0.0000  0.0000  0.0000  0.0000   10.0
1958 289513.800   35.667976300  139.790779700    39.7840   1  10  0.0000  0.0000  0.0000  0.0000  0.0000  0.0000  0.0000   10.0
1958 289514.000   35.667981490  139.790779200    39.7850   1  10  0.0000  0.0000  0.0000  0.0000  0.0000  0.0000  0.0000   10.0
1958 289514.200   35.667986760  139.790778700    39.7890   1  10  0.0000  0.0000  0.0000  0.0000  0.0000  0.0000  0.0000   10.0
1958 289514.400   35.667992030  139.790778400    39.7940   1  10  0.0000  0.0000  0.0000  0.0000  0.0000  0.0000  0.0000   10.0
1958 289514.600   35.667997190  139.790778000    39.7980   1  10  0.0000  0.0000  0.0000  0.0000  0.0000  0.0000  0.0000   10.0
1958 289514.800   35.668002150  139.790777100    39.8010   1  10  0.0000  0.0000  0.0000  0.0000  0.0000  0.0000  0.0000   10.0
1958 289515.000   35.668006810  139.790776100    39.8040   1  10  0.0000  0.0000  0.0000  0.0000  0.0000  0.0000  0.0000   10.0
1958 289515.200   35.668011180  139.790774400    39.8050   1  10  0.0000  0.0000  0.0000  0.0000  0.0000  0.0000  0.0000   10.0
1958 289515.400   35.668015140  139.790771900    39.8080   1  10  0.0000  0.0000  0.0000  0.0000  0.0000  0.0000  0.0000   10.0
1958 289515.600   35.668018780  139.790769200    39.8100   1  10  0.0000  0.0000  0.0000  0.0000  0.0000  0.0000  0.0000   10.0
1958 289515.800   35.668021980  139.790765900    39.8100   1  10  0.0000  0.0000  0.0000  0.0000  0.0000  0.0000  0.0000   10.0
1958 289516.000   35.668024760  139.790762100    39.8080   1  10  0.0000  0.0000  0.0000  0.0000  0.0000  0.0000  0.0000   10.0
1958 289516.200   35.668027140  139.790758000    39.8090   1  10  0.0000  0.0000  0.0000  0.0000  0.0000  0.0000  0.0000   10.0
1958 289516.400   35.668029110  139.790753500    39.8090   1  10  0.0000  0.0000  0.0000  0.0000  0.0000  0.0000  0.0000   10.0
1958 289516.600   35.668030590  139.790748700    39.8060   1  10  0.0000  0.0000  0.0000  0.0000  0.0000  0.0000  0.0000   10.0
1958 289516.800   35.668031700  139.790743800    39.8040   1  10  0.0000  0.0000  0.0000  0.0000  0.0000  0.0000  0.0000   10.0
1958 289517.000   35.668032190  139.790738900    39.8060   1  10  0.0000  0.0000  0.0000  0.0000  0.0000  0.0000  0.0000   10.0
1958 289517.200   35.668032180  139.790734200    39.8070   1  10  0.0000  0.0000  0.0000  0.0000  0.0000  0.0000  0.0000   10.0
1958 289517.400   35.668031890  139.790729500    39.8020   1  10  0.0000  0.0000  0.0000  0.0000  0.0000  0.0000  0.0000   10.0
1958 289517.600   35.668031030  139.790725100    39.8010   1  10  0.0000  0.0000  0.0000  0.0000  0.0000  0.0000  0.0000   10.0
1958 289517.800   35.668029850  139.790721000    39.7950   1  10  0.0000  0.0000  0.0000  0.0000  0.0000  0.0000  0.0000   10.0
1958 289518.000   35.668028380  139.790717100    39.7920   1  10  0.0000  0.0000  0.0000  0.0000  0.0000  0.0000  0.0000   10.0
1958 289518.200   35.668026570  139.790713600    39.7920   1  10  0.0000  0.0000  0.0000  0.0000  0.0000  0.0000  0.0000   10.0
1958 289518.400   35.668024550  139.790710400    39.7920   1  10  0.0000  0.0000  0.0000  0.0000  0.0000  0.0000  0.0000   10.0
1958 289518.600   35.668022330  139.790707500    39.7930   1  10  0.0000  0.0000  0.0000  0.0000  0.0000  0.0000  0.0000   10.0
1958 289518.800   35.668019910  139.790704900    39.7980   1  10  0.0000  0.0000  0.0000  0.0000  0.0000  0.0000  0.0000   10.0
1958 289519.000   35.668017430  139.790702700    39.7990   1  10  0.0000  0.0000  0.0000  0.0000  0.0000  0.0000  0.0000   10.0
1958 289519.200   35.668014880  139.790700800    39.7960   1  10  0.0000  0.0000  0.0000  0.0000  0.0000  0.0000  0.0000   10.0
1958 289519.400   35.668012260  139.790699200    39.7950   1  10  0.0000  0.0000  0.0000  0.0000  0.0000  0.0000  0.0000   10.0
1958 289519.600   35.668009550  139.790697900    39.7940   1  10  0.0000  0.0000  0.0000  0.0000  0.0000  0.0000  0.0000   10.0
1958 289519.800   35.668006800  139.790696800    39.7900   1  10  0.0000  0.0000  0.0000  0.0000  0.0000  0.0000  0.0000   10.0
1958 289520.000   35.668004050  139.790696100    39.7880   1  10  0.0000  0.0000  0.0000  0.0000  0.0000  0.0000  0.0000   10.0
1958 289520.200   35.668001300  139.790695700    39.7840   1  10  0.0000  0.0000  0.0000  0.0000  0.0000  0.0000  0.0000   10.0
1958 289520.400   35.667998530  139.790695600    39.7790   1  10  0.0000  0.0000  0.0000  0.0000  0.0000  0.0000  0.0000   10.0
1958 289520.600   35.667995740  139.790695600    39.7730   1  10  0.0000  0.0000  0.0000  0.0000  0.0000  0.0000  0.0000   10.0
1958 289520.800   35.667992910  139.790696000    39.7690   1  10  0.0000  0.0000  0.0000  0.0000  0.0000  0.0000  0.0000   10.0
1958 289521.000   35.667989990  139.790696600    39.7620   1  10  0.0000  0.0000  0.0000  0.0000  0.0000  0.0000  0.0000   10.0
1958 289521.200   35.667986970  139.790697600    39.7550   1  10  0.0000  0.0000  0.0000  0.0000  0.0000  0.0000  0.0000   10.0
1958 289521.400   35.667983750  139.790699000    39.7460   1  10  0.0000  0.0000  0.0000  0.0000  0.0000  0.0000  0.0000   10.0
1958 289521.600   35.667980460  139.790700900    39.7400   1  10  0.0000  0.0000  0.0000  0.0000  0.0000  0.0000  0.0000   10.0
1958 289521.800   35.667976940  139.790702900    39.7340   1  10  0.0000  0.0000  0.0000  0.0000  0.0000  0.0000  0.0000   10.0
1958 289522.000   35.667973250  139.790705200    39.7260   1  10  0.0000  0.0000  0.0000  0.0000  0.0000  0.0000  0.0000   10.0
1958 289522.200   35.667969360  139.790708000    39.7200   1  10  0.0000  0.0000  0.0000  0.0000  0.0000  0.0000  0.0000   10.0
1958 289522.400   35.667965150  139.790710900    39.7170   1  10  0.0000  0.0000  0.0000  0.0000  0.0000  0.0000  0.0000   10.0
1958 289522.600   35.667960660  139.790714200    39.7140   1  10  0.0000  0.0000  0.0000  0.0000  0.0000  0.0000  0.0000   10.0
1958 289522.800   35.667955880  139.790717700    39.7150   1  10  0.0000  0.0000  0.0000  0.0000  0.0000  0.0000  0.0000   10.0
1958 289523.000   35.667950860  139.790721400    39.7170   1  10  0.0000  0.0000  0.0000  0.0000  0.0000  0.0000  0.0000   10.0
1958 289523.200   35.667945560  139.790725300    39.7210   1  10  0.0000  0.0000  0.0000  0.0000  0.0000  0.0000  0.0000   10.0
1958 289523.400   35.667940270  139.790729200    39.7250   1  10  0.0000  0.0000  0.0000  0.0000  0.0000  0.0000  0.0000   10.0
1958 289523.600   35.667935210  139.790733500    39.7330   1  10  0.0000  0.0000  0.0000  0.0000  0.0000  0.0000  0.0000   10.0
1958 289523.800   35.667930480  139.790738200    39.7450   1  10  0.0000  0.0000  0.0000  0.0000  0.0000  0.0000  0.0000   10.0
1958 289524.000   35.667926010  139.790743200    39.7510   1  10  0.0000  0.0000  0.0000  0.0000  0.0000  0.0000  0.0000   10.0
1958 289524.200   35.667921960  139.790748700    39.7550   1  10  0.0000  0.0000  0.0000  0.0000  0.0000  0.0000  0.0000   10.0
1958 289524.400   35.667918260  139.790754600    39.7630   1  10  0.0000  0.0000  0.0000  0.0000  0.0000  0.0000  0.0000   10.0
1958 289524.600   35.667914820  139.790760700    39.7750   1  10  0.0000  0.0000  0.0000  0.0000  0.0000  0.0000  0.0000   10.0
1958 289524.800   35.667911980  139.790767300    39.7790   1  10  0.0000  0.0000  0.0000  0.0000  0.0000  0.0000  0.0000   10.0
1958 289525.000   35.667909540  139.790774100    39.7800   1  10  0.0000  0.0000  0.0000  0.0000  0.0000  0.0000  0.0000   10.0
1958 289525.200   35.667907570  139.790781200    39.7840   1  10  0.0000  0.0000  0.0000  0.0000  0.0000  0.0000  0.0000   10.0
1958 289525.400   35.667906190  139.790788700    39.7870   1  10  0.0000  0.0000  0.0000  0.0000  0.0000  0.0000  0.0000   10.0
1958 289525.600   35.667905420  139.790796300    39.7910   1  10  0.0000  0.0000  0.0000  0.0000  0.0000  0.0000  0.0000   10.0
1958 289525.800   35.667905130  139.790804100    39.7870   1  10  0.0000  0.0000  0.0000  0.0000  0.0000  0.0000  0.0000   10.0
1958 289526.000   35.667905700  139.790811800    39.7870   1  10  0.0000  0.0000  0.0000  0.0000  0.0000  0.0000  0.0000   10.0
1958 289526.200   35.667906940  139.790819600    39.7830   1  10  0.0000  0.0000  0.0000  0.0000  0.0000  0.0000  0.0000   10.0
1958 289526.400   35.667908800  139.790827200    39.7700   1  10  0.0000  0.0000  0.0000  0.0000  0.0000  0.0000  0.0000   10.0
1958 289526.600   35.667911580  139.790834400    39.7630   1  10  0.0000  0.0000  0.0000  0.0000  0.0000  0.0000  0.0000   10.0
1958 289526.800   35.667915100  139.790841100    39.7550   1  10  0.0000  0.0000  0.0000  0.0000  0.0000  0.0000  0.0000   10.0
1958 289527.000   35.667919170  139.790847300    39.7420   1  10  0.0000  0.0000  0.0000  0.0000  0.0000  0.0000  0.0000   10.0
1958 289527.200   35.667923940  139.790852700    39.7390   1  10  0.0000  0.0000  0.0000  0.0000  0.0000  0.0000  0.0000   10.0
1958 289527.400   35.667929230  139.790857400    39.7370   1  10  0.0000  0.0000  0.0000  0.0000  0.0000  0.0000  0.0000   10.0
1958 289527.600   35.667934850  139.790861500    39.7330   1  10  0.0000  0.0000  0.0000  0.0000  0.0000  0.0000  0.0000   10.0
1958 289527.800   35.667940790  139.790864900    39.7330   1  10  0.0000  0.0000  0.0000  0.0000  0.0000  0.0000  0.0000   10.0
1958 289528.000   35.667947000  139.790867000    39.7360   1  10  0.0000  0.0000  0.0000  0.0000  0.0000  0.0000  0.0000   10.0
1958 289528.200   35.667953310  139.790868000    39.7390   1  10  0.0000  0.0000  0.0000  0.0000  0.0000  0.0000  0.0000   10.0
1958 289528.400   35.667959630  139.790868100    39.7460   1  10  0.0000  0.0000  0.0000  0.0000  0.0000  0.0000  0.0000   10.0
1958 289528.600   35.667965880  139.790866900    39.7530   1  10  0.0000  0.0000  0.0000  0.0000  0.0000  0.0000  0.0000   10.0
1958 289528.800   35.667971880  139.790864800    39.7570   1  10  0.0000  0.0000  0.0000  0.0000  0.0000  0.0000  0.0000   10.0
1958 289529.000   35.667977550  139.790861700    39.7610   1  10  0.0000  0.0000  0.0000  0.0000  0.0000  0.0000  0.0000   10.0
1958 289529.200   35.667982680  139.790857500    39.7640   1  10  0.0000  0.0000  0.0000  0.0000  0.0000  0.0000  0.0000   10.0
1958 289529.400   35.667987180  139.790852500    39.7640   1  10  0.0000  0.0000  0.0000  0.0000  0.0000  0.0000  0.0000   10.0
1958 289529.600   35.667991060  139.790847000    39.7650   1  10  0.0000  0.0000  0.0000  0.0000  0.0000  0.0000  0.0000   10.0
1958 289529.800   35.667994200  139.790840800    39.7650   1  10  0.0000  0.0000  0.0000  0.0000  0.0000  0.0000  0.0000   10.0
1958 289530.000   35.667996430  139.790834200    39.7650   1  10  0.0000  0.0000  0.0000  0.0000  0.0000  0.0000  0.0000   10.0
1958 289530.200   35.667998000  139.790827200    39.7650   1  10  0.0000  0.0000  0.0000  0.0000  0.0000  0.0000  0.0000   10.0
1958 289530.400   35.667998900  139.790820100    39.7720   1  10  0.0000  0.0000  0.0000  0.0000  0.0000  0.0000  0.0000   10.0
1958 289530.600   35.667998920  139.790812800    39.7820   1  10  0.0000  0.0000  0.0000  0.0000  0.0000  0.0000  0.0000   10.0
1958 289530.800   35.667998080  139.790805700    39.7830   1  10  0.0000  0.0000  0.0000  0.0000  0.0000  0.0000  0.0000   10.0
1958 289531.000   35.667996580  139.790798600    39.7840   1  10  0.0000  0.0000  0.0000  0.0000  0.0000  0.0000  0.0000   10.0
1958 289531.200   35.667994350  139.790791800    39.7880   1  10  0.0000  0.0000  0.0000  0.0000  0.0000  0.0000  0.0000   10.0
1958 289531.400   35.667991410  139.790785300    39.7910   1  10  0.0000  0.0000  0.0000  0.0000  0.0000  0.0000  0.0000   10.0
1958 289531.600   35.667987870  139.790779200    39.7940   1  10  0.0000  0.0000  0.0000  0.0000  0.0000  0.0000  0.0000   10.0
1958 289531.800   35.667983670  139.790773700    39.7940   1  10  0.0000  0.0000  0.0000  0.0000  0.0000  0.0000  0.0000   10.0
1958 289532.000   35.667978890  139.790769000    39.7920   1  10  0.0000  0.0000  0.0000  0.0000  0.0000  0.0000  0.0000   10.0
1958 289532.200   35.667973560  139.790765100    39.7890   1  10  0.0000  0.0000  0.0000  0.0000  0.0000  0.0000  0.0000   10.0
1958 289532.400   35.667967810  139.790762000    39.7830   1  10  0.0000  0.0000  0.0000  0.0000  0.0000  0.0000  0.0000   10.0
1958 289532.600   35.667961690  139.790759900    39.7810   1  10  0.0000  0.0000  0.0000  0.0000  0.0000  0.0000  0.0000   10.0
1958 289532.800   35.667955350  139.790759000    39.7800   1  10  0.0000  0.0000  0.0000  0.0000  0.0000  0.0000  0.0000   10.0
1958 289533.000   35.667948940  139.790759000    39.7770   1  10  0.0000  0.0000  0.0000  0.0000  0.0000  0.0000  0.0000   10.0
1958 289533.200   35.667942640  139.790760400    39.7770   1  10  0.0000  0.0000  0.0000  0.0000  0.0000  0.0000  0.0000   10.0
1958 289533.400   35.667936610  139.790763000    39.7800   1  10  0.0000  0.0000  0.0000  0.0000  0.0000  0.0000  0.0000   10.0
1958 289533.600   35.667930850  139.790766400    39.7770   1  10  0.0000  0.0000  0.0000  0.0000  0.0000  0.0000  0.0000   10.0
1958 289533.800   35.667925530  139.790770800    39.7810   1  10  0.0000  0.0000  0.0000  0.0000  0.0000  0.0000  0.0000   10.0
1958 289534.000   35.667920870  139.790776300    39.7870   1  10  0.0000  0.0000  0.0000  0.0000  0.0000  0.0000  0.0000   10.0
1958 289534.200   35.667916810  139.790782400    39.7910   1  10  0.0000  0.0000  0.0000  0.0000  0.0000  0.0000  0.0000   10.0
1958 289534.400   35.667913630  139.790789200    39.7960   1  10  0.0000  0.0000  0.0000  0.0000  0.0000  0.0000  0.0000   10.0
1958 289534.600   35.667911320  139.790796500    39.8000   1  10  0.0000  0.0000  0.0000  0.0000  0.0000  0.0000  0.0000   10.0
1958 289534.800   35.667909770  139.790804100    39.8010   1  10  0.0000  0.0000  0.0000  0.0000  0.0000  0.0000  0.0000   10.0
1958 289535.000   35.667909280  139.790811900    39.8020   1  10  0.0000  0.0000  0.0000  0.0000  0.0000  0.0000  0.0000   10.0
1958 289535.200   35.667909650  139.790819700    39.7930   1  10  0.0000  0.0000  0.0000  0.0000  0.0000  0.0000  0.0000   10.0
1958 289535.400   35.667910820  139.790827400    39.7800   1  10  0.0000  0.0000  0.0000  0.0000  0.0000  0.0000  0.0000   10.0
1958 289535.600   35.667913060  139.790834700    39.7720   1  10  0.0000  0.0000  0.0000  0.0000  0.0000  0.0000  0.0000   10.0
1958 289535.800   35.667916150  139.790841400    39.7630   1  10  0.0000  0.0000  0.0000  0.0000  0.0000  0.0000  0.0000   10.0
1958 289536.000   35.667919890  139.790847600    39.7520   1  10  0.0000  0.0000  0.0000  0.0000  0.0000  0.0000  0.0000   10.0
1958 289536.200   35.667924380  139.790853100    39.7470   1  10  0.0000  0.0000  0.0000  0.0000  0.0000  0.0000  0.0000   10.0
1958 289536.400   35.667929460  139.790857700    39.7450   1  10  0.0000  0.0000  0.0000  0.0000  0.0000  0.0000  0.0000   10.0
1958 289536.600   35.667934940  139.790861400    39.7410   1  10  0.0000  0.0000  0.0000  0.0000  0.0000  0.0000  0.0000   10.0
1958 289536.800   35.667940790  139.790864200    39.7410   1  10  0.0000  0.0000  0.0000  0.0000  0.0000  0.0000  0.0000   10.0
1958 289537.000   35.667946870  139.790865800    39.7420   1  10  0.0000  0.0000  0.0000  0.0000  0.0000  0.0000  0.0000   10.0
1958 289537.200   35.667953010  139.790866400    39.7440   1  10  0.0000  0.0000  0.0000  0.0000  0.0000  0.0000  0.0000   10.0
1958 289537.400   35.667959160  139.790865900    39.7500   1  10  0.0000  0.0000  0.0000  0.0000  0.0000  0.0000  0.0000   10.0
1958 289537.600   35.667965180  139.790864300    39.7570   1  10  0.0000  0.0000  0.0000  0.0000  0.0000  0.0000  0.0000   10.0
1958 289537.800   35.667970920  139.790861700    39.7600   1  10  0.0000  0.0000  0.0000  0.0000  0.0000  0.0000  0.0000   10.0
1958 289538.000   35.667976330  139.790858100    39.7620   1  10  0.0000  0.0000  0.0000  0.0000  0.0000  0.0000  0.0000   10.0
1958 289538.200   35.667981180  139.790853700    39.7640   1  10  0.0000  0.0000  0.0000  0.0000  0.0000  0.0000  0.0000   10.0
1958 289538.400   35.667985430  139.790848600    39.7620   1  10  0.0000  0.0000  0.0000  0.0000  0.0000  0.0000  0.0000   10.0
1958 289538.600   35.667989200  139.790843000    39.7640   1  10  0.0000  0.0000  0.0000  0.0000  0.0000  0.0000  0.0000   10.0
1958 289538.800   35.667992130  139.790836700    39.7660   1  10  0.0000  0.0000  0.0000  0.0000  0.0000  0.0000  0.0000   10.0
1958 289539.000   35.667994260  139.790830000    39.7640   1  10  0.0000  0.0000  0.0000  0.0000  0.0000  0.0000  0.0000   10.0
1958 289539.200   35.667995770  139.790822900    39.7640   1  10  0.0000  0.0000  0.0000  0.0000  0.0000  0.0000  0.0000   10.0
1958 289539.400   35.667996530  139.790815600    39.7780   1  10  0.0000  0.0000  0.0000  0.0000  0.0000  0.0000  0.0000   10.0
1958 289539.600   35.667996390  139.790808400    39.7840   1  10  0.0000  0.0000  0.0000  0.0000  0.0000  0.0000  0.0000   10.0
1958 289539.800   35.667995380  139.790801200    39.7840   1  10  0.0000  0.0000  0.0000  0.0000  0.0000  0.0000  0.0000   10.0
1958 289540.000   35.667993580  139.790794200    39.7850   1  10  0.0000  0.0000  0.0000  0.0000  0.0000  0.0000  0.0000   10.0
1958 289540.200   35.667991010  139.790787600    39.7870   1  10  0.0000  0.0000  0.0000  0.0000  0.0000  0.0000  0.0000   10.0
1958 289540.400   35.667987760  139.790781400    39.7880   1  10  0.0000  0.0000  0.0000  0.0000  0.0000  0.0000  0.0000   10.0
1958 289540.600   35.667983820  139.790775800    39.7870   1  10  0.0000  0.0000  0.0000  0.0000  0.0000  0.0000  0.0000   10.0
1958 289540.800   35.667979300  139.790770900    39.7840   1  10  0.0000  0.0000  0.0000  0.0000  0.0000  0.0000  0.0000   10.0
1958 289541.000   35.667974250  139.790766900    39.7800   1  10  0.0000  0.0000  0.0000  0.0000  0.0000  0.0000  0.0000   10.0
1958 289541.200   35.667968750  139.790763700    39.7750   1  10  0.0000  0.0000  0.0000  0.0000  0.0000  0.0000  0.0000   10.0
1958 289541.400   35.667962860  139.790761300    39.7730   1  10  0.0000  0.0000  0.0000  0.0000  0.0000  0.0000  0.0000   10.0
1958 289541.600   35.667956710  139.790760200    39.7720   1  10  0.0000  0.0000  0.0000  0.0000  0.0000  0.0000  0.0000   10.0
1958 289541.800   35.667950450  139.790759900    39.7690   1  10  0.0000  0.0000  0.0000  0.0000  0.0000  0.0000  0.0000   10.0
1958 289542.000   35.667944240  139.790760800    39.7670   1  10  0.0000  0.0000  0.0000  0.0000  0.0000  0.0000  0.0000   10.0
1958 289542.200   35.667938250  139.790763100    39.7690   1  10  0.0000  0.0000  0.0000  0.0000  0.0000  0.0000  0.0000   10.0
1958 289542.400   35.667932540  139.790766200    39.7690   1  10  0.0000  0.0000  0.0000  0.0000  0.0000  0.0000  0.0000   10.0
1958 289542.600   35.667927160  139.790770100    39.7690   1  10  0.0000  0.0000  0.0000  0.0000  0.0000  0.0000  0.0000   10.0
1958 289542.800   35.667922380  139.790775200    39.7730   1  10  0.0000  0.0000  0.0000  0.0000  0.0000  0.0000  0.0000   10.0
1958 289543.000   35.667918150  139.790781000    39.7770   1  10  0.0000  0.0000  0.0000  0.0000  0.0000  0.0000  0.0000   10.0
1958 289543.200   35.667914700  139.790787600    39.7810   1  10  0.0000  0.0000  0.0000  0.0000  0.0000  0.0000  0.0000   10.0
1958 289543.400   35.667912100  139.790794800    39.7870   1  10  0.0000  0.0000  0.0000  0.0000  0.0000  0.0000  0.0000   10.0
1958 289543.600   35.667910270  139.790802400    39.7880   1  10  0.0000  0.0000  0.0000  0.0000  0.0000  0.0000  0.0000   10.0
1958 289543.800   35.667909420  139.790810300    39.7890   1  10  0.0000  0.0000  0.0000  0.0000  0.0000  0.0000  0.0000   10.0
1958 289544.000   35.667909560  139.790818200    39.7830   1  10  0.0000  0.0000  0.0000  0.0000  0.0000  0.0000  0.0000   10.0
1958 289544.200   35.667910490  139.790826100    39.7690   1  10  0.0000  0.0000  0.0000  0.0000  0.0000  0.0000  0.0000   10.0
1958 289544.400   35.667912540  139.790833700    39.7600   1  10  0.0000  0.0000  0.0000  0.0000  0.0000  0.0000  0.0000   10.0
1958 289544.600   35.667915530  139.790840800    39.7520   1  10  0.0000  0.0000  0.0000  0.0000  0.0000  0.0000  0.0000   10.0
1958 289544.800   35.667919270  139.790847200    39.7420   1  10  0.0000  0.0000  0.0000  0.0000  0.0000  0.0000  0.0000   10.0
1958 289545.000   35.667923840  139.790852800    39.7360   1  10  0.0000  0.0000  0.0000  0.0000  0.0000  0.0000  0.0000   10.0
1958 289545.200   35.667929030  139.790857400    39.7350   1  10  0.0000  0.0000  0.0000  0.0000  0.0000  0.0000  0.0000   10.0
1958 289545.400   35.667934650  139.790860900    39.7310   1  10  0.0000  0.0000  0.0000  0.0000  0.0000  0.0000  0.0000   10.0
1958 289545.600   35.667940560  139.790863400    39.7310   1  10  0.0000  0.0000  0.0000  0.0000  0.0000  0.0000  0.0000   10.0
1958 289545.800   35.667946530  139.790864600    39.7310   1  10  0.0000  0.0000  0.0000  0.0000  0.0000  0.0000  0.0000   10.0
1958 289546.000   35.667952480  139.790864800    39.7340   1  10  0.0000  0.0000  0.0000  0.0000  0.0000  0.0000  0.0000   10.0
1958 289546.200   35.667958320  139.790864100    39.7380   1  10  0.0000  0.0000  0.0000  0.0000  0.0000  0.0000  0.0000   10.0
1958 289546.400   35.667964000  139.790862500    39.7430   1  10  0.0000  0.0000  0.0000  0.0000  0.0000  0.0000  0.0000   10.0
1958 289546.600   35.667969500  139.790860400    39.7460   1  10  0.0000  0.0000  0.0000  0.0000  0.0000  0.0000  0.0000   10.0
1958 289546.800   35.667974760  139.790857700    39.7480   1  10  0.0000  0.0000  0.0000  0.0000  0.0000  0.0000  0.0000   10.0
1958 289547.000   35.667979680  139.790854900    39.7480   1  10  0.0000  0.0000  0.0000  0.0000  0.0000  0.0000  0.0000   10.0
1958 289547.200   35.667984200  139.790852000    39.7450   1  10  0.0000  0.0000  0.0000  0.0000  0.0000  0.0000  0.0000   10.0
1958 289547.400   35.667988390  139.790849200    39.7470   1  10  0.0000  0.0000  0.0000  0.0000  0.0000  0.0000  0.0000   10.0
1958 289547.600   35.667992150  139.790846400    39.7460   1  10  0.0000  0.0000  0.0000  0.0000  0.0000  0.0000  0.0000   10.0
1958 289547.800   35.667995610  139.790843700    39.7440   1  10  0.0000  0.0000  0.0000  0.0000  0.0000  0.0000  0.0000   10.0
1958 289548.000   35.667998760  139.790841100    39.7430   1  10  0.0000  0.0000  0.0000  0.0000  0.0000  0.0000  0.0000   10.0
1958 289548.200   35.668001590  139.790838800    39.7410   1  10  0.0000  0.0000  0.0000  0.0000  0.0000  0.0000  0.0000   10.0
1958 289548.400   35.668004120  139.790836600    39.7450   1  10  0.0000  0.0000  0.0000  0.0000  0.0000  0.0000  0.0000   10.0
1958 289548.600   35.668006320  139.790834800    39.7480   1  10  0.0000  0.0000  0.0000  0.0000  0.0000  0.0000  0.0000   10.0
1958 289548.800   35.668008040  139.790833300    39.7510   1  10  0.0000  0.0000  0.0000  0.0000  0.0000  0.0000  0.0000   10.0
1958 289549.000   35.668009390  139.790832200    39.7520   1  10  0.0000  0.0000  0.0000  0.0000  0.0000  0.0000  0.0000   10.0
1958 289549.200   35.668010340  139.790831400    39.7530   1  10  0.0000  0.0000  0.0000  0.0000  0.0000  0.0000  0.0000   10.0
1958 289549.400   35.668010880  139.790831000    39.7540   1  10  0.0000  0.0000  0.0000  0.0000  0.0000  0.0000  0.0000   10.0
1958 289549.600   35.668011020  139.790830900    39.7540   1  10  0.0000  0.0000  0.0000  0.0000  0.0000  0.0000  0.0000   10.0
1958 289549.800   35.668010950  139.790830900    39.7550   1  10  0.0000  0.0000  0.0000  0.0000  0.0000  0.0000  0.0000   10.0
1958 289550.000   35.668010940  139.790831000    39.7550   1  10  0.0000  0.0000  0.0000  0.0000  0.0000  0.0000  0.0000   10.0
1958 289550.200   35.668010940  139.790831000    39.7550   1  10  0.0000  0.0000  0.0000  0.0000  0.0000  0.0000  0.0000   10.0
1958 289550.400   35.668010930  139.790831000    39.7550   1  10  0.0000  0.0000  0.0000  0.0000  0.0000  0.0000  0.0000   10.0
1958 289550.600   35.668010930  139.790831000    39.7550   1  10  0.0000  0.0000  0.0000  0.0000  0.0000  0.0000  0.0000   10.0
1958 289550.800   35.668010920  139.790831000    39.7560   1  10  0.0000  0.0000  0.0000  0.0000  0.0000  0.0000  0.0000   10.0
1958 289551.000   35.668010920  139.790831000    39.7570   1  10  0.0000  0.0000  0.0000  0.0000  0.0000  0.0000  0.0000   10.0
1958 289551.200   35.668010930  139.790830900    39.7570   1  10  0.0000  0.0000  0.0000  0.0000  0.0000  0.0000  0.0000   10.0
1958 289551.400   35.668010930  139.790830900    39.7570   1  10  0.0000  0.0000  0.0000  0.0000  0.0000  0.0000  0.0000   10.0
1958 289551.600   35.668010940  139.790830900    39.7570   1  10  0.0000  0.0000  0.0000  0.0000  0.0000  0.0000  0.0000   10.0
1958 289551.800   35.668010950  139.790830900    39.7560   1  10  0.0000  0.0000  0.0000  0.0000  0.0000  0.0000  0.0000   10.0
1958 289552.000   35.668010960  139.790830900    39.7560   1  10  0.0000  0.0000  0.0000  0.0000  0.0000  0.0000  0.0000   10.0
1958 289552.200   35.668010960  139.790830900    39.7560   1  10  0.0000  0.0000  0.0000  0.0000  0.0000  0.0000  0.0000   10.0
1958 289552.400   35.668010960  139.790830900    39.7570   1  10  0.0000  0.0000  0.0000  0.0000  0.0000  0.0000  0.0000   10.0
1958 289552.600   35.668010960  139.790830900    39.7570   1  10  0.0000  0.0000  0.0000  0.0000  0.0000  0.0000  0.0000   10.0
1958 289552.800   35.668010970  139.790830900    39.7580   1  10  0.0000  0.0000  0.0000  0.0000  0.0000  0.0000  0.0000   10.0
1958 289553.000   35.668010970  139.790830900    39.7580   1  10  0.0000  0.0000  0.0000  0.0000  0.0000  0.0000  0.0000   10.0
1958 289553.200   35.668010970  139.790830900    39.7580   1  10  0.0000  0.0000  0.0000  0.0000  0.0000  0.0000  0.0000   10.0
1958 289553.400   35.668010970  139.790830900    39.7590   1  10  0.0000  0.0000  0.0000  0.0000  0.0000  0.0000  0.0000   10.0
1958 289553.600   35.668010980  139.790830900    39.7590   1  10  0.0000  0.0000  0.0000  0.0000  0.0000  0.0000  0.0000   10.0
1958 289553.800   35.668010980  139.790830900    39.7600   1  10  0.0000  0.0000  0.0000  0.0000  0.0000  0.0000  0.0000   10.0
1958 289554.000   35.668010980  139.790830900    39.7600   1  10  0.0000  0.0000  0.0000  0.0000  0.0000  0.0000  0.0000   10.0
1958 289554.200   35.668010990  139.790830900    39.7600   1  10  0.0000  0.0000  0.0000  0.0000  0.0000  0.0000  0.0000   10.0
1958 289554.400   35.668010990  139.790830900    39.7600   1  10  0.0000  0.0000  0.0000  0.0000  0.0000  0.0000  0.0000   10.0
1958 289554.600   35.668010990  139.790830900    39.7600   1  10  0.0000  0.0000  0.0000  0.0000  0.0000  0.0000  0.0000   10.0
1958 289554.800   35.668010990  139.790830900    39.7610   1  10  0.0000  0.0000  0.0000  0.0000  0.0000  0.0000  0.0000   10.0
1958 289555.000   35.668011000  139.790830900    39.7610   1  10  0.0000  0.0000  0.0000  0.0000  0.0000  0.0000  0.0000   10.0
1958 289555.200   35.668011000  139.790830900    39.7610   1  10  0.0000  0.0000  0.0000  0.0000  0.0000  0.0000  0.0000   10.0
1958 289555.400   35.668011000  139.790830900    39.7610   1  10  0.0000  0.0000  0.0000  0.0000  0.0000  0.0000  0.0000   10.0
1958 289555.600   35.668011000  139.790830900    39.7610   1  10  0.0000  0.0000  0.0000  0.0000  0.0000  0.0000  0.0000   10.0
1958 289555.800   35.668011000  139.790830900    39.7610   1  10  0.0000  0.0000  0.0000  0.0000  0.0000  0.0000  0.0000   10.0
1958 289556.000   35.668011010  139.790830900    39.7620   1  10  0.0000  0.0000  0.0000  0.0000  0.0000  0.0000  0.0000   10.0
1958 289556.200   35.668011010  139.790830900    39.7620   1  10  0.0000  0.0000  0.0000  0.0000  0.0000  0.0000  0.0000   10.0
1958 289556.400   35.668011010  139.790830900    39.7620   1  10  0.0000  0.0000  0.0000  0.0000  0.0000  0.0000  0.0000   10.0
1958 289556.600   35.668011010  139.790830900    39.7620   1  10  0.0000  0.0000  0.0000  0.0000  0.0000  0.0000  0.0000   10.0
1958 289556.800   35.668011010  139.790830900    39.7620   1  10  0.0000  0.0000  0.0000  0.0000  0.0000  0.0000  0.0000   10.0
1958 289557.000   35.668011010  139.790830900    39.7630   1  10  0.0000  0.0000  0.0000  0.0000  0.0000  0.0000  0.0000   10.0
1958 289557.200   35.668011010  139.790830900    39.7630   1  10  0.0000  0.0000  0.0000  0.0000  0.0000  0.0000  0.0000   10.0
1958 289557.400   35.668011010  139.790830900    39.7630   1  10  0.0000  0.0000  0.0000  0.0000  0.0000  0.0000  0.0000   10.0
1958 289557.600   35.668011010  139.790830900    39.7630   1  10  0.0000  0.0000  0.0000  0.0000  0.0000  0.0000  0.0000   10.0
1958 289557.800   35.668011020  139.790830900    39.7630   1  10  0.0000  0.0000  0.0000  0.0000  0.0000  0.0000  0.0000   10.0
1958 289558.000   35.668011020  139.790830900    39.7630   1  10  0.0000  0.0000  0.0000  0.0000  0.0000  0.0000  0.0000   10.0
1958 289558.200   35.668011020  139.790830900    39.7630   1  10  0.0000  0.0000  0.0000  0.0000  0.0000  0.0000  0.0000   10.0
1958 289558.400   35.668011020  139.790830900    39.7630   1  10  0.0000  0.0000  0.0000  0.0000  0.0000  0.0000  0.0000   10.0
1958 289558.600   35.668011020  139.790830900    39.7630   1  10  0.0000  0.0000  0.0000  0.0000  0.0000  0.0000  0.0000   10.0
1958 289558.800   35.668011020  139.790830900    39.7630   1  10  0.0000  0.0000  0.0000  0.0000  0.0000  0.0000  0.0000   10.0
1958 289559.000   35.668011020  139.790830900    39.7630   1  10  0.0000  0.0000  0.0000  0.0000  0.0000  0.0000  0.0000   10.0
1958 289559.200   35.668011020  139.790830900    39.7630   1  10  0.0000  0.0000  0.0000  0.0000  0.0000  0.0000  0.0000   10.0
1958 289559.400   35.668011010  139.790830900    39.7630   1  10  0.0000  0.0000  0.0000  0.0000  0.0000  0.0000  0.0000   10.0
1958 289559.600   35.668011010  139.790830900    39.7630   1  10  0.0000  0.0000  0.0000  0.0000  0.0000  0.0000  0.0000   10.0
1958 289559.800   35.668011010  139.790830900    39.7630   1  10  0.0000  0.0000  0.0000  0.0000  0.0000  0.0000  0.0000   10.0
1958 289560.000   35.668011010  139.790830900    39.7640   1  10  0.0000  0.0000  0.0000  0.0000  0.0000  0.0000  0.0000   10.0
1958 289560.200   35.668011010  139.790830900    39.7630   1  10  0.0000  0.0000  0.0000  0.0000  0.0000  0.0000  0.0000   10.0
1958 289560.400   35.668011010  139.790830900    39.7640   1  10  0.0000  0.0000  0.0000  0.0000  0.0000  0.0000  0.0000   10.0
1958 289560.600   35.668011000  139.790830900    39.7640   1  10  0.0000  0.0000  0.0000  0.0000  0.0000  0.0000  0.0000   10.0
1958 289560.800   35.668011000  139.790830900    39.7640   1  10  0.0000  0.0000  0.0000  0.0000  0.0000  0.0000  0.0000   10.0
1958 289561.000   35.668011000  139.790830900    39.7640   1  10  0.0000  0.0000  0.0000  0.0000  0.0000  0.0000  0.0000   10.0
1958 289561.200   35.668011000  139.790830900    39.7640   1  10  0.0000  0.0000  0.0000  0.0000  0.0000  0.0000  0.0000   10.0
1958 289561.400   35.668011000  139.790830900    39.7640   1  10  0.0000  0.0000  0.0000  0.0000  0.0000  0.0000  0.0000   10.0
