% program   : RTKPOST ver.2.4.3 b28
% inp file  : E:\Program\Fortran\Matlab_PPP\Net_Diff\for_redistribution_files_only\test\data\urban\rovm2000.17o
% inp file  : E:\Program\Fortran\Matlab_PPP\Net_Diff\for_redistribution_files_only\test\data\urban\rovt2000.17o
% inp file  : E:\Program\Fortran\Matlab_PPP\Net_Diff\for_redistribution_files_only\test\data\urban\brdm2000.17p
% obs start : 2017/07/19 08:24:20.0 GPST (week1958 289460.0s)
% obs end   : 2017/07/19 08:57:20.4 GPST (week1958 291440.4s)
% pos mode  : kinematic
% freqs     : L1+L2
% solution  : forward
% elev mask : 10.0 deg
% dynamics  : off
% tidecorr  : off
% ionos opt : broadcast
% tropo opt : saastamoinen
% ephemeris : broadcast
% navi sys  : gps qzss beidou
% amb res   : instantaneous
% val thres : 3.0
% antenna1  :                       ( 0.0000  0.0000  0.0000)
% antenna2  :                       ( 0.0000  0.0000  0.0000)
% ref pos   : -3961905.5930   3348996.2040   3698212.0150
%
% (x/y/z-ecef=WGS84,Q=1:fix,2:float,3:sbas,4:dgps,5:single,6:ppp,ns=# of satellites)
%  GPST                      x-ecef(m)      y-ecef(m)      z-ecef(m)   Q  ns   sdx(m)   sdy(m)   sdz(m)  sdxy(m)  sdyz(m)  sdzx(m) age(s)  ratio
2017/07/19 08:24:20.000  -3961874.3482   3348998.2947   3698197.9177   2  16  21.6987   9.9883  20.5006 -10.0467  11.3511 -20.5168   0.00    1.0
2017/07/19 08:24:20.200  -3961874.6789   3348999.6094   3698197.1730   2  16  21.6987   9.9886  20.5008 -10.0462  11.3514 -20.5167   0.00    1.0
2017/07/19 08:24:20.400  -3961876.5596   3348997.7337   3698195.8130   2  16  21.6986   9.9890  20.5011 -10.0457  11.3516 -20.5166   0.00    1.0
2017/07/19 08:24:20.600  -3961875.4807   3348996.1370   3698197.4550   2  16  21.6985   9.9894  20.5014 -10.0452  11.3518 -20.5166   0.00    1.0
2017/07/19 08:24:20.800  -3961875.6095   3348998.7155   3698196.6491   2  16  21.6984   9.9897  20.5017 -10.0447  11.3521 -20.5165   0.00    1.0
2017/07/19 08:24:21.000  -3961873.8349   3348997.8419   3698198.6342   2  16  21.6984   9.9901  20.5020 -10.0442  11.3523 -20.5164   0.00    1.0
2017/07/19 08:24:21.200  -3961874.0709   3348997.1671   3698198.6659   2  16  21.6983   9.9904  20.5023 -10.0438  11.3525 -20.5163   0.00    1.0
2017/07/19 08:24:21.400  -3961874.0180   3348998.9360   3698198.3369   2  16  21.6982   9.9908  20.5026 -10.0433  11.3528 -20.5163   0.00    1.0
2017/07/19 08:24:21.600  -3961873.5981   3349002.2417   3698198.0998   2  16  21.6981   9.9912  20.5029 -10.0428  11.3530 -20.5162   0.00    1.0
2017/07/19 08:24:21.800  -3961872.9920   3349000.2326   3698199.4922   2  16  21.6981   9.9915  20.5032 -10.0423  11.3532 -20.5161   0.00    1.0
2017/07/19 08:24:22.000  -3961875.0400   3348996.4130   3698198.3240   2  16  21.6980   9.9919  20.5035 -10.0418  11.3535 -20.5161   0.00    1.1
2017/07/19 08:24:22.200  -3961875.3022   3348995.8641   3698197.9794   2  16  21.6979   9.9922  20.5038 -10.0413  11.3537 -20.5160   0.00    1.0
2017/07/19 08:24:22.400  -3961876.8037   3348994.0576   3698196.9271   2  16  21.6978   9.9926  20.5041 -10.0408  11.3539 -20.5159   0.00    1.1
2017/07/19 08:24:22.600  -3961875.9325   3348994.4938   3698197.6252   2  16  21.6978   9.9930  20.5044 -10.0403  11.3542 -20.5158   0.00    1.0
2017/07/19 08:24:22.800  -3961875.0708   3348993.8807   3698198.6676   2  16  21.6977   9.9933  20.5047 -10.0398  11.3544 -20.5158   0.00    1.0
2017/07/19 08:24:23.000  -3961872.4799   3348998.4697   3698199.9135   2  16  21.6976   9.9937  20.5050 -10.0394  11.3546 -20.5157   0.00    1.0
2017/07/19 08:24:23.200  -3961874.6321   3348996.5067   3698198.2832   2  16  21.6975   9.9941  20.5053 -10.0389  11.3549 -20.5156   0.00    1.1
2017/07/19 08:24:23.400  -3961874.0042   3348998.1517   3698198.4356   2  16  21.6975   9.9944  20.5056 -10.0384  11.3551 -20.5155   0.00    1.0
2017/07/19 08:24:23.600  -3961876.3417   3348996.5414   3698196.4361   2  16  21.6974   9.9948  20.5059 -10.0379  11.3554 -20.5155   0.00    1.0
2017/07/19 08:24:23.800  -3961876.2164   3348996.0103   3698196.5259   2  16  21.6973   9.9952  20.5062 -10.0374  11.3556 -20.5154   0.00    1.0
2017/07/19 08:24:24.000  -3961874.8843   3348994.5773   3698198.5649   2  16  21.6972   9.9955  20.5065 -10.0369  11.3558 -20.5153   0.00    1.0
2017/07/19 08:24:24.200  -3961876.2040   3348992.0707   3698197.8422   2  16  21.6972   9.9959  20.5068 -10.0364  11.3561 -20.5152   0.00    1.0
2017/07/19 08:24:24.400  -3961874.3788   3348998.0171   3698198.1272   2  16  21.6971   9.9963  20.5071 -10.0360  11.3563 -20.5152   0.00    1.0
2017/07/19 08:24:24.600  -3961874.6220   3348999.6911   3698197.3138   2  16  21.6970   9.9967  20.5074 -10.0355  11.3566 -20.5151   0.00    1.0
2017/07/19 08:24:24.800  -3961874.3616   3348999.4891   3698197.5755   2  16  21.6969   9.9970  20.5077 -10.0350  11.3568 -20.5150   0.00    1.0
2017/07/19 08:24:25.000  -3961872.3063   3349001.3776   3698199.3543   2  16  21.6969   9.9974  20.5079 -10.0345  11.3570 -20.5149   0.00    1.0
2017/07/19 08:24:25.200  -3961874.8790   3348999.0461   3698197.2255   2  16  21.6968   9.9978  20.5082 -10.0340  11.3573 -20.5149   0.00    1.0
2017/07/19 08:24:25.400  -3961870.5204   3349005.7012   3698199.7809   2  16  21.6967   9.9981  20.5085 -10.0335  11.3575 -20.5148   0.00    1.0
2017/07/19 08:24:25.600  -3961872.4406   3349003.5964   3698198.3600   2  16  21.6966   9.9985  20.5088 -10.0330  11.3578 -20.5147   0.00    1.0
2017/07/19 08:24:25.800  -3961869.1987   3349006.9882   3698200.5259   2  16  21.6965   9.9989  20.5091 -10.0326  11.3580 -20.5147   0.00    1.0
2017/07/19 08:24:26.000  -3961872.1562   3349001.0343   3698199.1364   2  16  21.6965   9.9993  20.5094 -10.0321  11.3583 -20.5146   0.00    1.0
2017/07/19 08:24:26.200  -3961872.1275   3348996.9020   3698200.3979   2  16  21.6964   9.9996  20.5097 -10.0316  11.3585 -20.5145   0.00    1.0
2017/07/19 08:24:26.400  -3961871.9752   3349000.7970   3698199.3965   2  16  21.6963  10.0000  20.5100 -10.0311  11.3588 -20.5144   0.00    1.1
2017/07/19 08:24:26.600  -3961872.3316   3349003.8657   3698197.7700   2  16  21.6962  10.0004  20.5103 -10.0306  11.3590 -20.5144   0.00    1.0
2017/07/19 08:24:26.800  -3961873.0387   3349003.4498   3698197.1787   2  16  21.6961  10.0008  20.5106 -10.0301  11.3593 -20.5143   0.00    1.0
2017/07/19 08:24:27.000  -3961872.1576   3349002.0045   3698198.3348   2  16  21.6961  10.0012  20.5109 -10.0297  11.3595 -20.5142   0.00    1.0
2017/07/19 08:24:27.200  -3961874.3269   3348999.0681   3698196.5113   2  16  21.6960  10.0015  20.5112 -10.0292  11.3598 -20.5141   0.00    1.0
2017/07/19 08:24:27.400  -3961873.4663   3349000.6116   3698196.8436   2  16  21.6959  10.0019  20.5115 -10.0287  11.3600 -20.5141   0.00    1.0
2017/07/19 08:24:27.600  -3961873.0465   3349006.1276   3698195.6472   2  15  21.6958  10.0023  20.5118 -10.0282  11.3603 -20.5140   0.00    1.0
2017/07/19 08:24:27.800  -3961872.1855   3349006.1989   3698196.3093   2  15  21.6957  10.0027  20.5121 -10.0277  11.3605 -20.5139   0.00    1.0
2017/07/19 08:24:28.000  -3961874.3865   3348999.7841   3698194.6182   2  15  21.6957  10.0031  20.5124 -10.0273  11.3608 -20.5138   0.00    1.0
2017/07/19 08:24:28.200  -3961871.1051   3349002.7070   3698197.2716   2  15  21.6956  10.0034  20.5127 -10.0268  11.3610 -20.5137   0.00    1.0
2017/07/19 08:24:28.400  -3961870.9676   3349004.6685   3698196.8915   2  15  21.6955  10.0038  20.5130 -10.0263  11.3613 -20.5137   0.00    1.0
2017/07/19 08:24:28.600  -3961873.0381   3349001.4276   3698195.8118   2  15  21.6954  10.0042  20.5133 -10.0258  11.3615 -20.5136   0.00    1.0
2017/07/19 08:24:28.800  -3961872.7304   3349003.9467   3698195.1461   2  15  21.6953  10.0046  20.5136 -10.0253  11.3618 -20.5135   0.00    1.0
2017/07/19 08:24:29.000  -3961870.7068   3349005.2274   3698196.8507   2  15  21.6953  10.0050  20.5139 -10.0249  11.3620 -20.5134   0.00    1.0
2017/07/19 08:24:29.200  -3961871.3907   3349001.8126   3698197.0744   2  15  21.6952  10.0053  20.5142 -10.0244  11.3623 -20.5134   0.00    1.0
2017/07/19 08:24:29.400  -3961871.9332   3349003.1347   3698196.0548   2  15  21.6951  10.0057  20.5145 -10.0239  11.3625 -20.5133   0.00    1.0
2017/07/19 08:24:29.600  -3961871.8628   3349003.9028   3698196.0077   2  15  21.6950  10.0061  20.5148 -10.0234  11.3628 -20.5132   0.00    1.0
2017/07/19 08:24:29.800  -3961872.9981   3349001.9356   3698195.2676   2  15  21.6949  10.0065  20.5151 -10.0229  11.3630 -20.5131   0.00    1.1
2017/07/19 08:24:30.000  -3961873.2556   3349002.3043   3698194.8608   2  15  21.6949  10.0069  20.5154 -10.0224  11.3633 -20.5131   0.00    1.0
2017/07/19 08:24:30.200  -3961871.7175   3349003.4889   3698196.1546   2  15  21.6948  10.0073  20.5157 -10.0220  11.3636 -20.5130   0.00    1.0
2017/07/19 08:24:30.400  -3961871.3942   3349002.1675   3698196.5832   2  15  21.6947  10.0077  20.5160 -10.0215  11.3638 -20.5129   0.00    1.0
2017/07/19 08:24:30.600  -3961871.9497   3349001.7632   3698195.9285   2  15  21.6946  10.0081  20.5163 -10.0210  11.3641 -20.5128   0.00    1.0
2017/07/19 08:24:30.800  -3961873.4430   3348997.5732   3698195.5028   2  15  21.6945  10.0084  20.5166 -10.0205  11.3643 -20.5128   0.00    1.1
2017/07/19 08:24:31.000  -3961872.0386   3348998.1428   3698196.7520   2  15  21.6944  10.0088  20.5169 -10.0200  11.3646 -20.5127   0.00    1.0
2017/07/19 08:24:31.200  -3961872.5903   3348998.6577   3698195.8565   2  15  21.6944  10.0092  20.5172 -10.0196  11.3649 -20.5126   0.00    1.0
2017/07/19 08:24:31.400  -3961871.0138   3349004.5884   3698195.8400   2  15  21.6943  10.0096  20.5175 -10.0191  11.3651 -20.5125   0.00    1.0
2017/07/19 08:24:31.600  -3961798.2974   3349094.2647   3698245.6568   2   7  27.3950  22.6810  23.5575  15.4952  19.0983 -15.0709   0.00    1.0
2017/07/19 08:24:31.800  -3961797.9508   3349095.1836   3698245.4825   2   7  27.3945  22.6819  23.5571  15.4954  19.0981 -15.0717   0.00    1.1
2017/07/19 08:24:32.000  -3961796.8904   3349094.8981   3698246.6447   2   7  27.3941  22.6827  23.5568  15.4957  19.0978 -15.0725   0.00    1.1
2017/07/19 08:24:32.200  -3961795.8452   3349094.6893   3698247.7365   2   7  27.3936  22.6836  23.5565  15.4960  19.0975 -15.0734   0.00    1.0
2017/07/19 08:24:32.400  -3961795.5876   3349095.6587   3698247.6925   2   7  27.3931  22.6845  23.5561  15.4963  19.0973 -15.0742   0.00    1.0
2017/07/19 08:24:32.600  -3961794.4410   3349095.1175   3698249.0669   2   7  27.3926  22.6853  23.5558  15.4966  19.0970 -15.0750   0.00    1.0
2017/07/19 08:24:32.800  -3961794.1402   3349095.8675   3698249.0212   2   7  27.3922  22.6862  23.5555  15.4968  19.0967 -15.0759   0.00    1.2
2017/07/19 08:24:33.000  -3961794.1587   3349097.3595   3698248.0705   2   7  27.3917  22.6870  23.5551  15.4971  19.0965 -15.0767   0.00    1.0
2017/07/19 08:24:33.200  -3961794.3990   3349098.8399   3698247.0992   2   7  27.3912  22.6879  23.5548  15.4974  19.0962 -15.0775   0.00    1.1
2017/07/19 08:24:33.400  -3961792.9761   3349097.5308   3698248.7442   2   7  27.3907  22.6887  23.5544  15.4977  19.0960 -15.0783   0.00    1.0
2017/07/19 08:24:33.600  -3961792.8272   3349098.3394   3698248.3903   2   7  27.3903  22.6896  23.5541  15.4980  19.0957 -15.0792   0.00    1.1
2017/07/19 08:24:33.800  -3961793.0308   3349099.4311   3698247.7994   2   7  27.3898  22.6905  23.5538  15.4982  19.0954 -15.0800   0.00    1.0
2017/07/19 08:24:34.000  -3961792.8396   3349099.8339   3698247.4711   2   7  27.3893  22.6913  23.5534  15.4985  19.0952 -15.0808   0.00    1.3
2017/07/19 08:24:34.200  -3961793.0626   3349100.4551   3698247.2174   2   7  27.3889  22.6922  23.5531  15.4988  19.0949 -15.0816   0.00    1.0
2017/07/19 08:24:34.400  -3961792.4142   3349099.9713   3698247.7935   2   7  27.3884  22.6930  23.5528  15.4991  19.0946 -15.0825   0.00    1.0
2017/07/19 08:24:34.600  -3961792.1121   3349100.0273   3698248.0633   2   7  27.3879  22.6939  23.5524  15.4994  19.0944 -15.0833   0.00    1.1
2017/07/19 08:24:34.800  -3961791.1169   3349098.8688   3698249.4203   2   7  27.3874  22.6947  23.5521  15.4996  19.0941 -15.0841   0.00    1.0
2017/07/19 08:24:35.000  -3961790.6503   3349098.7411   3698249.7696   2   7  27.3870  22.6956  23.5518  15.4999  19.0939 -15.0849   0.00    1.0
2017/07/19 08:24:35.200  -3961791.6962   3349100.8290   3698248.3420   2   7  27.3865  22.6964  23.5514  15.5002  19.0936 -15.0858   0.00    1.0
2017/07/19 08:24:35.400  -3961791.6938   3349101.0916   3698248.5943   2   7  27.3860  22.6973  23.5511  15.5005  19.0933 -15.0866   0.00    1.0
2017/07/19 08:24:35.600  -3961791.4628   3349101.2687   3698248.9443   2   7  27.3855  22.6981  23.5508  15.5008  19.0931 -15.0874   0.00    1.1
2017/07/19 08:24:35.800  -3961791.1752   3349102.5457   3698246.3113   2   6  27.3851  22.6990  23.5504  15.5010  19.0928 -15.0882   0.00    1.0
2017/07/19 08:24:36.000  -3961789.9672   3349101.1491   3698247.8376   2   7  27.3846  22.6999  23.5501  15.5013  19.0925 -15.0890   0.00    1.2
2017/07/19 08:24:36.200  -3961789.3859   3349101.0906   3698247.8343   2   7  27.3841  22.7007  23.5497  15.5016  19.0923 -15.0899   0.00    1.1
2017/07/19 08:24:36.400  -3961788.9822   3349100.7695   3698248.4268   2   7  27.3837  22.7016  23.5494  15.5019  19.0920 -15.0907   0.00    1.0
2017/07/19 08:24:36.600  -3961788.0780   3349100.0117   3698249.6328   2   7  27.3832  22.7024  23.5491  15.5021  19.0918 -15.0915   0.00    1.0
2017/07/19 08:24:36.800  -3961787.6491   3349100.1577   3698249.3559   2   7  27.3827  22.7033  23.5487  15.5024  19.0915 -15.0923   0.00    1.0
2017/07/19 08:24:37.000  -3961788.8392   3349100.9978   3698250.7958   2   7  27.3822  22.7041  23.5484  15.5027  19.0912 -15.0932   0.00    1.0
2017/07/19 08:24:37.200  -3961786.1566   3349098.6762   3698251.8308   2   7  27.3818  22.7050  23.5481  15.5030  19.0910 -15.0940   0.00    1.0
2017/07/19 08:24:37.400  -3961787.2747   3349100.4184   3698251.4703   2   7  27.3813  22.7058  23.5477  15.5032  19.0907 -15.0948   0.00    1.0
2017/07/19 08:24:37.600  -3961786.6878   3349101.8026   3698249.1574   2   7  27.3808  22.7067  23.5474  15.5035  19.0904 -15.0956   0.00    1.1
2017/07/19 08:24:37.800  -3961787.0757   3349102.1812   3698250.7609   2   7  27.3804  22.7075  23.5471  15.5038  19.0902 -15.0964   0.00    1.0
2017/07/19 08:24:38.000  -3961786.2317   3349101.0185   3698253.1839   2   7  27.3799  22.7084  23.5467  15.5041  19.0899 -15.0973   0.00    1.4
2017/07/19 08:24:38.200  -3961785.9940   3349101.9729   3698252.5221   2   7  27.3794  22.7092  23.5464  15.5044  19.0897 -15.0981   0.00    1.3
2017/07/19 08:24:38.400  -3961786.0474   3349102.0065   3698254.4064   2   7  27.3789  22.7101  23.5461  15.5046  19.0894 -15.0989   0.00    1.2
2017/07/19 08:24:38.600  -3961785.9958   3349103.2678   3698253.3160   2   7  27.3785  22.7110  23.5457  15.5049  19.0891 -15.0997   0.00    1.0
2017/07/19 08:24:38.800  -3961785.8751   3349104.1815   3698253.0692   2   7  27.3780  22.7118  23.5454  15.5052  19.0889 -15.1006   0.00    1.0
2017/07/19 08:24:39.000  -3961784.5692   3349103.5718   3698253.7903   2   7  27.3775  22.7127  23.5451  15.5055  19.0886 -15.1014   0.00    1.0
2017/07/19 08:24:39.200  -3961785.0664   3349103.8955   3698255.8430   2   7  27.3771  22.7135  23.5447  15.5057  19.0883 -15.1022   0.00    1.0
2017/07/19 08:24:39.400  -3961784.9580   3349105.7814   3698253.6591   2   7  27.3766  22.7144  23.5444  15.5060  19.0881 -15.1030   0.00    1.0
2017/07/19 08:24:39.600  -3961785.1805   3349107.3151   3698252.8288   2   7  27.3761  22.7152  23.5440  15.5063  19.0878 -15.1038   0.00    1.5
2017/07/19 08:24:39.800  -3961783.8963   3349106.0803   3698254.7994   2   7  27.3756  22.7161  23.5437  15.5065  19.0875 -15.1047   0.00    1.0
2017/07/19 08:24:40.000  -3961783.7887   3349106.6504   3698255.0227   2   7  27.3752  22.7169  23.5434  15.5068  19.0873 -15.1055   0.00    1.0
2017/07/19 08:24:40.200  -3961783.6691   3349106.8241   3698256.1133   2   7  27.3747  22.7178  23.5430  15.5071  19.0870 -15.1063   0.00    1.5
2017/07/19 08:24:40.400  -3961784.1915   3349108.5258   3698256.0838   2   7  27.3742  22.7186  23.5427  15.5074  19.0868 -15.1071   0.00    1.0
2017/07/19 08:24:40.600  -3961783.0913   3349108.3154   3698254.5720   2   7  27.3738  22.7195  23.5424  15.5076  19.0865 -15.1079   0.00    1.0
2017/07/19 08:24:40.800  -3961782.1167   3349107.4657   3698255.9813   2   7  27.3733  22.7203  23.5420  15.5079  19.0862 -15.1088   0.00    1.0
2017/07/19 08:24:41.000  -3961782.0337   3349107.7423   3698253.4925   2   7  27.3728  22.7212  23.5417  15.5082  19.0860 -15.1096   0.00    1.0
2017/07/19 08:24:41.200  -3961782.8051   3349109.2859   3698253.6777   2   7  27.3723  22.7220  23.5414  15.5085  19.0857 -15.1104   0.00    1.0
2017/07/19 08:24:41.400  -3961783.5836   3349111.2381   3698254.9999   2   7  27.3719  22.7229  23.5410  15.5087  19.0854 -15.1112   0.00    1.0
2017/07/19 08:24:41.600  -3961782.6493   3349111.0005   3698253.2965   2   7  27.3714  22.7237  23.5407  15.5090  19.0852 -15.1120   0.00    2.1
2017/07/19 08:24:41.800  -3961783.9553   3349112.1465   3698254.5286   2   7  27.3709  22.7246  23.5404  15.5093  19.0849 -15.1128   0.00    1.0
2017/07/19 08:24:42.000  -3961783.6381   3349111.6853   3698253.9712   2   7  27.3705  22.7254  23.5400  15.5095  19.0847 -15.1137   0.00    1.0
2017/07/19 08:24:42.200  -3961783.4191   3349110.7830   3698255.5764   2   7  27.3700  22.7263  23.5397  15.5098  19.0844 -15.1145   0.00    1.1
2017/07/19 08:24:42.400  -3961782.9819   3349110.4661   3698253.2230   2   7  27.3695  22.7271  23.5393  15.5101  19.0841 -15.1153   0.00    1.1
2017/07/19 08:24:42.600  -3961782.8716   3349109.7208   3698253.9127   2   7  27.3690  22.7280  23.5390  15.5104  19.0839 -15.1161   0.00    1.0
2017/07/19 08:24:42.800  -3961781.9086   3349107.0448   3698256.4094   2   7  27.3686  22.7288  23.5387  15.5106  19.0836 -15.1169   0.00    1.2
2017/07/19 08:24:43.000  -3961782.8276   3349106.3980   3698259.7150   2   7  27.3681  22.7297  23.5383  15.5109  19.0833 -15.1177   0.00    1.0
2017/07/19 08:24:43.200  -3961783.9197   3349107.0807   3698258.7330   2   7  27.3676  22.7305  23.5380  15.5112  19.0831 -15.1186   0.00    1.0
2017/07/19 08:24:43.400  -3961785.0474   3349107.9966   3698256.6508   2   7  27.3672  22.7314  23.5377  15.5114  19.0828 -15.1194   0.00    1.1
2017/07/19 08:24:43.600  -3961785.8603   3349108.4580   3698254.1956   2   7  27.3667  22.7322  23.5373  15.5117  19.0826 -15.1202   0.00    1.2
2017/07/19 08:24:45.400  -3961789.9266   3349104.7915   3698252.0960   2   7  27.3625  22.7399  23.5343  15.5141  19.0802 -15.1275   0.00    1.0
2017/07/19 08:24:45.600  -3961790.7264   3349105.3226   3698251.2466   2   7  27.3620  22.7407  23.5340  15.5144  19.0799 -15.1283   0.00    1.0
2017/07/19 08:24:45.800  -3961790.3391   3349104.2426   3698251.8078   2   7  27.3615  22.7415  23.5337  15.5146  19.0797 -15.1291   0.00    1.0
2017/07/19 08:24:46.000  -3961789.3685   3349103.3946   3698253.1438   2   7  27.3611  22.7424  23.5333  15.5149  19.0794 -15.1299   0.00    1.0
2017/07/19 08:24:46.200  -3961790.1830   3349104.4254   3698251.8753   2   7  27.3606  22.7432  23.5330  15.5152  19.0791 -15.1308   0.00    1.0
2017/07/19 08:24:46.400  -3961788.9437   3349103.1289   3698252.8768   2   7  27.3601  22.7441  23.5327  15.5154  19.0789 -15.1316   0.00    1.0
2017/07/19 08:24:46.600  -3961788.8627   3349103.1369   3698252.7920   2   7  27.3597  22.7449  23.5323  15.5157  19.0786 -15.1324   0.00    1.0
2017/07/19 08:24:46.800  -3961789.1218   3349103.9241   3698251.9160   2   7  27.3592  22.7458  23.5320  15.5160  19.0783 -15.1332   0.00    1.0
2017/07/19 08:24:47.000  -3961789.2883   3349103.5901   3698252.1495   2   7  27.3587  22.7466  23.5317  15.5162  19.0781 -15.1340   0.00    1.0
2017/07/19 08:24:47.200  -3961787.6978   3349101.9752   3698254.0024   2   7  27.3583  22.7475  23.5313  15.5165  19.0778 -15.1348   0.00    1.0
2017/07/19 08:24:47.400  -3961789.4657   3349103.5639   3698256.7342   2   7  27.3578  22.7483  23.5310  15.5168  19.0776 -15.1356   0.00    1.0
2017/07/19 08:24:47.600  -3961789.9762   3349105.0351   3698253.4368   2   7  27.3573  22.7492  23.5306  15.5170  19.0773 -15.1364   0.00    1.0
2017/07/19 08:24:47.800  -3961789.2530   3349104.9792   3698253.9276   2   7  27.3569  22.7500  23.5303  15.5173  19.0770 -15.1373   0.00    1.4
2017/07/19 08:24:48.000  -3961787.8162   3349104.3054   3698252.8169   2   7  27.3564  22.7509  23.5300  15.5176  19.0768 -15.1381   0.00    1.1
2017/07/19 08:24:48.200  -3961786.9726   3349103.8586   3698254.7619   2   7  27.3559  22.7517  23.5296  15.5178  19.0765 -15.1389   0.00    1.0
2017/07/19 08:24:48.400  -3961788.2139   3349105.6169   3698253.1641   2   7  27.3554  22.7526  23.5293  15.5181  19.0762 -15.1397   0.00    1.0
2017/07/19 08:24:48.600  -3961786.8168   3349104.9767   3698253.8076   2   7  27.3550  22.7534  23.5290  15.5184  19.0760 -15.1405   0.00    1.1
2017/07/19 08:24:48.800  -3961787.1481   3349106.6733   3698254.3756   2   7  27.3545  22.7542  23.5286  15.5186  19.0757 -15.1413   0.00    1.0
2017/07/19 08:24:49.000  -3961786.6194   3349107.3258   3698253.4807   2   7  27.3540  22.7551  23.5283  15.5189  19.0754 -15.1421   0.00    1.1
2017/07/19 08:24:49.200  -3961785.5496   3349107.6072   3698254.3110   1   7  27.2917  22.5681  23.3634  15.6911  19.2865 -15.3107   0.00    3.4
2017/07/19 08:24:49.400  -3961785.3920   3349108.2907   3698254.3100   2   7  27.3531  22.7568  23.5276  15.5194  19.0749 -15.1438   0.00    1.0
2017/07/19 08:24:49.600  -3961783.6356   3349106.8770   3698256.2575   2   7  27.3526  22.7576  23.5273  15.5197  19.0747 -15.1446   0.00    1.0
2017/07/19 08:24:49.800  -3961783.6598   3349106.0311   3698257.0573   2   7  27.3522  22.7585  23.5270  15.5200  19.0744 -15.1454   0.00    1.0
2017/07/19 08:24:50.000  -3961783.2070   3349107.5563   3698255.9769   2   7  27.3517  22.7593  23.5266  15.5202  19.0741 -15.1462   0.00    1.0
2017/07/19 08:24:50.200  -3961782.4017   3349107.4331   3698256.5531   2   7  27.3512  22.7602  23.5263  15.5205  19.0739 -15.1470   0.00    1.1
2017/07/19 08:24:50.400  -3961781.7223   3349106.3372   3698256.7922   2   7  27.3508  22.7610  23.5260  15.5207  19.0736 -15.1478   0.00    1.1
2017/07/19 08:24:50.600  -3961783.0091   3349108.5820   3698258.2724   2   7  27.3503  22.7619  23.5256  15.5210  19.0733 -15.1486   0.00    1.5
2017/07/19 08:24:50.800  -3961782.6594   3349108.9710   3698256.3587   2   7  27.3498  22.7627  23.5253  15.5213  19.0731 -15.1494   0.00    1.1
2017/07/19 08:24:51.000  -3961782.3791   3349107.9040   3698256.8646   2   7  27.3494  22.7635  23.5250  15.5215  19.0728 -15.1502   0.00    1.1
2017/07/19 08:24:51.200  -3961783.6312   3349108.9155   3698257.9871   2   7  27.3489  22.7644  23.5246  15.5218  19.0725 -15.1510   0.00    1.0
2017/07/19 08:24:51.400  -3961781.7816   3349108.7855   3698255.5725   2   7  27.3484  22.7652  23.5243  15.5221  19.0723 -15.1519   0.00    1.0
2017/07/19 08:24:51.600  -3961781.8244   3349108.6007   3698254.5016   2   7  27.3480  22.7661  23.5240  15.5223  19.0720 -15.1527   0.00    1.1
2017/07/19 08:24:51.800  -3961782.5580   3349109.1576   3698255.9740   2   7  27.3475  22.7669  23.5236  15.5226  19.0718 -15.1535   0.00    1.0
2017/07/19 08:24:52.000  -3961783.4510   3349109.5361   3698255.1657   2   7  27.3470  22.7678  23.5233  15.5228  19.0715 -15.1543   0.00    1.1
2017/07/19 08:24:53.600  -3961786.8051   3349106.0676   3698255.4844   2   7  27.3433  22.7745  23.5206  15.5249  19.0694 -15.1607   0.00    1.0
2017/07/19 08:24:54.800  -3961789.7136   3349104.1328   3698253.9590   2   7  27.3405  22.7796  23.5186  15.5265  19.0678 -15.1656   0.00    1.0
2017/07/19 08:24:55.000  -3961789.2162   3349102.7955   3698254.8750   2   7  27.3400  22.7804  23.5183  15.5267  19.0675 -15.1664   0.00    1.0
2017/07/19 08:24:55.200  -3961790.5711   3349104.5300   3698252.8759   2   7  27.3396  22.7812  23.5179  15.5270  19.0673 -15.1672   0.00    1.0
2017/07/19 08:24:55.400  -3961790.6113   3349104.4375   3698252.7374   2   7  27.3391  22.7821  23.5176  15.5272  19.0670 -15.1680   0.00    1.0
2017/07/19 08:24:55.600  -3961790.0306   3349103.5820   3698253.1983   2   7  27.3386  22.7829  23.5173  15.5275  19.0667 -15.1688   0.00    1.0
2017/07/19 08:24:55.800  -3961789.5981   3349104.4532   3698253.1868   2   7  27.3382  22.7838  23.5169  15.5278  19.0665 -15.1696   0.00    1.1
2017/07/19 08:24:56.000  -3961789.1013   3349104.0080   3698253.5774   2   7  27.3377  22.7846  23.5166  15.5280  19.0662 -15.1704   0.00    1.0
2017/07/19 08:24:56.200  -3961789.7599   3349104.3713   3698252.1555   2   7  27.3372  22.7854  23.5163  15.5283  19.0660 -15.1712   0.00    1.1
2017/07/19 08:24:56.400  -3961789.5386   3349104.7404   3698251.7838   2   7  27.3368  22.7863  23.5159  15.5285  19.0657 -15.1720   0.00    1.1
2017/07/19 08:24:56.600  -3961789.2962   3349105.0648   3698251.5697   2   7  27.3363  22.7871  23.5156  15.5288  19.0654 -15.1728   0.00    1.0
2017/07/19 08:24:56.800  -3961788.6651   3349104.8127   3698252.2159   2   7  27.3358  22.7880  23.5153  15.5290  19.0652 -15.1736   0.00    1.0
2017/07/19 08:24:57.000  -3961788.0518   3349104.8459   3698252.4862   2   7  27.3354  22.7888  23.5149  15.5293  19.0649 -15.1744   0.00    1.0
2017/07/19 08:24:57.200  -3961786.6264   3349103.4698   3698254.4255   2   7  27.3349  22.7897  23.5146  15.5296  19.0646 -15.1752   0.00    1.1
2017/07/19 08:24:57.400  -3961785.9996   3349103.6403   3698254.6433   2   7  27.3344  22.7905  23.5143  15.5298  19.0644 -15.1760   0.00    1.3
2017/07/19 08:24:57.600  -3961785.4107   3349103.8942   3698254.9980   2   7  27.3340  22.7913  23.5139  15.5301  19.0641 -15.1768   0.00    1.0
2017/07/19 08:24:57.800  -3961786.7939   3349107.2336   3698252.4161   2   7  27.3335  22.7922  23.5136  15.5303  19.0638 -15.1776   0.00    1.1
2017/07/19 08:24:58.000  -3961786.1872   3349107.3872   3698252.8124   2   7  27.3330  22.7930  23.5133  15.5306  19.0636 -15.1784   0.00    1.1
2017/07/19 08:24:58.200  -3961785.6732   3349107.8413   3698252.8359   2   7  27.3326  22.7939  23.5129  15.5308  19.0633 -15.1792   0.00    1.1
2017/07/19 08:24:58.400  -3961788.8748   3349109.4610   3698257.5686   2   7  27.3321  22.7947  23.5126  15.5311  19.0630 -15.1800   0.00    1.0
2017/07/19 08:24:58.600  -3961786.5633   3349109.3129   3698255.1415   2   7  27.3317  22.7955  23.5123  15.5313  19.0628 -15.1808   0.00    1.0
2017/07/19 08:24:58.800  -3961785.1716   3349107.9171   3698254.4874   2   7  27.3312  22.7964  23.5119  15.5316  19.0625 -15.1816   0.00    1.0
2017/07/19 08:24:59.000  -3961785.2985   3349109.0469   3698256.9560   2   7  27.3307  22.7972  23.5116  15.5319  19.0623 -15.1824   0.00    1.1
2017/07/19 08:24:59.200  -3961785.2547   3349108.8543   3698257.5122   2   7  27.3303  22.7981  23.5113  15.5321  19.0620 -15.1833   0.00    1.1
2017/07/19 08:24:59.400  -3961782.9856   3349107.8931   3698256.5325   2   7  27.3298  22.7989  23.5109  15.5324  19.0617 -15.1841   0.00    1.1
2017/07/19 08:24:59.600  -3961783.4190   3349108.4295   3698257.4633   2   7  27.3293  22.7997  23.5106  15.5326  19.0615 -15.1849   0.00    1.0
2017/07/19 08:24:59.800  -3961783.7086   3349109.7558   3698254.2212   2   7  27.3289  22.8006  23.5103  15.5329  19.0612 -15.1857   0.00    1.1
2017/07/19 08:25:00.000  -3961783.5655   3349109.3927   3698254.8577   2   7  27.3284  22.8014  23.5099  15.5331  19.0609 -15.1865   0.00    1.0
2017/07/19 08:25:00.200  -3961782.8246   3349107.9913   3698255.8815   2   7  27.3279  22.8023  23.5096  15.5334  19.0607 -15.1873   0.00    1.0
2017/07/19 08:25:00.400  -3961782.9375   3349107.7734   3698256.2763   2   7  27.3275  22.8031  23.5093  15.5336  19.0604 -15.1881   0.00    1.1
2017/07/19 08:25:00.600  -3961780.3953   3349105.3709   3698252.2298   2   7  27.3270  22.8039  23.5089  15.5339  19.0601 -15.1889   0.00    1.2
2017/07/19 08:25:00.800  -3961783.4626   3349107.3903   3698256.4477   2   7  27.3265  22.8048  23.5086  15.5341  19.0599 -15.1897   0.00    1.6
2017/07/19 08:25:01.000  -3961783.3794   3349106.4182   3698257.0383   2   7  27.3261  22.8056  23.5083  15.5344  19.0596 -15.1905   0.00    1.1
2017/07/19 08:25:01.200  -3961784.6902   3349107.4680   3698255.8100   2   7  27.3256  22.8064  23.5079  15.5346  19.0594 -15.1913   0.00    2.6
2017/07/19 08:25:01.400  -3961784.4918   3349106.3631   3698256.3027   2   7  27.3251  22.8073  23.5076  15.5349  19.0591 -15.1921   0.00    1.1
2017/07/19 08:25:01.600  -3961785.3869   3349106.6592   3698255.6797   2   7  27.3247  22.8081  23.5073  15.5351  19.0588 -15.1929   0.00    1.1
2017/07/19 08:25:02.600  -3961787.4384   3349103.9520   3698255.8365   2   7  27.3224  22.8123  23.5056  15.5364  19.0575 -15.1968   0.00    1.0
2017/07/19 08:25:03.800  -3961789.9089   3349103.4814   3698253.6802   2   7  27.3196  22.8173  23.5036  15.5379  19.0559 -15.2016   0.00    1.2
2017/07/19 08:25:06.000  -3961792.0732   3349104.6289   3698252.9094   2   7  27.3145  22.8265  23.4999  15.5406  19.0530 -15.2104   0.00    2.1
2017/07/19 08:25:06.200  -3961791.7264   3349103.8544   3698252.5541   2   7  27.3140  22.8273  23.4996  15.5409  19.0527 -15.2112   0.00    1.0
2017/07/19 08:25:08.000  -3961791.0007   3349102.6058   3698252.3564   2   7  27.3099  22.8349  23.4966  15.5431  19.0504 -15.2183   0.00    1.0
2017/07/19 08:25:08.200  -3961790.1029   3349101.3998   3698253.3608   2   7  27.3094  22.8357  23.4962  15.5433  19.0501 -15.2191   0.00    1.0
2017/07/19 08:25:08.400  -3961790.6868   3349102.4227   3698254.5445   2   7  27.3090  22.8365  23.4959  15.5436  19.0498 -15.2199   0.00    1.0
2017/07/19 08:25:08.600  -3961791.6145   3349103.7474   3698251.8317   2   7  27.3085  22.8374  23.4956  15.5438  19.0496 -15.2207   0.00    1.1
2017/07/19 08:25:08.800  -3961792.2072   3349104.6221   3698251.3731   2   7  27.3080  22.8382  23.4952  15.5440  19.0493 -15.2215   0.00    1.0
2017/07/19 08:25:09.200  -3961791.2533   3349105.7107   3698252.1226   2   7  27.3071  22.8399  23.4946  15.5445  19.0488 -15.2231   0.00    1.0
2017/07/19 08:25:09.800  -3961791.4243   3349104.0283   3698252.5473   2   7  27.3057  22.8423  23.4936  15.5453  19.0480 -15.2255   0.00    1.1
2017/07/19 08:25:10.000  -3961789.9921   3349102.0460   3698254.1259   2   7  27.3053  22.8432  23.4933  15.5455  19.0477 -15.2263   0.00    1.0
2017/07/19 08:25:10.200  -3961790.5732   3349103.0668   3698252.1704   2   7  27.3048  22.8440  23.4929  15.5458  19.0475 -15.2271   0.00    1.0
2017/07/19 08:25:10.400  -3961790.6291   3349105.4072   3698253.3866   2   7  27.3043  22.8448  23.4926  15.5460  19.0472 -15.2279   0.00    1.0
2017/07/19 08:25:10.600  -3961787.6506   3349101.4717   3698249.0972   2   7  27.3039  22.8457  23.4922  15.5462  19.0469 -15.2286   0.00    1.2
2017/07/19 08:25:10.800  -3961789.6038   3349101.7708   3698253.9015   2   7  27.3034  22.8465  23.4919  15.5465  19.0467 -15.2294   0.00    1.1
2017/07/19 08:25:11.000  -3961789.1244   3349105.1190   3698253.5636   2   7  27.3030  22.8473  23.4916  15.5467  19.0464 -15.2302   0.00    1.0
2017/07/19 08:25:11.200  -3961792.7244   3349106.9737   3698257.3243   2   7  27.3025  22.8482  23.4913  15.5470  19.0461 -15.2310   0.00    1.0
2017/07/19 08:25:11.400  -3961840.0389   3349003.8810   3698187.9997   2  12  25.1651   1.6050  17.6459   0.6113   3.0525 -19.9047   0.00    1.0
2017/07/19 08:25:11.600  -3961840.2158   3348999.1968   3698183.4913   2  12  25.1647   1.6050  17.6462   0.6167   3.0516 -19.9050   0.00    1.0
2017/07/19 08:25:11.800  -3961839.7519   3348998.9314   3698182.2494   2  13  25.1644   1.6049  17.6464   0.6223   3.0507 -19.9052   0.00    1.0
2017/07/19 08:25:12.000  -3961839.8130   3348997.4231   3698180.3601   2  13  25.1640   1.6049  17.6467   0.6277   3.0498 -19.9055   0.00    1.4
2017/07/19 08:25:12.200  -3961840.5396   3348997.8863   3698180.4850   2  13  25.1637   1.6049  17.6469   0.6331   3.0489 -19.9058   0.00    1.0
2017/07/19 08:25:12.400  -3961839.2781   3348997.5403   3698180.4784   2  13  25.1633   1.6049  17.6471   0.6385   3.0481 -19.9060   0.00    1.0
2017/07/19 08:25:12.600  -3961837.8023   3348998.3481   3698181.9144   2  13  25.1630   1.6049  17.6474   0.6438   3.0472 -19.9063   0.00    1.0
2017/07/19 08:25:12.800  -3961839.8694   3348999.2575   3698181.2547   2  12  25.1626   1.6049  17.6476   0.6491   3.0463 -19.9065   0.00    1.0
2017/07/19 08:25:13.000  -3961839.7923   3348996.4420   3698178.1275   2  13  25.1623   1.6049  17.6478   0.6543   3.0454 -19.9068   0.00    1.0
2017/07/19 08:25:13.200  -3961840.4081   3348996.6641   3698177.3784   2  13  25.1619   1.6048  17.6481   0.6595   3.0445 -19.9071   0.00    1.0
2017/07/19 08:25:13.400  -3961839.6470   3348996.2209   3698177.7377   2  13  25.1616   1.6048  17.6483   0.6646   3.0436 -19.9073   0.00    1.0
2017/07/19 08:25:13.600  -3961838.7283   3348997.5737   3698180.3859   2  12  25.1612   1.6048  17.6485   0.6697   3.0427 -19.9076   0.00    1.0
2017/07/19 08:25:13.800  -3961837.9189   3348995.8373   3698179.1162   2  12  25.1609   1.6048  17.6488   0.6747   3.0418 -19.9078   0.00    1.0
2017/07/19 08:25:14.000  -3961839.5289   3348995.9896   3698178.2581   2  13  25.1606   1.6048  17.6490   0.6798   3.0409 -19.9081   0.00    1.0
2017/07/19 08:25:14.200  -3961838.6582   3348997.2837   3698181.3343   2  13  25.1602   1.6048  17.6492   0.6848   3.0401 -19.9084   0.00    1.0
2017/07/19 08:25:14.400  -3961786.2099   3349108.3512   3698254.0787   2   7  27.2951  22.8615  23.4859  15.5508  19.0419 -15.2437   0.00    1.1
2017/07/19 08:25:14.800  -3961785.7984   3349107.9587   3698254.9937   2   7  27.2942  22.8631  23.4853  15.5513  19.0414 -15.2452   0.00    1.2
2017/07/19 08:25:19.400  -3961780.3228   3349111.8349   3698257.0198   2   7  27.2836  22.8822  23.4776  15.5567  19.0353 -15.2633   0.00    1.0
2017/07/19 08:25:20.000  -3961780.6734   3349112.2922   3698255.6763   2   7  27.2823  22.8847  23.4766  15.5574  19.0345 -15.2657   0.00    1.2
2017/07/19 08:25:20.200  -3961781.0286   3349112.8812   3698255.0893   2   7  27.2818  22.8855  23.4763  15.5577  19.0342 -15.2665   0.00    1.0
2017/07/19 08:25:20.400  -3961780.2649   3349111.3781   3698256.4175   2   7  27.2814  22.8863  23.4759  15.5579  19.0339 -15.2672   0.00    1.0
2017/07/19 08:25:20.600  -3961779.9512   3349110.8757   3698256.6956   2   7  27.2809  22.8872  23.4756  15.5581  19.0337 -15.2680   0.00    1.2
2017/07/19 08:25:20.800  -3961780.3460   3349111.2779   3698256.1359   2   7  27.2804  22.8880  23.4753  15.5584  19.0334 -15.2688   0.00    1.0
2017/07/19 08:25:21.000  -3961781.0982   3349112.4278   3698254.7127   2   6  27.2800  22.8888  23.4749  15.5586  19.0331 -15.2696   0.00    1.0
2017/07/19 08:25:21.200  -3961780.5085   3349111.5165   3698255.1943   2   7  27.2795  22.8896  23.4746  15.5588  19.0329 -15.2704   0.00    1.0
2017/07/19 08:25:21.400  -3961780.1128   3349110.9083   3698255.2297   2   7  27.2791  22.8905  23.4743  15.5591  19.0326 -15.2712   0.00    1.1
2017/07/19 08:25:21.600  -3961780.4440   3349111.1060   3698254.6808   2   7  27.2786  22.8913  23.4739  15.5593  19.0323 -15.2719   0.00    1.0
2017/07/19 08:25:21.800  -3961779.1461   3349108.4885   3698257.0386   2   7  27.2781  22.8921  23.4736  15.5595  19.0321 -15.2727   0.00    1.0
2017/07/19 08:25:22.000  -3961779.4544   3349108.5431   3698256.8278   2   7  27.2777  22.8929  23.4733  15.5598  19.0318 -15.2735   0.00    1.5
2017/07/19 08:25:22.200  -3961781.0338   3349110.3112   3698254.6674   2   7  27.2772  22.8938  23.4729  15.5600  19.0315 -15.2743   0.00    1.1
2017/07/19 08:25:22.400  -3961780.9388   3349109.5538   3698254.9803   2   7  27.2768  22.8946  23.4726  15.5602  19.0313 -15.2751   0.00    1.0
2017/07/19 08:25:22.600  -3961780.6459   3349108.2984   3698255.8744   2   7  27.2763  22.8954  23.4723  15.5604  19.0310 -15.2758   0.00    1.3
2017/07/19 08:25:22.800  -3961780.0287   3349108.9603   3698251.6567   2   6  27.2759  22.8962  23.4719  15.5607  19.0307 -15.2766   0.00    1.1
2017/07/19 08:25:23.000  -3961780.3221   3349108.6216   3698251.6853   2   6  27.2754  22.8971  23.4716  15.5609  19.0305 -15.2774   0.00    1.0
2017/07/19 08:25:23.200  -3961785.2888   3349111.9514   3698252.5176   2   5  27.2750  22.8979  23.4713  15.5611  19.0302 -15.2782   0.00    1.0
2017/07/19 08:25:23.400  -3961785.5582   3349111.1271   3698253.2573   2   6  27.2745  22.8987  23.4710  15.5614  19.0300 -15.2790   0.00    1.0
2017/07/19 08:25:23.600  -3961782.5288   3349107.3987   3698254.0366   2   7  27.2740  22.8995  23.4706  15.5616  19.0297 -15.2797   0.00    1.0
2017/07/19 08:25:23.800  -3961784.9938   3349108.8523   3698255.2818   2   7  27.2736  22.9003  23.4703  15.5618  19.0294 -15.2805   0.00    1.0
2017/07/19 08:25:24.000  -3961786.8955   3349111.6626   3698255.3880   2   7  27.2731  22.9012  23.4700  15.5621  19.0292 -15.2813   0.00    2.3
2017/07/19 08:25:24.200  -3961786.1126   3349108.8258   3698254.2851   2   7  27.2727  22.9020  23.4696  15.5623  19.0289 -15.2821   0.00    1.0
2017/07/19 08:25:24.400  -3961786.5536   3349108.3127   3698254.4044   2   7  27.2722  22.9028  23.4693  15.5625  19.0286 -15.2829   0.00    1.0
2017/07/19 08:25:24.600  -3961787.2821   3349108.1052   3698254.5457   2   7  27.2718  22.9036  23.4690  15.5627  19.0284 -15.2836   0.00    1.0
2017/07/19 08:25:24.800  -3961837.4222   3348995.7660   3698178.1586   2  12  25.1420   1.6040  17.6615   0.9105   2.9925 -19.9219   0.00    1.1
2017/07/19 08:25:25.000  -3961837.3332   3348995.7968   3698177.0710   2  12  25.1416   1.6040  17.6617   0.9142   2.9916 -19.9222   0.00    1.1
2017/07/19 08:25:25.200  -3961840.4102   3348996.6949   3698179.0430   2  13  25.1413   1.6040  17.6619   0.9179   2.9907 -19.9224   0.00    1.0
2017/07/19 08:25:25.400  -3961838.5468   3348997.5915   3698178.6185   2  12  25.1409   1.6040  17.6621   0.9216   2.9898 -19.9227   0.00    1.0
2017/07/19 08:25:25.600  -3961837.3732   3349000.1833   3698183.2698   2  13  25.1406   1.6040  17.6624   0.9253   2.9889 -19.9229   0.00    1.2
2017/07/19 08:25:25.800  -3961839.2278   3348997.3128   3698180.9670   2  14  25.1403   1.6040  17.6626   0.9289   2.9880 -19.9232   0.00    1.1
2017/07/19 08:25:26.000  -3961840.3323   3348998.7743   3698181.1713   2  14  25.1399   1.6039  17.6628   0.9325   2.9871 -19.9234   0.00    1.0
2017/07/19 08:25:26.200  -3961839.1056   3348998.6036   3698183.5227   2  13  25.1396   1.6039  17.6631   0.9362   2.9862 -19.9237   0.00    1.0
2017/07/19 08:25:26.400  -3961790.6629   3349101.5667   3698254.9935   2   7  27.2677  22.9110  23.4660  15.5648  19.0260 -15.2906   0.00    1.1
2017/07/19 08:25:26.600  -3961790.3724   3349100.8227   3698254.6086   2   7  27.2672  22.9119  23.4656  15.5650  19.0257 -15.2914   0.00    1.0
2017/07/19 08:25:26.800  -3961790.2884   3349101.1407   3698253.2017   2   7  27.2667  22.9127  23.4653  15.5652  19.0254 -15.2922   0.00    1.1
2017/07/19 08:25:27.000  -3961790.8360   3349103.3936   3698251.1324   2   7  27.2663  22.9135  23.4650  15.5655  19.0252 -15.2930   0.00    1.0
2017/07/19 08:25:27.200  -3961791.0720   3349102.3534   3698251.2579   2   7  27.2658  22.9143  23.4646  15.5657  19.0249 -15.2938   0.00    1.3
2017/07/19 08:25:27.400  -3961791.8887   3349105.0664   3698250.4638   2   7  27.2654  22.9151  23.4643  15.5659  19.0247 -15.2945   0.00    1.0
2017/07/19 08:25:28.200  -3961792.1711   3349102.6123   3698251.0342   2   7  27.2636  22.9184  23.4630  15.5668  19.0236 -15.2976   0.00    1.5
2017/07/19 08:25:28.400  -3961792.4435   3349101.8758   3698251.1964   2   7  27.2631  22.9192  23.4626  15.5671  19.0233 -15.2984   0.00    1.0
2017/07/19 08:25:29.000  -3961790.9026   3349101.4960   3698253.4441   2   7  27.2617  22.9217  23.4616  15.5677  19.0225 -15.3007   0.00    1.3
2017/07/19 08:25:29.200  -3961790.9946   3349101.8991   3698253.5846   2   7  27.2613  22.9225  23.4613  15.5680  19.0223 -15.3015   0.00    1.0
2017/07/19 08:25:31.800  -3961786.6371   3349108.4343   3698254.7154   2   7  27.2554  22.9332  23.4570  15.5709  19.0188 -15.3116   0.00    1.1
2017/07/19 08:25:32.000  -3961784.5014   3349107.0668   3698252.3431   2   7  27.2549  22.9340  23.4567  15.5711  19.0185 -15.3124   0.00    1.0
2017/07/19 08:25:32.200  -3961785.3216   3349107.3204   3698251.4796   2   7  27.2545  22.9348  23.4563  15.5713  19.0183 -15.3131   0.00    1.0
2017/07/19 08:25:32.400  -3961786.4918   3349108.7183   3698255.0548   2   7  27.2540  22.9357  23.4560  15.5715  19.0180 -15.3139   0.00    1.0
2017/07/19 08:25:32.600  -3961785.8595   3349109.0816   3698252.0157   2   7  27.2536  22.9365  23.4557  15.5718  19.0177 -15.3147   0.00    1.0
2017/07/19 08:25:32.800  -3961785.6800   3349108.8965   3698250.1806   2   5  27.2531  22.9373  23.4553  15.5720  19.0175 -15.3155   0.00    1.0
2017/07/19 08:25:33.000  -3961788.1634   3349109.2179   3698253.3427   2   7  27.2526  22.9381  23.4550  15.5722  19.0172 -15.3162   0.00    1.2
2017/07/19 08:25:33.200  -3961786.8273   3349108.4477   3698253.7410   2   7  27.2522  22.9389  23.4547  15.5724  19.0169 -15.3170   0.00    1.0
2017/07/19 08:25:33.400  -3961786.7799   3349107.3524   3698254.4628   2   7  27.2517  22.9398  23.4543  15.5726  19.0167 -15.3178   0.00    1.0
2017/07/19 08:25:33.600  -3961786.0883   3349106.7986   3698255.3399   2   7  27.2513  22.9406  23.4540  15.5729  19.0164 -15.3186   0.00    1.3
2017/07/19 08:25:33.800  -3961785.9557   3349105.2752   3698256.2341   2   7  27.2508  22.9414  23.4537  15.5731  19.0161 -15.3193   0.00    1.0
2017/07/19 08:25:34.000  -3961787.3098   3349105.6846   3698254.5086   2   7  27.2504  22.9422  23.4533  15.5733  19.0159 -15.3201   0.00    1.0
2017/07/19 08:25:34.200  -3961787.0358   3349105.2337   3698252.8859   2   7  27.2499  22.9430  23.4530  15.5735  19.0156 -15.3209   0.00    1.2
2017/07/19 08:25:34.400  -3961788.3181   3349104.9444   3698253.8314   2   7  27.2495  22.9438  23.4527  15.5737  19.0153 -15.3216   0.00    1.0
2017/07/19 08:25:34.600  -3961789.7623   3349105.3525   3698252.6899   2   7  27.2490  22.9447  23.4523  15.5740  19.0151 -15.3224   0.00    1.0
2017/07/19 08:25:34.800  -3961789.8063   3349104.0723   3698253.2927   2   7  27.2486  22.9455  23.4520  15.5742  19.0148 -15.3232   0.00    1.1
2017/07/19 08:25:35.000  -3961790.3670   3349104.6062   3698252.1778   2   7  27.2481  22.9463  23.4517  15.5744  19.0146 -15.3239   0.00    1.0
2017/07/19 08:25:35.200  -3961791.3217   3349105.6135   3698249.5578   2   6  27.2477  22.9471  23.4514  15.5746  19.0143 -15.3247   0.00    1.1
2017/07/19 08:25:35.400  -3961792.7237   3349105.6345   3698249.7545   2   7  27.2472  22.9479  23.4510  15.5748  19.0140 -15.3255   0.00    1.0
2017/07/19 08:25:35.600  -3961794.1452   3349105.6580   3698250.6166   2   7  27.2468  22.9487  23.4507  15.5750  19.0138 -15.3263   0.00    1.0
2017/07/19 08:25:35.800  -3961793.2528   3349103.6563   3698251.3626   2   7  27.2463  22.9495  23.4504  15.5753  19.0135 -15.3270   0.00    1.0
2017/07/19 08:25:36.000  -3961791.9004   3349103.6634   3698250.2372   2   7  27.2459  22.9504  23.4500  15.5755  19.0132 -15.3278   0.00    1.0
2017/07/19 08:25:36.200  -3961791.6077   3349102.3399   3698251.0285   2   7  27.2454  22.9512  23.4497  15.5757  19.0130 -15.3286   0.00    1.0
2017/07/19 08:25:36.400  -3961791.5424   3349103.4929   3698251.4730   2   7  27.2449  22.9520  23.4494  15.5759  19.0127 -15.3293   0.00    1.0
2017/07/19 08:25:36.600  -3961793.3231   3349104.6360   3698249.6504   2   7  27.2445  22.9528  23.4490  15.5761  19.0124 -15.3301   0.00    1.0
2017/07/19 08:25:41.600  -3961787.5542   3349109.8197   3698251.4909   2   6  27.2332  22.9732  23.4407  15.5815  19.0058 -15.3493   0.00    1.3
2017/07/19 08:25:41.800  -3961789.2549   3349109.4362   3698253.2517   2   7  27.2327  22.9740  23.4404  15.5817  19.0055 -15.3501   0.00    1.0
2017/07/19 08:25:42.000  -3961790.0762   3349110.8545   3698253.1002   2   7  27.2323  22.9748  23.4401  15.5820  19.0052 -15.3508   0.00    1.0
2017/07/19 08:25:42.200  -3961788.4070   3349108.9425   3698250.4412   2   5  27.2318  22.9756  23.4397  15.5822  19.0050 -15.3516   0.00    1.0
2017/07/19 08:25:42.400  -3961789.1377   3349109.2334   3698250.4722   2   5  27.2314  22.9764  23.4394  15.5824  19.0047 -15.3524   0.00    1.0
2017/07/19 08:25:42.600  -3961787.9600   3349107.1383   3698251.4341   2   7  27.2309  22.9773  23.4391  15.5826  19.0044 -15.3531   0.00    1.1
2017/07/19 08:25:42.800  -3961839.1631   3348996.7824   3698179.4621   2  12  25.1118   1.6031  17.6814   1.1982   2.9103 -19.9443   0.00    1.0
2017/07/19 08:25:43.000  -3961838.2095   3348999.6463   3698183.1099   2  13  25.1115   1.6031  17.6816   1.2010   2.9094 -19.9445   0.00    1.0
2017/07/19 08:25:43.200  -3961838.5791   3348996.5344   3698179.1504   2  13  25.1111   1.6031  17.6819   1.2038   2.9085 -19.9447   0.00    1.0
2017/07/19 08:25:43.400  -3961840.4998   3348993.1409   3698176.5383   2  13  25.1108   1.6031  17.6821   1.2065   2.9075 -19.9450   0.00    1.0
2017/07/19 08:25:43.600  -3961841.8964   3348995.1840   3698175.3041   2  13  25.1105   1.6031  17.6823   1.2093   2.9066 -19.9452   0.00    1.0
2017/07/19 08:25:43.800  -3961842.0938   3348996.2849   3698177.9182   2  13  25.1101   1.6030  17.6825   1.2121   2.9057 -19.9455   0.00    1.0
2017/07/19 08:25:44.000  -3961843.9823   3348991.2777   3698171.8413   2  12  25.1098   1.6030  17.6827   1.2148   2.9048 -19.9457   0.00    1.2
2017/07/19 08:25:44.200  -3961843.6605   3348993.2181   3698173.1711   2  12  25.1095   1.6030  17.6829   1.2176   2.9038 -19.9459   0.00    1.1
2017/07/19 08:25:44.400  -3961792.5473   3349103.9871   3698249.3960   2   7  27.2269  22.9846  23.4361  15.5845  19.0020 -15.3600   0.00    1.0
2017/07/19 08:25:44.600  -3961794.5775   3349104.2694   3698251.3485   2   7  27.2265  22.9854  23.4358  15.5847  19.0018 -15.3607   0.00    1.0
2017/07/19 08:25:44.800  -3961792.0727   3349103.4418   3698250.1455   2   7  27.2260  22.9862  23.4354  15.5849  19.0015 -15.3615   0.00    1.1
2017/07/19 08:25:45.000  -3961791.7078   3349101.4221   3698250.4004   2   7  27.2256  22.9870  23.4351  15.5851  19.0012 -15.3623   0.00    1.0
2017/07/19 08:25:45.200  -3961790.8339   3349102.4764   3698252.2148   2   7  27.2251  22.9878  23.4348  15.5853  19.0010 -15.3630   0.00    1.1
2017/07/19 08:25:45.400  -3961792.0309   3349102.1390   3698250.7270   2   7  27.2247  22.9886  23.4344  15.5855  19.0007 -15.3638   0.00    1.3
2017/07/19 08:25:45.600  -3961792.2347   3349101.3844   3698251.0355   2   7  27.2242  22.9894  23.4341  15.5857  19.0004 -15.3646   0.00    1.0
2017/07/19 08:25:45.800  -3961792.3538   3349102.2673   3698251.0005   2   7  27.2238  22.9902  23.4338  15.5860  19.0002 -15.3653   0.00    1.1
2017/07/19 08:26:38.400  -3961867.3944   3348994.2093   3698205.2976   2  16  21.7223  29.9671  21.5623  -5.3892  -5.4108 -20.7747   0.00    1.0
2017/07/19 08:26:45.800  -3961868.3212   3348993.3583   3698203.2897   2  16  21.7076  29.9641  21.5964  -5.5109  -5.5263 -20.7649   0.00    1.0
2017/07/19 08:26:46.000  -3961867.3980   3348993.3871   3698204.1935   2  16  21.7072  29.9640  21.5973  -5.5142  -5.5294 -20.7646   0.00    1.0
2017/07/19 08:26:46.200  -3961868.9473   3348993.3358   3698202.8508   2  16  21.7068  29.9640  21.5982  -5.5175  -5.5325 -20.7644   0.00    1.0
2017/07/19 08:26:46.400  -3961868.0335   3348993.5062   3698203.9389   2  16  21.7064  29.9639  21.5992  -5.5207  -5.5356 -20.7641   0.00    1.1
2017/07/19 08:26:46.600  -3961865.7534   3348993.7674   3698206.4984   2  16  21.7060  29.9638  21.6001  -5.5240  -5.5387 -20.7638   0.00    1.0
2017/07/19 08:26:46.800  -3961866.0385   3348993.8154   3698206.3336   2  16  21.7056  29.9637  21.6010  -5.5273  -5.5418 -20.7636   0.00    1.0
2017/07/19 08:26:47.000  -3961868.7787   3348993.6079   3698203.6846   2  16  21.7052  29.9636  21.6020  -5.5306  -5.5449 -20.7633   0.00    1.0
2017/07/19 08:26:47.200  -3961867.4214   3348993.6387   3698204.9234   2  16  21.7048  29.9635  21.6029  -5.5339  -5.5481 -20.7630   0.00    1.2
2017/07/19 08:26:47.400  -3961867.2813   3348993.6058   3698204.9508   2  16  21.7044  29.9635  21.6038  -5.5372  -5.5512 -20.7627   0.00    1.1
2017/07/19 08:26:47.600  -3961869.3028   3348993.4038   3698202.9231   2  16  21.7040  29.9634  21.6048  -5.5404  -5.5543 -20.7625   0.00    1.1
2017/07/19 08:26:50.000  -3961869.7528   3348993.2234   3698202.3102   2  16  21.6991  29.9623  21.6161  -5.5798  -5.5915 -20.7592   0.00    1.0
2017/07/19 08:26:50.200  -3961869.1493   3348993.2616   3698203.0652   2  16  21.6987  29.9622  21.6170  -5.5831  -5.5946 -20.7589   0.00    1.2
2017/07/19 08:26:50.400  -3961869.7252   3348993.2953   3698202.5182   2  16  21.6983  29.9622  21.6180  -5.5864  -5.5977 -20.7586   0.00    1.0
2017/07/19 08:26:50.600  -3961869.7859   3348993.3830   3698202.7641   2  16  21.6979  29.9621  21.6189  -5.5897  -5.6008 -20.7583   0.00    1.0
2017/07/19 08:26:50.800  -3961869.4805   3348993.4059   3698203.2017   2  16  21.6975  29.9620  21.6199  -5.5930  -5.6039 -20.7581   0.00    1.0
2017/07/19 08:26:51.000  -3961869.9705   3348993.4119   3698202.7500   2  16  21.6971  29.9619  21.6208  -5.5962  -5.6070 -20.7578   0.00    1.0
2017/07/19 08:26:51.600  -3961870.0697   3348993.7930   3698203.2729   2  16  21.6958  29.9616  21.6237  -5.6061  -5.6163 -20.7569   0.00    1.0
2017/07/19 08:26:52.600  -3961870.1619   3348993.7344   3698203.0934   2  16  21.6938  29.9612  21.6284  -5.6225  -5.6317 -20.7555   0.00    1.0
2017/07/19 08:26:53.000  -3961870.6955   3348993.7860   3698202.5333   2  16  21.6930  29.9610  21.6304  -5.6290  -5.6379 -20.7550   0.00    1.0
2017/07/19 08:26:54.600  -3961870.7330   3348993.6428   3698202.9062   2  16  21.6897  29.9603  21.6380  -5.6553  -5.6626 -20.7527   0.00    1.0
2017/07/19 08:26:55.400  -3961870.8650   3348993.6181   3698202.6694   2  16  21.6880  29.9599  21.6419  -5.6684  -5.6750 -20.7516   0.00    1.0
2017/07/19 08:26:57.400  -3961870.9136   3348993.8122   3698203.1610   2  16  21.6839  29.9590  21.6516  -5.7011  -5.7058 -20.7487   0.00    1.0
2017/07/19 08:26:58.000  -3961870.8185   3348993.8902   3698203.3196   2  16  21.6827  29.9587  21.6545  -5.7110  -5.7150 -20.7478   0.00    1.0
2017/07/19 08:26:58.200  -3961871.8390   3348993.7874   3698202.2401   2  16  21.6822  29.9586  21.6555  -5.7142  -5.7181 -20.7475   0.00    1.1
2017/07/19 08:26:58.800  -3961870.5584   3348993.9125   3698203.7120   2  16  21.6810  29.9584  21.6584  -5.7241  -5.7273 -20.7467   0.00    1.0
2017/07/19 08:26:59.000  -3961871.2910   3348993.9368   3698203.0327   2  16  21.6806  29.9583  21.6594  -5.7273  -5.7304 -20.7464   0.00    1.0
2017/07/19 08:26:59.200  -3961870.7627   3348994.1857   3698203.8030   2  16  21.6802  29.9582  21.6603  -5.7306  -5.7335 -20.7461   0.00    1.0
2017/07/19 08:26:59.400  -3961871.0538   3348994.2234   3698203.7443   2  16  21.6797  29.9581  21.6613  -5.7339  -5.7365 -20.7458   0.00    1.0
2017/07/19 08:26:59.600  -3961869.5685   3348994.3334   3698205.3325   2  16  21.6793  29.9580  21.6623  -5.7372  -5.7396 -20.7455   0.00    1.0
2017/07/19 08:26:59.800  -3961871.8515   3348994.1263   3698202.9045   2  16  21.6789  29.9579  21.6633  -5.7404  -5.7427 -20.7452   0.00    1.0
2017/07/19 08:27:00.000  -3961872.9032   3348993.9469   3698201.9167   2  16  21.6785  29.9578  21.6643  -5.7437  -5.7458 -20.7449   0.00    1.0
2017/07/19 08:27:00.800  -3961871.4837   3348994.1584   3698203.3128   2  16  21.6768  29.9574  21.6682  -5.7568  -5.7580 -20.7437   0.00    1.0
2017/07/19 08:27:01.000  -3961872.9577   3348994.0050   3698201.8005   2  16  21.6764  29.9573  21.6692  -5.7601  -5.7611 -20.7435   0.00    1.0
2017/07/19 08:27:01.200  -3961872.1589   3348994.3365   3698202.8547   2  16  21.6760  29.9572  21.6701  -5.7633  -5.7642 -20.7432   0.00    1.0
2017/07/19 08:27:02.000  -3961873.3041   3348994.3346   3698202.1320   2  16  21.6743  29.9568  21.6741  -5.7764  -5.7765 -20.7420   0.00    1.0
2017/07/19 08:27:02.400  -3961872.2001   3348994.5359   3698203.5545   2  16  21.6734  29.9566  21.6761  -5.7830  -5.7826 -20.7414   0.00    1.0
2017/07/19 08:27:03.000  -3961870.9617   3348994.7064   3698204.8490   2  16  21.6722  29.9564  21.6790  -5.7928  -5.7918 -20.7405   0.00    1.0
2017/07/19 08:27:03.200  -3961872.1725   3348994.8204   3698203.8658   2  16  21.6718  29.9563  21.6800  -5.7961  -5.7949 -20.7402   0.00    1.0
2017/07/19 08:27:03.400  -3961873.1546   3348994.7637   3698202.8958   2  16  21.6713  29.9562  21.6810  -5.7994  -5.7979 -20.7399   0.00    1.0
2017/07/19 08:27:03.600  -3961873.1535   3348994.5382   3698202.6310   2  16  21.6709  29.9561  21.6820  -5.8026  -5.8010 -20.7396   0.00    1.0
2017/07/19 08:27:03.800  -3961873.9739   3348994.3838   3698201.8979   2  16  21.6705  29.9560  21.6830  -5.8059  -5.8041 -20.7393   0.00    1.1
2017/07/19 08:27:04.000  -3961872.8616   3348994.5088   3698203.1874   2  16  21.6701  29.9559  21.6840  -5.8092  -5.8071 -20.7390   0.00    1.4
2017/07/19 08:27:04.200  -3961873.1439   3348994.4940   3698202.8206   2  16  21.6696  29.9558  21.6850  -5.8124  -5.8102 -20.7387   0.00    1.0
2017/07/19 08:27:04.400  -3961870.5499   3348994.7217   3698205.4099   2  16  21.6692  29.9557  21.6860  -5.8157  -5.8133 -20.7384   0.00    1.0
2017/07/19 08:27:04.600  -3961872.1311   3348994.7008   3698204.0279   2  16  21.6688  29.9556  21.6870  -5.8190  -5.8163 -20.7381   0.00    1.1
2017/07/19 08:27:05.800  -3961874.6802   3348994.3249   3698201.4152   2  16  21.6663  29.9550  21.6930  -5.8386  -5.8347 -20.7363   0.00    1.1
2017/07/19 08:27:06.000  -3961871.1042   3348994.5657   3698205.0715   2  16  21.6658  29.9549  21.6940  -5.8419  -5.8377 -20.7360   0.00    1.0
2017/07/19 08:27:06.200  -3961870.9433   3348994.5346   3698205.0530   2  16  21.6654  29.9548  21.6950  -5.8452  -5.8408 -20.7357   0.00    1.0
2017/07/19 08:27:06.400  -3961872.6983   3348994.3894   3698203.3267   2  16  21.6650  29.9547  21.6960  -5.8484  -5.8439 -20.7354   0.00    1.2
2017/07/19 08:27:06.600  -3961872.9947   3348994.4237   3698202.9796   2  16  21.6645  29.9546  21.6970  -5.8517  -5.8469 -20.7351   0.00    1.0
2017/07/19 08:27:06.800  -3961873.6582   3348994.3267   3698202.3892   2  16  21.6641  29.9545  21.6980  -5.8550  -5.8500 -20.7348   0.00    1.1
2017/07/19 08:27:07.000  -3961872.3303   3348994.4484   3698203.6175   2  16  21.6637  29.9544  21.6990  -5.8583  -5.8530 -20.7345   0.00    1.0
2017/07/19 08:27:07.200  -3961874.0191   3348994.3366   3698202.0689   2  16  21.6633  29.9543  21.7000  -5.8615  -5.8561 -20.7342   0.00    1.0
2017/07/19 08:27:07.400  -3961873.7116   3348994.2390   3698202.2181   2  16  21.6628  29.9542  21.7010  -5.8648  -5.8591 -20.7338   0.00    1.0
2017/07/19 08:27:07.600  -3961873.5057   3348994.3253   3698202.5338   2  16  21.6624  29.9541  21.7020  -5.8681  -5.8622 -20.7335   0.00    1.0
2017/07/19 08:27:07.800  -3961871.8091   3348994.2904   3698204.0080   2  16  21.6620  29.9540  21.7030  -5.8713  -5.8653 -20.7332   0.00    1.1
2017/07/19 08:27:08.000  -3961872.8012   3348994.1284   3698203.0594   2  16  21.6616  29.9539  21.7041  -5.8746  -5.8683 -20.7329   0.00    1.0
2017/07/19 08:27:08.200  -3961870.7449   3348994.2177   3698205.0571   2  16  21.6611  29.9538  21.7051  -5.8779  -5.8714 -20.7326   0.00    1.1
2017/07/19 08:27:08.400  -3961871.4445   3348994.0379   3698204.1668   2  16  21.6607  29.9537  21.7061  -5.8812  -5.8744 -20.7323   0.00    1.0
2017/07/19 08:27:08.600  -3961870.1262   3348993.8706   3698205.2219   2  16  21.6603  29.9536  21.7071  -5.8844  -5.8775 -20.7320   0.00    1.1
2017/07/19 08:27:08.800  -3961871.7355   3348993.6689   3698203.4093   2  16  21.6599  29.9535  21.7081  -5.8877  -5.8805 -20.7317   0.00    1.0
2017/07/19 08:27:09.000  -3961873.8747   3348993.3685   3698201.0911   2  16  21.6594  29.9534  21.7091  -5.8910  -5.8836 -20.7314   0.00    1.0
2017/07/19 08:27:09.200  -3961870.7058   3348993.5785   3698204.1547   2  16  21.6590  29.9533  21.7101  -5.8942  -5.8866 -20.7311   0.00    1.0
2017/07/19 08:27:09.400  -3961870.1537   3348993.5754   3698204.4661   2  16  21.6586  29.9532  21.7111  -5.8975  -5.8897 -20.7308   0.00    1.1
2017/07/19 08:27:09.600  -3961870.2709   3348993.5140   3698204.2624   2  16  21.6581  29.9531  21.7122  -5.9008  -5.8927 -20.7305   0.00    1.0
2017/07/19 08:27:09.800  -3961869.5233   3348993.4906   3698205.0714   2  16  21.6577  29.9530  21.7132  -5.9041  -5.8958 -20.7302   0.00    1.0
2017/07/19 08:27:10.000  -3961869.8750   3348993.6111   3698204.9963   2  16  21.6573  29.9529  21.7142  -5.9073  -5.8988 -20.7298   0.00    1.0
2017/07/19 08:27:10.200  -3961870.0407   3348993.5692   3698204.8207   2  16  21.6568  29.9528  21.7152  -5.9106  -5.9019 -20.7295   0.00    1.0
2017/07/19 08:27:10.400  -3961870.2555   3348993.4698   3698204.5304   2  16  21.6564  29.9527  21.7162  -5.9139  -5.9049 -20.7292   0.00    1.1
2017/07/19 08:27:10.600  -3961871.5891   3348993.4999   3698203.3341   2  16  21.6560  29.9526  21.7172  -5.9171  -5.9080 -20.7289   0.00    1.0
2017/07/19 08:27:10.800  -3961872.0235   3348993.5663   3698203.0887   2  16  21.6556  29.9525  21.7183  -5.9204  -5.9110 -20.7286   0.00    1.0
2017/07/19 08:27:11.000  -3961869.8193   3348993.8281   3698205.5060   2  16  21.6551  29.9524  21.7193  -5.9237  -5.9141 -20.7283   0.00    1.0
2017/07/19 08:27:11.200  -3961873.4539   3348993.4994   3698201.8033   2  16  21.6547  29.9523  21.7203  -5.9269  -5.9171 -20.7280   0.00    1.0
2017/07/19 08:27:11.400  -3961874.6091   3348993.4036   3698200.7520   2  16  21.6543  29.9521  21.7213  -5.9302  -5.9202 -20.7277   0.00    1.0
2017/07/19 08:27:11.600  -3961871.8159   3348993.6008   3698203.5426   2  16  21.6538  29.9520  21.7223  -5.9335  -5.9232 -20.7274   0.00    1.0
2017/07/19 08:27:11.800  -3961871.2841   3348993.6594   3698204.0829   2  16  21.6534  29.9519  21.7234  -5.9368  -5.9263 -20.7270   0.00    1.0
2017/07/19 08:27:12.000  -3961870.7125   3348993.8618   3698204.8295   2  16  21.6530  29.9518  21.7244  -5.9400  -5.9293 -20.7267   0.00    1.0
2017/07/19 08:27:12.200  -3961870.1259   3348993.6999   3698205.1374   2  16  21.6525  29.9517  21.7254  -5.9433  -5.9324 -20.7264   0.00    1.1
2017/07/19 08:27:12.400  -3961871.3043   3348993.5237   3698203.8212   2  16  21.6521  29.9516  21.7264  -5.9466  -5.9354 -20.7261   0.00    1.0
2017/07/19 08:27:12.600  -3961870.0767   3348993.5649   3698205.1177   2  16  21.6517  29.9515  21.7275  -5.9498  -5.9385 -20.7258   0.00    1.0
2017/07/19 08:27:12.800  -3961869.7519   3348993.5547   3698205.3598   2  16  21.6512  29.9514  21.7285  -5.9531  -5.9415 -20.7255   0.00    1.0
2017/07/19 08:27:13.000  -3961868.9276   3348993.5128   3698206.1050   2  16  21.6508  29.9513  21.7295  -5.9564  -5.9446 -20.7252   0.00    1.0
2017/07/19 08:27:13.200  -3961869.6844   3348993.4352   3698205.2852   2  16  21.6504  29.9512  21.7306  -5.9597  -5.9476 -20.7248   0.00    1.0
2017/07/19 08:27:13.400  -3961871.4613   3348993.3931   3698203.6184   2  16  21.6499  29.9511  21.7316  -5.9629  -5.9506 -20.7245   0.00    1.0
2017/07/19 08:27:13.600  -3961870.7053   3348993.4541   3698204.3617   2  16  21.6495  29.9510  21.7326  -5.9662  -5.9537 -20.7242   0.00    1.0
2017/07/19 08:27:13.800  -3961867.6491   3348993.7730   3698207.4748   2  16  21.6491  29.9509  21.7336  -5.9695  -5.9567 -20.7239   0.00    1.0
2017/07/19 08:27:14.000  -3961865.9536   3348993.7250   3698209.2205   2  16  21.6486  29.9508  21.7347  -5.9727  -5.9598 -20.7236   0.00    1.0
