%============NET Diff V1.9==============
%Developed by Yize Zhang, zhyize@163.com
%          day: 2017200
%     Station Fixed: 
%      ref_   -3961905.593    3348996.204    3698212.015     0.000     0.000    -0.085     NetR9                    TRM57971.00     NONE
%  Station Estimated:
%      rovt   -3961860.680    3348963.531    3698252.811     0.000     0.000     0.000     NetR9                    TRM57971.00     NONE
%  eopfile:         Input\EOP.txt
%  antfile:         E:\Program\Fortran\Matlab_PPP\Input\igs14_2082.atx
%planetfile:        Input\Planet.bin
% tidefile:         Input\tide.txt
%glofrefile:        Input\GLOFre.txt
% p1c1file:         Input\P1C11805.DCB
%  dcbfile:         E:\data\dcb\
%  obstype:         RNX
%   obsdir:         E:\TUMSAT\2017200\
%   navdir:         H:\brdm2000.17p
%interva(s):        0.2
%   limele:          10
%   limSNR:          33
% stomodel:         ELE1
%  maxpdop:         100
%trop_model:       GPT2_5w  SAAS VMF1
%   t_start:       2017  7 19  8 18 34.0 1958  289114
%    t_end:        2017  7 19  9  0 35.0 1958  291635
%freq_comb:        G:L1L2    C:L1L2    J:L1L2      
%combination:      Code 0.3  Phase 0.003
%systemused:        GPS    BDS   QZSS    
% admethod:          KF
%  postype:       Forward
%pos_state:           K
% proc_mod:           5
%   dd_coe:         1.0  0.0  0.0  1.0
%  ar_mode:            Continuous
%   fixele:         20
%partial_ar:       Data based
%success_rate:     0.68
% minratio:         3.0
%tightcombine         F
%est_wl_amb:          F
%ionocompensate:      F
% est_iono:           F
%      isb:           T  RW  1.0
%      ifb:           T  LM
%cycleslip:       GF+MW               
%obscombine:          P1
%  iontype:           1
%   smooth:           N Hatch P1P2    0
%  posfile:           T
%   outdir:              H:\
% (x/y/z-ecef=WGS84,Q=1:fix,2:float,ns=# of satellites)
%  GPST                      x-ecef(m)      y-ecef(m)      z-ecef(m)   Q  ns
2017/07/19 08:18:34.000  -3961862.6819   3348962.7340   3698253.5383   1  10
2017/07/19 08:18:34.200  -3961862.6895   3348962.7438   3698253.5435   1  10
2017/07/19 08:18:34.399  -3961862.6844   3348962.7399   3698253.5410   1  10
2017/07/19 08:18:34.600  -3961862.6861   3348962.7382   3698253.5409   1  10
2017/07/19 08:18:34.800  -3961862.6861   3348962.7381   3698253.5385   1  10
2017/07/19 08:18:35.000  -3961862.6739   3348962.7211   3698253.5342   1  10
2017/07/19 08:18:35.200  -3961862.6789   3348962.7271   3698253.5350   1  10
2017/07/19 08:18:35.399  -3961862.6776   3348962.7296   3698253.5340   1  10
2017/07/19 08:18:35.600  -3961862.6778   3348962.7331   3698253.5342   1  10
2017/07/19 08:18:35.800  -3961862.6767   3348962.7261   3698253.5319   1  10
2017/07/19 08:18:36.000  -3961862.6828   3348962.7340   3698253.5411   1  10
2017/07/19 08:18:36.200  -3961862.6789   3348962.7319   3698253.5372   1  10
2017/07/19 08:18:36.399  -3961862.6813   3348962.7320   3698253.5395   1  10
2017/07/19 08:18:36.600  -3961862.6767   3348962.7277   3698253.5361   1  10
2017/07/19 08:18:36.800  -3961862.6826   3348962.7328   3698253.5392   1  10
2017/07/19 08:18:37.000  -3961862.6794   3348962.7270   3698253.5353   1  10
2017/07/19 08:18:37.200  -3961862.6786   3348962.7196   3698253.5334   1  10
2017/07/19 08:18:37.399  -3961862.6809   3348962.7253   3698253.5382   1  10
2017/07/19 08:18:37.600  -3961862.6809   3348962.7243   3698253.5359   1  10
2017/07/19 08:18:37.800  -3961862.6804   3348962.7252   3698253.5397   1  10
2017/07/19 08:18:38.000  -3961862.6792   3348962.7282   3698253.5371   1  10
2017/07/19 08:18:38.200  -3961862.6816   3348962.7333   3698253.5382   1  10
2017/07/19 08:18:38.399  -3961862.6820   3348962.7285   3698253.5376   1  10
2017/07/19 08:18:38.600  -3961862.6847   3348962.7373   3698253.5407   1  10
2017/07/19 08:18:38.800  -3961862.6814   3348962.7325   3698253.5410   1  10
2017/07/19 08:18:39.000  -3961862.6813   3348962.7305   3698253.5361   1  10
2017/07/19 08:18:39.200  -3961862.6802   3348962.7235   3698253.5372   1  10
2017/07/19 08:18:39.399  -3961862.6815   3348962.7250   3698253.5366   1  10
2017/07/19 08:18:39.600  -3961862.6765   3348962.7265   3698253.5331   1  10
2017/07/19 08:18:39.800  -3961862.6793   3348962.7222   3698253.5336   1  10
2017/07/19 08:18:40.000  -3961862.6825   3348962.7371   3698253.5383   1  10
2017/07/19 08:18:40.200  -3961862.6818   3348962.7402   3698253.5383   1  10
2017/07/19 08:18:40.399  -3961862.6794   3348962.7338   3698253.5380   1  10
2017/07/19 08:18:40.600  -3961862.6738   3348962.7280   3698253.5343   1  10
2017/07/19 08:18:40.800  -3961862.6784   3348962.7359   3698253.5362   1  10
2017/07/19 08:18:41.000  -3961862.6747   3348962.7197   3698253.5317   1  10
2017/07/19 08:18:41.200  -3961862.6749   3348962.7186   3698253.5333   1  10
2017/07/19 08:18:41.399  -3961862.6733   3348962.7238   3698253.5340   1  10
2017/07/19 08:18:41.600  -3961862.6721   3348962.7175   3698253.5272   1  10
2017/07/19 08:18:41.800  -3961862.6766   3348962.7206   3698253.5313   1  10
2017/07/19 08:18:42.000  -3961862.6739   3348962.7227   3698253.5342   1  10
2017/07/19 08:18:42.200  -3961862.6791   3348962.7262   3698253.5361   1  10
2017/07/19 08:18:42.399  -3961862.6696   3348962.7205   3698253.5317   1  10
2017/07/19 08:18:42.600  -3961862.6784   3348962.7240   3698253.5379   1  10
2017/07/19 08:18:42.800  -3961862.6766   3348962.7273   3698253.5365   1  10
2017/07/19 08:18:43.000  -3961862.6767   3348962.7228   3698253.5329   1  10
2017/07/19 08:18:43.200  -3961862.6794   3348962.7286   3698253.5382   1  10
2017/07/19 08:18:43.399  -3961862.6749   3348962.7266   3698253.5330   1  10
2017/07/19 08:18:43.600  -3961862.6752   3348962.7261   3698253.5340   1  10
2017/07/19 08:18:43.800  -3961862.6795   3348962.7284   3698253.5349   1  10
2017/07/19 08:18:44.000  -3961862.6785   3348962.7316   3698253.5373   1  10
2017/07/19 08:18:44.200  -3961862.6818   3348962.7336   3698253.5394   1  10
2017/07/19 08:18:44.399  -3961862.6758   3348962.7301   3698253.5357   1  10
2017/07/19 08:18:44.600  -3961862.6780   3348962.7261   3698253.5371   1  10
2017/07/19 08:18:44.800  -3961862.6791   3348962.7302   3698253.5372   1  10
2017/07/19 08:18:45.000  -3961862.6735   3348962.7254   3698253.5322   1  10
2017/07/19 08:18:45.200  -3961862.6773   3348962.7235   3698253.5317   1  10
2017/07/19 08:18:45.399  -3961862.6802   3348962.7292   3698253.5349   1  10
2017/07/19 08:18:45.600  -3961862.6708   3348962.7162   3698253.5304   1  10
2017/07/19 08:18:45.800  -3961862.6775   3348962.7230   3698253.5346   1  10
2017/07/19 08:18:46.000  -3961862.6804   3348962.7310   3698253.5368   1  10
2017/07/19 08:18:46.200  -3961862.6715   3348962.7229   3698253.5294   1  10
2017/07/19 08:18:46.399  -3961862.6790   3348962.7324   3698253.5399   1  10
2017/07/19 08:18:46.600  -3961862.6815   3348962.7341   3698253.5381   1  10
2017/07/19 08:18:46.800  -3961862.6705   3348962.7257   3698253.5337   1  10
2017/07/19 08:18:47.000  -3961862.6816   3348962.7338   3698253.5363   1  10
2017/07/19 08:18:47.200  -3961862.6776   3348962.7278   3698253.5350   1  10
2017/07/19 08:18:47.399  -3961862.6789   3348962.7326   3698253.5359   1  10
2017/07/19 08:18:47.600  -3961862.6787   3348962.7321   3698253.5367   1  10
2017/07/19 08:18:47.800  -3961862.6751   3348962.7309   3698253.5336   1  10
2017/07/19 08:18:48.000  -3961862.6719   3348962.7209   3698253.5303   1  10
2017/07/19 08:18:48.200  -3961862.6789   3348962.7293   3698253.5362   1  10
2017/07/19 08:18:48.399  -3961862.6752   3348962.7228   3698253.5329   1  10
2017/07/19 08:18:48.600  -3961862.6744   3348962.7233   3698253.5344   1  10
2017/07/19 08:18:48.800  -3961862.6740   3348962.7207   3698253.5317   1  10
2017/07/19 08:18:49.000  -3961862.6769   3348962.7253   3698253.5321   1  10
2017/07/19 08:18:49.200  -3961862.6713   3348962.7235   3698253.5316   1  10
2017/07/19 08:18:49.399  -3961862.6793   3348962.7347   3698253.5358   1  10
2017/07/19 08:18:49.600  -3961862.6764   3348962.7278   3698253.5323   1  10
2017/07/19 08:18:49.800  -3961862.6821   3348962.7342   3698253.5371   1  10
2017/07/19 08:18:50.000  -3961862.6772   3348962.7268   3698253.5369   1  10
2017/07/19 08:18:50.200  -3961862.6791   3348962.7301   3698253.5337   1  10
2017/07/19 08:18:50.399  -3961862.6784   3348962.7277   3698253.5354   1  10
2017/07/19 08:18:50.600  -3961862.6842   3348962.7314   3698253.5396   1  10
2017/07/19 08:18:50.800  -3961862.6812   3348962.7347   3698253.5403   1  10
2017/07/19 08:18:51.000  -3961862.6749   3348962.7225   3698253.5305   1  10
2017/07/19 08:18:51.200  -3961862.6809   3348962.7278   3698253.5375   1  10
2017/07/19 08:18:51.399  -3961862.6792   3348962.7321   3698253.5373   1  10
2017/07/19 08:18:51.600  -3961862.6809   3348962.7300   3698253.5373   1  10
2017/07/19 08:18:51.800  -3961862.6846   3348962.7355   3698253.5399   1  10
2017/07/19 08:18:52.000  -3961862.6797   3348962.7309   3698253.5388   1  10
2017/07/19 08:18:52.200  -3961862.6759   3348962.7211   3698253.5306   1  10
2017/07/19 08:18:52.399  -3961862.6763   3348962.7262   3698253.5331   1  10
2017/07/19 08:18:52.600  -3961862.6790   3348962.7282   3698253.5363   1  10
2017/07/19 08:18:52.800  -3961862.6770   3348962.7256   3698253.5356   1  10
2017/07/19 08:18:53.000  -3961862.6720   3348962.7151   3698253.5297   1  10
2017/07/19 08:18:53.200  -3961862.6783   3348962.7170   3698253.5316   1  10
2017/07/19 08:18:53.399  -3961862.6724   3348962.7138   3698253.5300   1  10
2017/07/19 08:18:53.600  -3961862.6699   3348962.7106   3698253.5262   1  10
2017/07/19 08:18:53.800  -3961862.6738   3348962.7194   3698253.5283   1  10
2017/07/19 08:18:54.000  -3961862.6780   3348962.7211   3698253.5343   1  10
2017/07/19 08:18:54.200  -3961862.6780   3348962.7270   3698253.5335   1  10
2017/07/19 08:18:54.399  -3961862.6796   3348962.7246   3698253.5332   1  10
2017/07/19 08:18:54.600  -3961862.6710   3348962.7183   3698253.5291   1  10
2017/07/19 08:18:54.800  -3961862.6713   3348962.7150   3698253.5293   1  10
2017/07/19 08:18:55.000  -3961862.6740   3348962.7250   3698253.5298   1  10
2017/07/19 08:18:55.200  -3961862.6777   3348962.7273   3698253.5317   1  10
2017/07/19 08:18:55.399  -3961862.6714   3348962.7226   3698253.5289   1  10
2017/07/19 08:18:55.600  -3961862.6786   3348962.7222   3698253.5343   1  10
2017/07/19 08:18:55.800  -3961862.6759   3348962.7186   3698253.5286   1  10
2017/07/19 08:18:56.000  -3961862.6711   3348962.7210   3698253.5319   1  10
2017/07/19 08:18:56.200  -3961862.6748   3348962.7198   3698253.5305   1  10
2017/07/19 08:18:56.399  -3961862.6738   3348962.7194   3698253.5302   1  10
2017/07/19 08:18:56.600  -3961862.6799   3348962.7267   3698253.5345   1  10
2017/07/19 08:18:56.800  -3961862.6729   3348962.7189   3698253.5317   1  10
2017/07/19 08:18:57.000  -3961862.6740   3348962.7168   3698253.5318   1  10
2017/07/19 08:18:57.200  -3961862.6706   3348962.7156   3698253.5279   1  10
2017/07/19 08:18:57.399  -3961862.6786   3348962.7245   3698253.5349   1  10
2017/07/19 08:18:57.600  -3961862.6756   3348962.7175   3698253.5312   1  10
2017/07/19 08:18:57.800  -3961862.6759   3348962.7176   3698253.5314   1  10
2017/07/19 08:18:58.000  -3961862.6715   3348962.7196   3698253.5303   1  10
2017/07/19 08:18:58.200  -3961862.6663   3348962.7139   3698253.5278   1  10
2017/07/19 08:18:58.399  -3961862.6747   3348962.7189   3698253.5321   1  10
2017/07/19 08:18:58.600  -3961862.6707   3348962.7153   3698253.5270   1  10
2017/07/19 08:18:58.800  -3961862.6705   3348962.7167   3698253.5276   1  10
2017/07/19 08:18:59.000  -3961862.6764   3348962.7212   3698253.5338   1  10
2017/07/19 08:18:59.200  -3961862.6662   3348962.7125   3698253.5251   1  10
2017/07/19 08:18:59.399  -3961862.6710   3348962.7167   3698253.5269   1  10
2017/07/19 08:18:59.600  -3961862.6769   3348962.7218   3698253.5315   1  10
2017/07/19 08:18:59.800  -3961862.6742   3348962.7191   3698253.5292   1  10
2017/07/19 08:19:00.000  -3961862.6667   3348962.7135   3698253.5276   1  10
2017/07/19 08:19:00.200  -3961862.6665   3348962.7135   3698253.5272   1  10
2017/07/19 08:19:00.400  -3961862.6659   3348962.7145   3698253.5283   1  10
2017/07/19 08:19:00.600  -3961862.6700   3348962.7107   3698253.5290   1  10
2017/07/19 08:19:00.800  -3961862.6664   3348962.7106   3698253.5268   1  10
2017/07/19 08:19:01.000  -3961862.6687   3348962.7146   3698253.5264   1  10
2017/07/19 08:19:01.199  -3961862.6712   3348962.7148   3698253.5285   1  10
2017/07/19 08:19:01.400  -3961862.6690   3348962.7172   3698253.5293   1  10
2017/07/19 08:19:01.600  -3961862.6688   3348962.7177   3698253.5256   1  10
2017/07/19 08:19:01.800  -3961862.6727   3348962.7218   3698253.5299   1  10
2017/07/19 08:19:02.000  -3961862.6712   3348962.7137   3698253.5285   1  10
2017/07/19 08:19:02.200  -3961862.6681   3348962.7109   3698253.5264   1  10
2017/07/19 08:19:02.399  -3961862.6722   3348962.7145   3698253.5262   1  10
2017/07/19 08:19:02.600  -3961862.6769   3348962.7247   3698253.5332   1  10
2017/07/19 08:19:02.800  -3961862.6762   3348962.7204   3698253.5312   1  10
2017/07/19 08:19:03.000  -3961862.6745   3348962.7222   3698253.5315   1  10
2017/07/19 08:19:03.200  -3961862.6771   3348962.7262   3698253.5352   1  10
2017/07/19 08:19:03.399  -3961862.6726   3348962.7230   3698253.5318   1  10
2017/07/19 08:19:03.600  -3961862.6748   3348962.7223   3698253.5315   1  10
2017/07/19 08:19:03.800  -3961862.6715   3348962.7155   3698253.5300   1  10
2017/07/19 08:19:04.000  -3961862.6745   3348962.7244   3698253.5298   1  10
2017/07/19 08:19:04.200  -3961862.6716   3348962.7190   3698253.5242   1  10
2017/07/19 08:19:04.400  -3961862.6761   3348962.7236   3698253.5299   1  10
2017/07/19 08:19:04.600  -3961862.6696   3348962.7164   3698253.5229   1  10
2017/07/19 08:19:04.799  -3961862.6736   3348962.7238   3698253.5275   1  10
2017/07/19 08:19:05.000  -3961862.6701   3348962.7199   3698253.5281   1  10
2017/07/19 08:19:05.200  -3961862.6729   3348962.7192   3698253.5280   1  10
2017/07/19 08:19:05.400  -3961862.6761   3348962.7258   3698253.5316   1  10
2017/07/19 08:19:05.600  -3961862.6713   3348962.7184   3698253.5279   1  10
2017/07/19 08:19:05.799  -3961862.6798   3348962.7274   3698253.5347   1  10
2017/07/19 08:19:06.000  -3961862.6675   3348962.7098   3698253.5224   1  10
2017/07/19 08:19:06.200  -3961862.6755   3348962.7205   3698253.5299   1  10
2017/07/19 08:19:06.400  -3961862.6717   3348962.7223   3698253.5273   1  10
2017/07/19 08:19:06.600  -3961862.6674   3348962.7178   3698253.5264   1  10
2017/07/19 08:19:06.799  -3961862.6715   3348962.7208   3698253.5261   1  10
2017/07/19 08:19:07.000  -3961862.6727   3348962.7183   3698253.5279   1  10
2017/07/19 08:19:07.200  -3961862.6698   3348962.7197   3698253.5260   1  10
2017/07/19 08:19:07.400  -3961862.6676   3348962.7067   3698253.5225   1  10
2017/07/19 08:19:07.600  -3961862.6687   3348962.7098   3698253.5224   1  10
2017/07/19 08:19:07.799  -3961862.6671   3348962.7083   3698253.5226   1  10
2017/07/19 08:19:08.000  -3961862.6689   3348962.7130   3698253.5259   1  10
2017/07/19 08:19:08.199  -3961862.6772   3348962.7212   3698253.5357   1  10
2017/07/19 08:19:08.400  -3961862.6751   3348962.7227   3698253.5308   1  10
2017/07/19 08:19:08.599  -3961862.6691   3348962.7133   3698253.5270   1  10
2017/07/19 08:19:08.800  -3961862.6771   3348962.7243   3698253.5344   1  10
2017/07/19 08:19:09.000  -3961862.6731   3348962.7232   3698253.5290   1  10
2017/07/19 08:19:09.200  -3961862.6691   3348962.7171   3698253.5248   1  10
2017/07/19 08:19:09.400  -3961862.6714   3348962.7203   3698253.5276   1  10
2017/07/19 08:19:09.599  -3961862.6738   3348962.7209   3698253.5274   1  10
2017/07/19 08:19:09.800  -3961862.6763   3348962.7253   3698253.5279   1  10
2017/07/19 08:19:10.000  -3961862.6742   3348962.7233   3698253.5289   1  10
2017/07/19 08:19:10.200  -3961862.6717   3348962.7251   3698253.5324   1  10
2017/07/19 08:19:10.400  -3961862.6749   3348962.7269   3698253.5343   1  10
2017/07/19 08:19:10.599  -3961862.6716   3348962.7232   3698253.5304   1  10
2017/07/19 08:19:10.800  -3961862.6677   3348962.7174   3698253.5266   1  10
2017/07/19 08:19:11.000  -3961862.6747   3348962.7211   3698253.5307   1  10
2017/07/19 08:19:11.200  -3961862.6720   3348962.7205   3698253.5269   1  10
2017/07/19 08:19:11.400  -3961862.6667   3348962.7175   3698253.5246   1  10
2017/07/19 08:19:11.599  -3961862.6711   3348962.7235   3698253.5271   1  10
2017/07/19 08:19:11.800  -3961862.6690   3348962.7150   3698253.5270   1  10
2017/07/19 08:19:12.000  -3961862.6761   3348962.7217   3698253.5320   1  10
2017/07/19 08:19:12.200  -3961862.6703   3348962.7134   3698253.5254   1  10
2017/07/19 08:19:12.400  -3961862.6691   3348962.7170   3698253.5233   1  10
2017/07/19 08:19:12.599  -3961862.6653   3348962.7132   3698253.5237   1  10
2017/07/19 08:19:12.800  -3961862.6653   3348962.7068   3698253.5232   1  10
2017/07/19 08:19:13.000  -3961862.6713   3348962.7177   3698253.5259   1  10
2017/07/19 08:19:13.200  -3961862.6710   3348962.7109   3698253.5250   1  10
2017/07/19 08:19:13.400  -3961862.6661   3348962.7040   3698253.5226   1  10
2017/07/19 08:19:13.599  -3961862.6716   3348962.7200   3698253.5291   1  10
2017/07/19 08:19:13.800  -3961862.6710   3348962.7167   3698253.5254   1  10
2017/07/19 08:19:14.000  -3961862.6721   3348962.7221   3698253.5300   1  10
2017/07/19 08:19:14.200  -3961862.6702   3348962.7226   3698253.5285   1  10
2017/07/19 08:19:14.400  -3961862.6692   3348962.7204   3698253.5269   1  10
2017/07/19 08:19:14.599  -3961862.6706   3348962.7174   3698253.5287   1  10
2017/07/19 08:19:14.800  -3961862.6721   3348962.7220   3698253.5288   1  10
2017/07/19 08:19:15.000  -3961862.6698   3348962.7152   3698253.5243   1  10
2017/07/19 08:19:15.200  -3961862.6702   3348962.7140   3698253.5248   1  10
2017/07/19 08:19:15.400  -3961862.6729   3348962.7170   3698253.5270   1  10
2017/07/19 08:19:15.599  -3961862.6681   3348962.7196   3698253.5255   1  10
2017/07/19 08:19:15.800  -3961862.6665   3348962.7135   3698253.5222   1  10
2017/07/19 08:19:16.000  -3961862.6739   3348962.7236   3698253.5286   1  10
2017/07/19 08:19:16.199  -3961862.6725   3348962.7173   3698253.5260   1  10
2017/07/19 08:19:16.399  -3961862.6704   3348962.7157   3698253.5249   1  10
2017/07/19 08:19:16.600  -3961862.6684   3348962.7153   3698253.5210   1  10
2017/07/19 08:19:16.800  -3961862.6716   3348962.7230   3698253.5260   1  10
2017/07/19 08:19:17.000  -3961862.6743   3348962.7175   3698253.5297   1  10
2017/07/19 08:19:17.199  -3961862.6769   3348962.7214   3698253.5295   1  10
2017/07/19 08:19:17.400  -3961862.6697   3348962.7193   3698253.5274   1  10
2017/07/19 08:19:17.600  -3961862.6733   3348962.7181   3698253.5272   1  10
2017/07/19 08:19:17.800  -3961862.6690   3348962.7181   3698253.5275   1  10
2017/07/19 08:19:18.000  -3961862.6696   3348962.7155   3698253.5242   1  10
2017/07/19 08:19:18.199  -3961862.6756   3348962.7249   3698253.5293   1  10
2017/07/19 08:19:18.400  -3961862.6704   3348962.7140   3698253.5249   1  10
2017/07/19 08:19:18.600  -3961862.6729   3348962.7187   3698253.5287   1  10
2017/07/19 08:19:18.800  -3961862.6721   3348962.7227   3698253.5266   1  10
2017/07/19 08:19:19.000  -3961862.6770   3348962.7303   3698253.5304   1  10
2017/07/19 08:19:19.199  -3961862.6727   3348962.7227   3698253.5293   1  10
2017/07/19 08:19:19.400  -3961862.6744   3348962.7223   3698253.5277   1  10
2017/07/19 08:19:19.600  -3961862.6638   3348962.7089   3698253.5217   1  10
2017/07/19 08:19:19.800  -3961862.6715   3348962.7171   3698253.5257   1  10
2017/07/19 08:19:20.000  -3961862.6731   3348962.7169   3698253.5283   1  10
2017/07/19 08:19:20.199  -3961862.6731   3348962.7218   3698253.5281   1  10
2017/07/19 08:19:20.400  -3961862.6721   3348962.7170   3698253.5267   1  10
2017/07/19 08:19:20.600  -3961862.6721   3348962.7180   3698253.5260   1  10
2017/07/19 08:19:20.800  -3961862.6739   3348962.7222   3698253.5295   1  10
2017/07/19 08:19:21.000  -3961862.6657   3348962.7084   3698253.5225   1  10
2017/07/19 08:19:21.199  -3961862.6656   3348962.7083   3698253.5221   1  10
2017/07/19 08:19:21.400  -3961862.6686   3348962.7138   3698253.5242   1  10
2017/07/19 08:19:21.600  -3961862.6704   3348962.7091   3698253.5231   1  10
2017/07/19 08:19:21.800  -3961862.6639   3348962.7058   3698253.5207   1  10
2017/07/19 08:19:22.000  -3961862.6678   3348962.7138   3698253.5237   1  10
2017/07/19 08:19:22.199  -3961862.6651   3348962.7084   3698253.5207   1  10
2017/07/19 08:19:22.400  -3961862.6709   3348962.7195   3698253.5258   1  10
2017/07/19 08:19:22.600  -3961862.6651   3348962.7082   3698253.5224   1  10
2017/07/19 08:19:22.800  -3961862.6645   3348962.7120   3698253.5207   1  10
2017/07/19 08:19:23.000  -3961862.6692   3348962.7150   3698253.5238   1  10
2017/07/19 08:19:23.199  -3961862.6701   3348962.7196   3698253.5276   1  10
2017/07/19 08:19:23.400  -3961862.6665   3348962.7115   3698253.5250   1  10
2017/07/19 08:19:23.600  -3961862.6670   3348962.7085   3698253.5230   1  10
2017/07/19 08:19:23.800  -3961862.6725   3348962.7168   3698253.5279   1  10
2017/07/19 08:19:24.000  -3961862.6687   3348962.7168   3698253.5283   1  10
2017/07/19 08:19:24.199  -3961862.6710   3348962.7149   3698253.5246   1  10
2017/07/19 08:19:24.400  -3961862.6740   3348962.7217   3698253.5302   1  10
2017/07/19 08:19:24.600  -3961862.6744   3348962.7187   3698253.5292   1  10
2017/07/19 08:19:24.800  -3961862.6748   3348962.7207   3698253.5301   1  10
2017/07/19 08:19:25.000  -3961862.6793   3348962.7237   3698253.5309   1  10
2017/07/19 08:19:25.199  -3961862.6753   3348962.7210   3698253.5287   1  10
2017/07/19 08:19:25.400  -3961862.6764   3348962.7201   3698253.5301   1  10
2017/07/19 08:19:25.600  -3961862.6716   3348962.7153   3698253.5256   1  10
2017/07/19 08:19:25.800  -3961862.6795   3348962.7322   3698253.5341   1  10
2017/07/19 08:19:26.000  -3961862.6693   3348962.7136   3698253.5231   1  10
2017/07/19 08:19:26.199  -3961862.6675   3348962.7142   3698253.5218   1  10
2017/07/19 08:19:26.400  -3961862.6604   3348962.7052   3698253.5164   1  10
2017/07/19 08:19:26.600  -3961862.6599   3348962.7076   3698253.5185   1  10
2017/07/19 08:19:26.800  -3961862.6602   3348962.7004   3698253.5141   1  10
2017/07/19 08:19:27.000  -3961862.6720   3348962.7170   3698253.5250   1  10
2017/07/19 08:19:27.199  -3961862.6756   3348962.7249   3698253.5279   1  10
2017/07/19 08:19:27.400  -3961862.6742   3348962.7206   3698253.5296   1  10
2017/07/19 08:19:27.600  -3961862.6700   3348962.7208   3698253.5274   1  10
2017/07/19 08:19:27.800  -3961862.6722   3348962.7213   3698253.5262   1  10
2017/07/19 08:19:28.000  -3961862.6746   3348962.7221   3698253.5284   1  10
2017/07/19 08:19:28.199  -3961862.6804   3348962.7290   3698253.5294   1  10
2017/07/19 08:19:28.400  -3961862.6785   3348962.7248   3698253.5275   1  10
2017/07/19 08:19:28.600  -3961862.6796   3348962.7251   3698253.5316   1  10
2017/07/19 08:19:28.800  -3961862.6803   3348962.7276   3698253.5310   1  10
2017/07/19 08:19:29.000  -3961862.6743   3348962.7258   3698253.5275   1  10
2017/07/19 08:19:29.199  -3961862.6749   3348962.7220   3698253.5278   1  10
2017/07/19 08:19:29.400  -3961862.6766   3348962.7274   3698253.5282   1  10
2017/07/19 08:19:29.600  -3961862.6760   3348962.7196   3698253.5282   1  10
2017/07/19 08:19:29.800  -3961862.6769   3348962.7253   3698253.5287   1  10
2017/07/19 08:19:30.000  -3961862.6688   3348962.7136   3698253.5240   1  10
2017/07/19 08:19:30.199  -3961862.6685   3348962.7122   3698253.5223   1  10
2017/07/19 08:19:30.400  -3961862.6721   3348962.7138   3698253.5260   1  10
2017/07/19 08:19:30.600  -3961862.6738   3348962.7168   3698253.5263   1  10
2017/07/19 08:19:30.800  -3961862.6695   3348962.7116   3698253.5252   1  10
2017/07/19 08:19:31.000  -3961862.6824   3348962.7316   3698253.5322   1  10
2017/07/19 08:19:31.199  -3961862.6764   3348962.7252   3698253.5331   1  10
2017/07/19 08:19:31.400  -3961862.6756   3348962.7255   3698253.5305   1  10
2017/07/19 08:19:31.600  -3961862.6781   3348962.7252   3698253.5325   1  10
2017/07/19 08:19:31.800  -3961862.6759   3348962.7236   3698253.5323   1  10
2017/07/19 08:19:32.000  -3961862.6729   3348962.7187   3698253.5262   1  10
2017/07/19 08:19:32.200  -3961862.6763   3348962.7206   3698253.5260   1  10
2017/07/19 08:19:32.399  -3961862.6757   3348962.7266   3698253.5293   1  10
2017/07/19 08:19:32.600  -3961862.6743   3348962.7246   3698253.5270   1  10
2017/07/19 08:19:32.799  -3961862.6729   3348962.7234   3698253.5238   1  10
2017/07/19 08:19:33.000  -3961862.6763   3348962.7299   3698253.5289   1  10
2017/07/19 08:19:33.200  -3961862.6792   3348962.7252   3698253.5297   1  10
2017/07/19 08:19:33.399  -3961862.6773   3348962.7288   3698253.5280   1  10
2017/07/19 08:19:33.600  -3961862.6769   3348962.7256   3698253.5284   1  10
2017/07/19 08:19:33.799  -3961862.6754   3348962.7236   3698253.5274   1  10
2017/07/19 08:19:34.000  -3961862.6767   3348962.7293   3698253.5306   1  10
2017/07/19 08:19:34.200  -3961862.6728   3348962.7213   3698253.5267   1  10
2017/07/19 08:19:34.399  -3961862.6755   3348962.7285   3698253.5301   1  10
2017/07/19 08:19:34.600  -3961862.6743   3348962.7223   3698253.5283   1  10
2017/07/19 08:19:34.800  -3961862.6728   3348962.7214   3698253.5282   1  10
2017/07/19 08:19:35.000  -3961862.6773   3348962.7320   3698253.5304   1  10
2017/07/19 08:19:35.200  -3961862.6714   3348962.7234   3698253.5254   1  10
2017/07/19 08:19:35.399  -3961862.6722   3348962.7229   3698253.5272   1  10
2017/07/19 08:19:35.600  -3961862.6713   3348962.7215   3698253.5251   1  10
2017/07/19 08:19:35.800  -3961862.6789   3348962.7286   3698253.5301   1  10
2017/07/19 08:19:36.000  -3961862.6750   3348962.7181   3698253.5262   1  10
2017/07/19 08:19:36.200  -3961862.6732   3348962.7197   3698253.5265   1  10
2017/07/19 08:19:36.399  -3961862.6690   3348962.7162   3698253.5242   1  10
2017/07/19 08:19:36.600  -3961862.6764   3348962.7245   3698253.5284   1  10
2017/07/19 08:19:36.800  -3961862.6711   3348962.7168   3698253.5240   1  10
2017/07/19 08:19:37.000  -3961862.6728   3348962.7172   3698253.5267   1  10
2017/07/19 08:19:37.200  -3961862.6740   3348962.7213   3698253.5268   1  10
2017/07/19 08:19:37.399  -3961862.6748   3348962.7214   3698253.5293   1  10
2017/07/19 08:19:37.600  -3961862.6732   3348962.7214   3698253.5275   1  10
2017/07/19 08:19:37.800  -3961862.6650   3348962.7183   3698253.5243   1  10
2017/07/19 08:19:38.000  -3961862.6739   3348962.7230   3698253.5302   1  10
2017/07/19 08:19:38.200  -3961862.6735   3348962.7183   3698253.5267   1  10
2017/07/19 08:19:38.399  -3961862.6756   3348962.7215   3698253.5296   1  10
2017/07/19 08:19:38.600  -3961862.6717   3348962.7214   3698253.5264   1  10
2017/07/19 08:19:38.800  -3961862.6759   3348962.7228   3698253.5278   1  10
2017/07/19 08:19:39.000  -3961862.6728   3348962.7246   3698253.5287   1  10
2017/07/19 08:19:39.200  -3961862.6755   3348962.7249   3698253.5293   1  10
2017/07/19 08:19:39.399  -3961862.6714   3348962.7218   3698253.5267   1  10
2017/07/19 08:19:39.600  -3961862.6774   3348962.7297   3698253.5312   1  10
2017/07/19 08:19:39.800  -3961862.6754   3348962.7280   3698253.5281   1  10
2017/07/19 08:19:40.000  -3961862.6694   3348962.7192   3698253.5228   1  10
2017/07/19 08:19:40.200  -3961862.6729   3348962.7219   3698253.5269   1  10
2017/07/19 08:19:40.399  -3961862.6683   3348962.7174   3698253.5232   1  10
2017/07/19 08:19:40.600  -3961862.6736   3348962.7266   3698253.5288   1  10
2017/07/19 08:19:40.800  -3961862.6810   3348962.7319   3698253.5328   1  10
2017/07/19 08:19:41.000  -3961862.6670   3348962.7181   3698253.5236   1  10
2017/07/19 08:19:41.200  -3961862.6724   3348962.7236   3698253.5276   1  10
2017/07/19 08:19:41.399  -3961862.6658   3348962.7169   3698253.5230   1  10
2017/07/19 08:19:41.600  -3961862.6730   3348962.7270   3698253.5295   1  10
2017/07/19 08:19:41.800  -3961862.6674   3348962.7226   3698253.5232   1  10
2017/07/19 08:19:42.000  -3961862.6789   3348962.7336   3698253.5304   1  10
2017/07/19 08:19:42.200  -3961862.6745   3348962.7212   3698253.5265   1  10
2017/07/19 08:19:42.399  -3961862.6747   3348962.7235   3698253.5264   1  10
2017/07/19 08:19:42.600  -3961862.6713   3348962.7202   3698253.5265   1  10
2017/07/19 08:19:42.800  -3961862.6683   3348962.7136   3698253.5231   1  10
2017/07/19 08:19:43.000  -3961862.6794   3348962.7313   3698253.5339   1  10
2017/07/19 08:19:43.200  -3961862.6763   3348962.7254   3698253.5288   1  10
2017/07/19 08:19:43.399  -3961862.6759   3348962.7265   3698253.5295   1  10
2017/07/19 08:19:43.600  -3961862.6742   3348962.7259   3698253.5287   1  10
2017/07/19 08:19:43.800  -3961862.6757   3348962.7232   3698253.5298   1  10
2017/07/19 08:19:44.000  -3961862.6769   3348962.7295   3698253.5304   1  10
2017/07/19 08:19:44.200  -3961862.6800   3348962.7298   3698253.5325   1  10
2017/07/19 08:19:44.399  -3961862.6790   3348962.7350   3698253.5310   1  10
2017/07/19 08:19:44.600  -3961862.6734   3348962.7234   3698253.5285   1  10
2017/07/19 08:19:44.800  -3961862.6812   3348962.7335   3698253.5362   1  10
2017/07/19 08:19:45.000  -3961862.6745   3348962.7180   3698253.5262   1  10
2017/07/19 08:19:45.200  -3961862.6711   3348962.7199   3698253.5228   1  10
2017/07/19 08:19:45.399  -3961862.6727   3348962.7188   3698253.5244   1  10
2017/07/19 08:19:45.600  -3961862.6711   3348962.7176   3698253.5251   1  10
2017/07/19 08:19:45.800  -3961862.6688   3348962.7109   3698253.5250   1  10
2017/07/19 08:19:46.000  -3961862.6765   3348962.7281   3698253.5298   1  10
2017/07/19 08:19:46.200  -3961862.6750   3348962.7266   3698253.5279   1  10
2017/07/19 08:19:46.399  -3961862.6806   3348962.7382   3698253.5324   1  10
2017/07/19 08:19:46.600  -3961862.6825   3348962.7352   3698253.5337   1  10
2017/07/19 08:19:46.800  -3961862.6836   3348962.7397   3698253.5336   1  10
2017/07/19 08:19:47.000  -3961862.6784   3348962.7260   3698253.5328   1  10
2017/07/19 08:19:47.200  -3961862.6719   3348962.7241   3698253.5271   1  10
2017/07/19 08:19:47.399  -3961862.6735   3348962.7244   3698253.5275   1  10
2017/07/19 08:19:47.600  -3961862.6767   3348962.7316   3698253.5332   1  10
2017/07/19 08:19:47.800  -3961862.6744   3348962.7279   3698253.5305   1  10
2017/07/19 08:19:48.000  -3961862.6771   3348962.7242   3698253.5287   1  10
2017/07/19 08:19:48.200  -3961862.6782   3348962.7284   3698253.5299   1  10
2017/07/19 08:19:48.399  -3961862.6823   3348962.7279   3698253.5315   1  10
2017/07/19 08:19:48.600  -3961862.6756   3348962.7241   3698253.5279   1  10
2017/07/19 08:19:48.800  -3961862.6816   3348962.7301   3698253.5308   1  10
2017/07/19 08:19:49.000  -3961862.6770   3348962.7254   3698253.5288   1  10
2017/07/19 08:19:49.200  -3961862.6715   3348962.7182   3698253.5221   1  10
2017/07/19 08:19:49.399  -3961862.6720   3348962.7172   3698253.5263   1  10
2017/07/19 08:19:49.600  -3961862.6757   3348962.7227   3698253.5271   1  10
2017/07/19 08:19:49.800  -3961862.6771   3348962.7231   3698253.5272   1  10
2017/07/19 08:19:50.000  -3961862.6767   3348962.7275   3698253.5297   1  10
2017/07/19 08:19:50.200  -3961862.6744   3348962.7254   3698253.5280   1  10
2017/07/19 08:19:50.399  -3961862.6764   3348962.7279   3698253.5314   1  10
2017/07/19 08:19:50.600  -3961862.6738   3348962.7212   3698253.5267   1  10
2017/07/19 08:19:50.800  -3961862.6741   3348962.7223   3698253.5254   1  10
2017/07/19 08:19:51.000  -3961862.6801   3348962.7336   3698253.5303   1  10
2017/07/19 08:19:51.200  -3961862.6806   3348962.7329   3698253.5313   1  10
2017/07/19 08:19:51.399  -3961862.6798   3348962.7302   3698253.5288   1  10
2017/07/19 08:19:51.600  -3961862.6791   3348962.7300   3698253.5294   1  10
2017/07/19 08:19:51.800  -3961862.6828   3348962.7386   3698253.5343   1  10
2017/07/19 08:19:52.000  -3961862.6780   3348962.7297   3698253.5284   1  10
2017/07/19 08:19:52.200  -3961862.6844   3348962.7349   3698253.5333   1  10
2017/07/19 08:19:52.399  -3961862.6793   3348962.7284   3698253.5316   1  10
2017/07/19 08:19:52.600  -3961862.6836   3348962.7329   3698253.5304   1  10
2017/07/19 08:19:52.800  -3961862.6809   3348962.7255   3698253.5286   1  10
2017/07/19 08:19:53.000  -3961862.6832   3348962.7291   3698253.5314   1  10
2017/07/19 08:19:53.200  -3961862.6776   3348962.7309   3698253.5302   1  10
2017/07/19 08:19:53.399  -3961862.6818   3348962.7354   3698253.5325   1  10
2017/07/19 08:19:53.600  -3961862.6843   3348962.7306   3698253.5336   1  10
2017/07/19 08:19:53.800  -3961862.6781   3348962.7273   3698253.5325   1  10
2017/07/19 08:19:54.000  -3961862.6769   3348962.7251   3698253.5292   1  10
2017/07/19 08:19:54.200  -3961862.6784   3348962.7288   3698253.5305   1  10
2017/07/19 08:19:54.399  -3961862.6792   3348962.7249   3698253.5294   1  10
2017/07/19 08:19:54.600  -3961862.6788   3348962.7272   3698253.5275   1  10
2017/07/19 08:19:54.800  -3961862.6743   3348962.7266   3698253.5272   1  10
2017/07/19 08:19:55.000  -3961862.6747   3348962.7235   3698253.5280   1  10
2017/07/19 08:19:55.200  -3961862.6826   3348962.7305   3698253.5345   1  10
2017/07/19 08:19:55.399  -3961862.6776   3348962.7262   3698253.5317   1  10
2017/07/19 08:19:55.600  -3961862.6790   3348962.7264   3698253.5331   1  10
2017/07/19 08:19:55.800  -3961862.6772   3348962.7296   3698253.5319   1  10
2017/07/19 08:19:56.000  -3961862.6811   3348962.7318   3698253.5312   1  10
2017/07/19 08:19:56.200  -3961862.6800   3348962.7287   3698253.5295   1  10
2017/07/19 08:19:56.399  -3961862.6834   3348962.7363   3698253.5352   1  10
2017/07/19 08:19:56.600  -3961862.6799   3348962.7305   3698253.5293   1  10
2017/07/19 08:19:56.800  -3961862.6839   3348962.7372   3698253.5319   1  10
2017/07/19 08:19:57.000  -3961862.6836   3348962.7338   3698253.5348   1  10
2017/07/19 08:19:57.200  -3961862.6839   3348962.7371   3698253.5362   1  10
2017/07/19 08:19:57.399  -3961862.6869   3348962.7396   3698253.5375   1  10
2017/07/19 08:19:57.600  -3961862.6833   3348962.7340   3698253.5338   1  10
2017/07/19 08:19:57.800  -3961862.6904   3348962.7422   3698253.5401   1  10
2017/07/19 08:19:58.000  -3961862.6782   3348962.7287   3698253.5306   1  10
2017/07/19 08:19:58.200  -3961862.6796   3348962.7311   3698253.5323   1  10
2017/07/19 08:19:58.399  -3961862.6772   3348962.7280   3698253.5278   1  10
2017/07/19 08:19:58.600  -3961862.6764   3348962.7303   3698253.5310   1  10
2017/07/19 08:19:58.800  -3961862.6823   3348962.7337   3698253.5334   1  10
2017/07/19 08:19:59.000  -3961862.6823   3348962.7317   3698253.5334   1  10
2017/07/19 08:19:59.200  -3961862.6782   3348962.7298   3698253.5305   1  10
2017/07/19 08:19:59.399  -3961862.6796   3348962.7269   3698253.5305   1  10
2017/07/19 08:19:59.600  -3961862.6748   3348962.7225   3698253.5274   1  10
2017/07/19 08:19:59.800  -3961862.6787   3348962.7252   3698253.5278   1  10
2017/07/19 08:20:00.000  -3961862.6805   3348962.7331   3698253.5328   1  10
2017/07/19 08:20:00.200  -3961862.6770   3348962.7248   3698253.5299   1  10
2017/07/19 08:20:00.400  -3961862.6802   3348962.7314   3698253.5335   1  10
2017/07/19 08:20:00.600  -3961862.6778   3348962.7291   3698253.5283   1  10
2017/07/19 08:20:00.800  -3961862.6812   3348962.7292   3698253.5337   1  10
2017/07/19 08:20:01.000  -3961862.6808   3348962.7301   3698253.5319   1  10
2017/07/19 08:20:01.199  -3961862.6808   3348962.7229   3698253.5311   1  10
2017/07/19 08:20:01.400  -3961862.6801   3348962.7233   3698253.5301   1  10
2017/07/19 08:20:01.600  -3961862.6853   3348962.7267   3698253.5336   1  10
2017/07/19 08:20:01.800  -3961862.6820   3348962.7258   3698253.5309   1  10
2017/07/19 08:20:02.000  -3961862.6799   3348962.7284   3698253.5310   1  10
2017/07/19 08:20:02.200  -3961862.6722   3348962.7174   3698253.5256   1  10
2017/07/19 08:20:02.399  -3961862.6721   3348962.7209   3698253.5237   1  10
2017/07/19 08:20:02.600  -3961862.6789   3348962.7270   3698253.5278   1  10
2017/07/19 08:20:02.800  -3961862.6762   3348962.7256   3698253.5260   1  10
2017/07/19 08:20:03.000  -3961862.6802   3348962.7303   3698253.5300   1  10
2017/07/19 08:20:03.200  -3961862.6812   3348962.7314   3698253.5309   1  10
2017/07/19 08:20:03.399  -3961862.6880   3348962.7360   3698253.5352   1  10
2017/07/19 08:20:03.600  -3961862.6823   3348962.7313   3698253.5332   1  10
2017/07/19 08:20:03.800  -3961862.6803   3348962.7267   3698253.5303   1  10
2017/07/19 08:20:04.000  -3961862.6759   3348962.7271   3698253.5288   1  10
2017/07/19 08:20:04.200  -3961862.6787   3348962.7280   3698253.5291   1  10
2017/07/19 08:20:04.400  -3961862.6782   3348962.7274   3698253.5298   1  10
2017/07/19 08:20:04.600  -3961862.6707   3348962.7206   3698253.5240   1  10
2017/07/19 08:20:04.799  -3961862.6767   3348962.7282   3698253.5293   1  10
2017/07/19 08:20:05.000  -3961862.6814   3348962.7275   3698253.5295   1  10
2017/07/19 08:20:05.200  -3961862.6804   3348962.7317   3698253.5311   1  10
2017/07/19 08:20:05.400  -3961862.6767   3348962.7283   3698253.5279   1  10
2017/07/19 08:20:05.600  -3961862.6784   3348962.7313   3698253.5308   1  10
2017/07/19 08:20:05.799  -3961862.6759   3348962.7287   3698253.5289   1  10
2017/07/19 08:20:06.000  -3961862.6806   3348962.7291   3698253.5333   1  10
2017/07/19 08:20:06.200  -3961862.6806   3348962.7250   3698253.5307   1  10
2017/07/19 08:20:06.400  -3961862.6789   3348962.7244   3698253.5298   1  10
2017/07/19 08:20:06.600  -3961862.6815   3348962.7252   3698253.5304   1  10
2017/07/19 08:20:06.799  -3961862.6809   3348962.7302   3698253.5311   1  10
2017/07/19 08:20:07.000  -3961862.6782   3348962.7253   3698253.5273   1  10
2017/07/19 08:20:07.200  -3961862.6795   3348962.7236   3698253.5273   1  10
2017/07/19 08:20:07.400  -3961862.6791   3348962.7274   3698253.5293   1  10
2017/07/19 08:20:07.600  -3961862.6749   3348962.7228   3698253.5261   1  10
2017/07/19 08:20:07.799  -3961862.6786   3348962.7221   3698253.5258   1  10
2017/07/19 08:20:08.000  -3961862.6787   3348962.7311   3698253.5300   1  10
2017/07/19 08:20:08.199  -3961862.6836   3348962.7340   3698253.5317   1  10
2017/07/19 08:20:08.400  -3961862.6837   3348962.7311   3698253.5340   1  10
2017/07/19 08:20:08.599  -3961862.6834   3348962.7362   3698253.5324   1  10
2017/07/19 08:20:08.800  -3961862.6824   3348962.7354   3698253.5338   1  10
2017/07/19 08:20:09.000  -3961862.6772   3348962.7304   3698253.5296   1  10
2017/07/19 08:20:09.200  -3961862.6844   3348962.7370   3698253.5360   1  10
2017/07/19 08:20:09.400  -3961862.6806   3348962.7264   3698253.5316   1  10
2017/07/19 08:20:09.599  -3961862.6839   3348962.7318   3698253.5330   1  10
2017/07/19 08:20:09.800  -3961862.6809   3348962.7309   3698253.5305   1  10
2017/07/19 08:20:10.000  -3961862.6855   3348962.7328   3698253.5341   1  10
2017/07/19 08:20:10.200  -3961862.6799   3348962.7274   3698253.5304   1  10
2017/07/19 08:20:10.400  -3961862.6814   3348962.7321   3698253.5340   1  10
2017/07/19 08:20:10.599  -3961862.6826   3348962.7340   3698253.5332   1  10
2017/07/19 08:20:10.800  -3961862.6775   3348962.7313   3698253.5320   1  10
2017/07/19 08:20:11.000  -3961862.6780   3348962.7249   3698253.5282   1  10
2017/07/19 08:20:11.200  -3961862.6770   3348962.7246   3698253.5284   1  10
2017/07/19 08:20:11.400  -3961862.6778   3348962.7214   3698253.5278   1  10
2017/07/19 08:20:11.599  -3961862.6800   3348962.7246   3698253.5292   1  10
2017/07/19 08:20:11.800  -3961862.6739   3348962.7181   3698253.5251   1  10
2017/07/19 08:20:12.000  -3961862.6809   3348962.7324   3698253.5330   1  10
2017/07/19 08:20:12.200  -3961862.6796   3348962.7287   3698253.5326   1  10
2017/07/19 08:20:12.400  -3961862.6877   3348962.7380   3698253.5378   1  10
2017/07/19 08:20:12.599  -3961862.6867   3348962.7340   3698253.5385   1  10
2017/07/19 08:20:12.800  -3961862.6803   3348962.7273   3698253.5314   1  10
2017/07/19 08:20:13.000  -3961862.6878   3348962.7353   3698253.5352   1  10
2017/07/19 08:20:13.200  -3961862.6778   3348962.7280   3698253.5291   1  10
2017/07/19 08:20:13.400  -3961862.6775   3348962.7302   3698253.5279   1  10
2017/07/19 08:20:13.599  -3961862.6828   3348962.7342   3698253.5335   1  10
2017/07/19 08:20:13.800  -3961862.6814   3348962.7292   3698253.5311   1  10
2017/07/19 08:20:14.000  -3961862.6832   3348962.7313   3698253.5336   1  10
2017/07/19 08:20:14.200  -3961862.6873   3348962.7389   3698253.5375   1  10
2017/07/19 08:20:14.400  -3961862.6812   3348962.7277   3698253.5308   1  10
2017/07/19 08:20:14.599  -3961862.6861   3348962.7362   3698253.5354   1  10
2017/07/19 08:20:14.800  -3961862.6885   3348962.7387   3698253.5383   1  10
2017/07/19 08:20:15.000  -3961862.6816   3348962.7360   3698253.5345   1  10
2017/07/19 08:20:15.200  -3961862.6753   3348962.7304   3698253.5278   1  10
2017/07/19 08:20:15.400  -3961862.6808   3348962.7341   3698253.5342   1  10
2017/07/19 08:20:15.599  -3961862.6802   3348962.7281   3698253.5295   1  10
2017/07/19 08:20:15.800  -3961862.6876   3348962.7403   3698253.5394   1  10
2017/07/19 08:20:16.000  -3961862.6794   3348962.7286   3698253.5317   1  10
2017/07/19 08:20:16.199  -3961862.6763   3348962.7346   3698253.5340   1  10
2017/07/19 08:20:16.399  -3961862.6805   3348962.7310   3698253.5330   1  10
2017/07/19 08:20:16.600  -3961862.6768   3348962.7241   3698253.5312   1  10
2017/07/19 08:20:16.800  -3961862.6816   3348962.7252   3698253.5342   1  10
2017/07/19 08:20:17.000  -3961862.6897   3348962.7376   3698253.5410   1  10
2017/07/19 08:20:17.199  -3961862.6918   3348962.7399   3698253.5425   1  10
2017/07/19 08:20:17.400  -3961862.6878   3348962.7332   3698253.5393   1  10
2017/07/19 08:20:17.600  -3961862.6880   3348962.7382   3698253.5400   1  10
2017/07/19 08:20:17.800  -3961862.6822   3348962.7294   3698253.5349   1  10
2017/07/19 08:20:18.000  -3961862.6920   3348962.7405   3698253.5403   1  10
2017/07/19 08:20:18.199  -3961862.6880   3348962.7389   3698253.5416   1  10
2017/07/19 08:20:18.400  -3961862.6878   3348962.7364   3698253.5375   1  10
2017/07/19 08:20:18.600  -3961862.6866   3348962.7364   3698253.5370   1  10
2017/07/19 08:20:18.800  -3961862.6897   3348962.7364   3698253.5402   1  10
2017/07/19 08:20:19.000  -3961862.6902   3348962.7397   3698253.5370   1  10
2017/07/19 08:20:19.199  -3961862.6902   3348962.7409   3698253.5399   1  10
2017/07/19 08:20:19.400  -3961862.6889   3348962.7412   3698253.5379   1  10
2017/07/19 08:20:19.600  -3961862.6873   3348962.7389   3698253.5364   1  10
2017/07/19 08:20:19.800  -3961862.6916   3348962.7361   3698253.5377   1  10
2017/07/19 08:20:20.000  -3961862.6908   3348962.7378   3698253.5404   1  10
2017/07/19 08:20:20.199  -3961862.6876   3348962.7292   3698253.5348   1  10
2017/07/19 08:20:20.400  -3961862.6814   3348962.7315   3698253.5324   1  10
2017/07/19 08:20:20.600  -3961862.6875   3348962.7368   3698253.5360   1  10
2017/07/19 08:20:20.800  -3961862.6926   3348962.7370   3698253.5362   1  10
2017/07/19 08:20:21.000  -3961862.6833   3348962.7293   3698253.5331   1  10
2017/07/19 08:20:21.199  -3961862.6921   3348962.7368   3698253.5372   1  10
2017/07/19 08:20:21.400  -3961862.6913   3348962.7344   3698253.5379   1  10
2017/07/19 08:20:21.600  -3961862.6874   3348962.7326   3698253.5361   1  10
2017/07/19 08:20:21.800  -3961862.6897   3348962.7322   3698253.5363   1  10
2017/07/19 08:20:22.000  -3961862.6938   3348962.7427   3698253.5375   1  10
2017/07/19 08:20:22.199  -3961862.6953   3348962.7424   3698253.5416   1  10
2017/07/19 08:20:22.400  -3961862.6893   3348962.7385   3698253.5384   1  10
2017/07/19 08:20:22.600  -3961862.6890   3348962.7393   3698253.5378   1  10
2017/07/19 08:20:22.800  -3961862.6920   3348962.7403   3698253.5404   1  10
2017/07/19 08:20:23.000  -3961862.6902   3348962.7308   3698253.5333   1  10
2017/07/19 08:20:23.199  -3961862.6844   3348962.7284   3698253.5319   1  10
2017/07/19 08:20:23.400  -3961862.6959   3348962.7423   3698253.5411   1  10
2017/07/19 08:20:23.600  -3961862.6923   3348962.7327   3698253.5381   1  10
2017/07/19 08:20:23.800  -3961862.6958   3348962.7393   3698253.5416   1  10
2017/07/19 08:20:24.000  -3961862.6875   3348962.7318   3698253.5326   1  10
2017/07/19 08:20:24.199  -3961862.6901   3348962.7344   3698253.5371   1  10
2017/07/19 08:20:24.400  -3961862.6879   3348962.7336   3698253.5346   1  10
2017/07/19 08:20:24.600  -3961862.6898   3348962.7337   3698253.5349   1  10
2017/07/19 08:20:24.800  -3961862.6914   3348962.7369   3698253.5397   1  10
2017/07/19 08:20:25.000  -3961862.6839   3348962.7331   3698253.5335   1  10
2017/07/19 08:20:25.199  -3961862.6889   3348962.7411   3698253.5362   1  10
2017/07/19 08:20:25.400  -3961862.6863   3348962.7312   3698253.5356   1  10
2017/07/19 08:20:25.600  -3961862.6877   3348962.7325   3698253.5345   1  10
2017/07/19 08:20:25.800  -3961862.6899   3348962.7406   3698253.5369   1  10
2017/07/19 08:20:26.000  -3961862.6902   3348962.7367   3698253.5382   1  10
2017/07/19 08:20:26.199  -3961862.6894   3348962.7325   3698253.5341   1  10
2017/07/19 08:20:26.400  -3961862.6944   3348962.7395   3698253.5378   1  10
2017/07/19 08:20:26.600  -3961862.6925   3348962.7402   3698253.5398   1  10
2017/07/19 08:20:26.800  -3961862.6896   3348962.7330   3698253.5360   1  10
2017/07/19 08:20:27.000  -3961862.6898   3348962.7346   3698253.5344   1  10
2017/07/19 08:20:27.199  -3961862.6899   3348962.7325   3698253.5336   1  10
2017/07/19 08:20:27.400  -3961862.6882   3348962.7349   3698253.5336   1  10
2017/07/19 08:20:27.600  -3961862.6902   3348962.7245   3698253.5293   1  10
2017/07/19 08:20:27.800  -3961862.6912   3348962.7373   3698253.5371   1  10
2017/07/19 08:20:28.000  -3961862.6931   3348962.7361   3698253.5340   1  10
2017/07/19 08:20:28.199  -3961862.6937   3348962.7379   3698253.5337   1  10
2017/07/19 08:20:28.400  -3961862.6932   3348962.7348   3698253.5340   1  10
2017/07/19 08:20:28.600  -3961862.6970   3348962.7389   3698253.5342   1  10
2017/07/19 08:20:28.800  -3961862.6983   3348962.7386   3698253.5340   1  10
2017/07/19 08:20:29.000  -3961862.6945   3348962.7267   3698253.5307   1  10
2017/07/19 08:20:29.199  -3961862.6956   3348962.7293   3698253.5302   1  10
2017/07/19 08:20:29.400  -3961862.6914   3348962.7285   3698253.5282   1  10
2017/07/19 08:20:29.600  -3961862.6948   3348962.7323   3698253.5323   1  10
2017/07/19 08:20:29.800  -3961862.6904   3348962.7262   3698253.5293   1  10
2017/07/19 08:20:30.000  -3961862.6884   3348962.7283   3698253.5281   1  10
2017/07/19 08:20:30.199  -3961862.6873   3348962.7308   3698253.5297   1  10
2017/07/19 08:20:30.400  -3961862.6886   3348962.7254   3698253.5298   1  10
2017/07/19 08:20:30.600  -3961862.6901   3348962.7306   3698253.5306   1  10
2017/07/19 08:20:30.800  -3961862.6883   3348962.7290   3698253.5321   1  10
2017/07/19 08:20:31.000  -3961862.6862   3348962.7259   3698253.5298   1  10
2017/07/19 08:20:31.199  -3961862.6940   3348962.7404   3698253.5375   1  10
2017/07/19 08:20:31.400  -3961862.6920   3348962.7353   3698253.5349   1  10
2017/07/19 08:20:31.600  -3961862.6878   3348962.7376   3698253.5325   1  10
2017/07/19 08:20:31.800  -3961862.6932   3348962.7498   3698253.5265   1  10
2017/07/19 08:20:32.000  -3961862.6867   3348962.7751   3698253.5058   1  10
2017/07/19 08:20:32.200  -3961862.6698   3348962.8328   3698253.4686   1  10
2017/07/19 08:20:32.399  -3961862.6514   3348962.9121   3698253.4145   1  10
2017/07/19 08:20:32.600  -3961862.6429   3348963.0043   3698253.3597   1  10
2017/07/19 08:20:32.799  -3961862.6157   3348963.1119   3698253.3102   1  10
2017/07/19 08:20:33.000  -3961862.5777   3348963.2076   3698253.2312   1  10
2017/07/19 08:20:33.200  -3961862.5429   3348963.3197   3698253.1527   1  10
2017/07/19 08:20:33.399  -3961862.4945   3348963.4430   3698253.0730   1  10
2017/07/19 08:20:33.600  -3961862.4647   3348963.5955   3698252.9816   1  10
2017/07/19 08:20:33.799  -3961862.4310   3348963.7558   3698252.8882   1  10
2017/07/19 08:20:34.000  -3961862.4137   3348963.9305   3698252.8067   1  10
2017/07/19 08:20:34.200  -3961862.3931   3348964.0796   3698252.7028   1  10
2017/07/19 08:20:34.399  -3961862.3666   3348964.2252   3698252.5882   1  10
2017/07/19 08:20:34.600  -3961862.3552   3348964.3606   3698252.4680   1  10
2017/07/19 08:20:34.800  -3961862.3297   3348964.4774   3698252.3421   1  10
2017/07/19 08:20:35.000  -3961862.3467   3348964.6202   3698252.2234   1  10
2017/07/19 08:20:35.200  -3961862.3559   3348964.7821   3698252.1064   1  10
2017/07/19 08:20:35.399  -3961862.3634   3348964.8574   3698251.9490   1  10
2017/07/19 08:20:35.600  -3961862.3912   3348965.0058   3698251.8193   1  10
2017/07/19 08:20:35.800  -3961862.4307   3348965.1704   3698251.7045   1  10
2017/07/19 08:20:36.000  -3961862.4595   3348965.2929   3698251.5707   1  10
2017/07/19 08:20:36.200  -3961862.4951   3348965.3797   3698251.4150   1  10
2017/07/19 08:20:36.399  -3961862.5494   3348965.4554   3698251.2693   1  10
2017/07/19 08:20:36.600  -3961862.6030   3348965.5755   3698251.1322   1  10
2017/07/19 08:20:36.800  -3961862.6641   3348965.6986   3698251.0025   1  11
2017/07/19 08:20:37.000  -3961862.7289   3348965.7419   3698250.8462   1  11
2017/07/19 08:20:37.200  -3961862.7849   3348965.8321   3698250.7031   1  11
2017/07/19 08:20:37.399  -3961862.8613   3348965.9224   3698250.5676   1  11
2017/07/19 08:20:37.600  -3961862.9450   3348965.9853   3698250.4286   1  11
2017/07/19 08:20:37.800  -3961863.0235   3348966.0636   3698250.2887   1  11
2017/07/19 08:20:38.000  -3961863.1226   3348966.1361   3698250.1552   1  11
2017/07/19 08:20:38.200  -3961863.2092   3348966.1574   3698250.0089   1  11
2017/07/19 08:20:38.399  -3961863.2968   3348966.2062   3698249.8764   1  11
2017/07/19 08:20:38.600  -3961863.3624   3348966.2283   3698249.7871   1  11
2017/07/19 08:20:38.800  -3961863.4169   3348966.2330   3698249.7165   1  11
2017/07/19 08:20:39.000  -3961863.4601   3348966.2322   3698249.6625   1  11
2017/07/19 08:20:39.200  -3961863.5044   3348966.2466   3698249.6224   1  11
2017/07/19 08:20:39.399  -3961863.5359   3348966.2497   3698249.5828   1  11
2017/07/19 08:20:39.600  -3961863.5349   3348966.2439   3698249.5876   1  11
2017/07/19 08:20:39.800  -3961863.5177   3348966.2541   3698249.6112   1  11
2017/07/19 08:20:40.000  -3961863.4682   3348966.2412   3698249.6577   1  11
2017/07/19 08:20:40.200  -3961863.3888   3348966.2451   3698249.7294   1  11
2017/07/19 08:20:40.399  -3961863.2929   3348966.2686   3698249.8314   1  11
2017/07/19 08:20:40.600  -3961863.1624   3348966.2918   3698249.9434   1  11
2017/07/19 08:20:40.800  -3961863.0088   3348966.3279   3698250.0642   1  11
2017/07/19 08:20:41.000  -3961862.8290   3348966.3786   3698250.1891   1  11
2017/07/19 08:20:41.200  -3961862.6369   3348966.4576   3698250.3338   1  11
2017/07/19 08:20:41.399  -3961862.4178   3348966.5539   3698250.4666   1  11
2017/07/19 08:20:41.600  -3961862.1714   3348966.6673   3698250.5850   1  11
2017/07/19 08:20:41.800  -3961861.9292   3348966.8144   3698250.7096   1  11
2017/07/19 08:20:42.000  -3961861.6754   3348966.9996   3698250.8200   1  11
2017/07/19 08:20:42.200  -3961861.4006   3348967.2056   3698250.9120   1  11
2017/07/19 08:20:42.399  -3961861.1359   3348967.4734   3698250.9929   1  11
2017/07/19 08:20:42.600  -3961860.8508   3348967.7494   3698251.0277   1  11
2017/07/19 08:20:42.800  -3961860.5550   3348968.0653   3698251.0249   1  10
2017/07/19 08:20:43.000  -3961860.2703   3348968.3734   3698250.9652   1  10
2017/07/19 08:20:43.200  -3961860.0683   3348968.7749   3698250.9098   1  10
2017/07/19 08:20:43.399  -3961859.8455   3348969.1470   3698250.7957   1  10
2017/07/19 08:20:43.600  -3961859.6584   3348969.5224   3698250.6573   1  10
2017/07/19 08:20:43.800  -3961859.4860   3348969.9024   3698250.4933   1  10
2017/07/19 08:20:44.000  -3961859.3441   3348970.2733   3698250.3250   1  10
2017/07/19 08:20:44.200  -3961859.1906   3348970.6509   3698250.1461   1  10
2017/07/19 08:20:44.399  -3961859.0765   3348971.0298   3698249.9576   1  10
2017/07/19 08:20:44.600  -3961858.9719   3348971.4455   3698249.7469   1   9
2017/07/19 08:20:44.800  -3961858.8459   3348971.8703   3698249.4970   1   9
2017/07/19 08:20:45.000  -3961858.7063   3348972.2810   3698249.2682   1   9
2017/07/19 08:20:45.200  -3961858.4701   3348972.7105   3698248.9920   1   8
2017/07/19 08:20:45.399  -3961858.2556   3348973.1912   3698248.7321   1   7
2017/07/19 08:20:45.600  -3961858.0249   3348973.7153   3698248.4848   1   7
2017/07/19 08:20:45.800  -3961857.8858   3348974.3559   3698248.2928   1   6
2017/07/19 08:20:46.000  -3961857.3615   3348974.7979   3698248.0075   1   6
2017/07/19 08:20:46.200  -3961857.0991   3348975.4512   3698247.8951   1   6
2017/07/19 08:20:46.399  -3961856.5778   3348976.0267   3698247.7732   1   6
2017/07/19 08:20:46.600  -3961856.2755   3348976.6256   3698247.7551   1   6
2017/07/19 08:20:46.800  -3961855.8924   3348977.2457   3698247.7554   1   6
2017/07/19 08:20:47.000  -3961855.3416   3348977.7915   3698247.8568   1   5
2017/07/19 08:20:47.200  -3961854.3736   3348978.2760   3698247.6992   1   4
2017/07/19 08:20:47.399  -3961853.9835   3348978.8310   3698248.0074   1   5
2017/07/19 08:20:47.600  -3961853.1712   3348979.3005   3698248.1827   1   4
2017/07/19 08:20:47.800  -3961852.5713   3348979.8669   3698248.5214   1   4
2017/07/19 08:20:48.000  -3961852.0710   3348980.3903   3698249.0331   1   4
2017/07/19 08:20:48.200  -3961852.0040   3348980.6846   3698250.2668   1   4
2017/07/19 08:20:48.399  -3961850.5556   3348981.1417   3698250.1450   1   4
2017/07/19 08:20:49.000  -3961849.5644   3348982.2996   3698253.3010   1   4
2017/07/19 08:20:49.200  -3961846.6896   3348982.8079   3698251.9470   1   4
2017/07/19 08:20:49.399  -3961846.9285   3348983.1833   3698253.7121   1   4
2017/07/19 08:20:50.200  -3961839.7712   3348985.0840   3698252.9451   1   4
2017/07/19 08:21:00.800  -3961776.9638   3349007.8723   3698303.5885   1   4
2017/07/19 08:21:01.000  -3961775.9937   3349008.2444   3698304.2938   1   5
2017/07/19 08:21:01.199  -3961775.0468   3349008.6152   3698304.9865   1   5
2017/07/19 08:21:01.400  -3961774.1410   3349008.9563   3698305.6362   1   5
2017/07/19 08:21:01.600  -3961773.2903   3349009.2680   3698306.2352   1   5
2017/07/19 08:21:01.800  -3961772.4745   3349009.5409   3698306.8255   1   6
2017/07/19 08:21:02.000  -3961771.7101   3349009.8333   3698307.3922   1   7
2017/07/19 08:21:02.200  -3961770.9937   3349010.1087   3698307.9186   1   7
2017/07/19 08:21:02.399  -3961770.3185   3349010.3605   3698308.4105   1   7
2017/07/19 08:21:02.600  -3961769.6788   3349010.5831   3698308.8621   1   7
2017/07/19 08:21:02.800  -3961769.0854   3349010.8254   3698309.3065   1  10
2017/07/19 08:21:03.000  -3961768.5261   3349011.0155   3698309.7106   1  11
2017/07/19 08:21:03.200  -3961767.9992   3349011.2179   3698310.0890   1  11
2017/07/19 08:21:03.399  -3961767.5109   3349011.4037   3698310.4476   1  10
2017/07/19 08:21:03.600  -3961767.0522   3349011.5656   3698310.7738   1  10
2017/07/19 08:21:03.800  -3961766.6470   3349011.7218   3698311.0749   1  10
2017/07/19 08:21:04.000  -3961766.2882   3349011.8397   3698311.3308   1  10
2017/07/19 08:21:04.200  -3961765.9843   3349011.9530   3698311.5517   1  10
2017/07/19 08:21:04.400  -3961765.7167   3349012.0523   3698311.7424   1  11
2017/07/19 08:21:04.600  -3961765.4997   3349012.1335   3698311.9002   1  11
2017/07/19 08:21:04.799  -3961765.3296   3349012.1903   3698312.0179   1  11
2017/07/19 08:21:05.000  -3961765.2064   3349012.2388   3698312.1003   1  11
2017/07/19 08:21:05.200  -3961765.1441   3349012.2656   3698312.1547   1  11
2017/07/19 08:21:05.400  -3961765.1240   3349012.2700   3698312.1670   1  11
2017/07/19 08:21:05.600  -3961765.1433   3349012.2688   3698312.1580   1  11
2017/07/19 08:21:05.799  -3961765.1420   3349012.2707   3698312.1600   1  11
2017/07/19 08:21:06.000  -3961765.1350   3349012.2663   3698312.1592   1  11
2017/07/19 08:21:06.200  -3961765.1382   3349012.2724   3698312.1635   1  11
2017/07/19 08:21:06.400  -3961765.1340   3349012.2673   3698312.1598   1  11
2017/07/19 08:21:06.600  -3961765.1364   3349012.2656   3698312.1604   1  11
2017/07/19 08:21:06.799  -3961765.1339   3349012.2639   3698312.1593   1  11
2017/07/19 08:21:07.000  -3961765.1338   3349012.2621   3698312.1593   1  11
2017/07/19 08:21:07.200  -3961765.1352   3349012.2632   3698312.1600   1  12
2017/07/19 08:21:07.400  -3961765.1330   3349012.2610   3698312.1592   1  13
2017/07/19 08:21:07.600  -3961765.1326   3349012.2594   3698312.1578   1  13
2017/07/19 08:21:07.799  -3961765.1329   3349012.2607   3698312.1582   1  13
2017/07/19 08:21:08.000  -3961765.1289   3349012.2561   3698312.1545   1  13
2017/07/19 08:21:08.199  -3961765.1259   3349012.2570   3698312.1531   1  14
2017/07/19 08:21:08.400  -3961765.1310   3349012.2610   3698312.1587   1  14
2017/07/19 08:21:08.599  -3961765.1322   3349012.2588   3698312.1568   1  14
2017/07/19 08:21:08.800  -3961765.1296   3349012.2579   3698312.1577   1  15
2017/07/19 08:21:09.000  -3961765.1325   3349012.2633   3698312.1597   1  15
2017/07/19 08:21:09.200  -3961765.1326   3349012.2617   3698312.1595   1  15
2017/07/19 08:21:09.400  -3961765.1340   3349012.2636   3698312.1617   1  15
2017/07/19 08:21:09.599  -3961765.1325   3349012.2607   3698312.1617   1  15
2017/07/19 08:21:09.800  -3961765.1298   3349012.2620   3698312.1564   1  15
2017/07/19 08:21:10.000  -3961765.1342   3349012.2668   3698312.1599   1  15
2017/07/19 08:21:10.200  -3961765.1375   3349012.2646   3698312.1636   1  16
2017/07/19 08:21:10.400  -3961765.1331   3349012.2655   3698312.1586   1  16
2017/07/19 08:21:10.599  -3961765.1375   3349012.2675   3698312.1615   1  16
2017/07/19 08:21:10.800  -3961765.1355   3349012.2675   3698312.1603   1  16
2017/07/19 08:21:11.000  -3961765.1356   3349012.2632   3698312.1594   1  16
2017/07/19 08:21:11.200  -3961765.1372   3349012.2639   3698312.1585   1  16
2017/07/19 08:21:11.400  -3961765.1372   3349012.2654   3698312.1591   1  16
2017/07/19 08:21:11.599  -3961765.1369   3349012.2601   3698312.1577   1  16
2017/07/19 08:21:11.800  -3961765.1362   3349012.2627   3698312.1563   1  16
2017/07/19 08:21:12.000  -3961765.1360   3349012.2635   3698312.1594   1  16
2017/07/19 08:21:12.200  -3961765.1351   3349012.2660   3698312.1569   1  16
2017/07/19 08:21:12.400  -3961765.1356   3349012.2634   3698312.1587   1  16
2017/07/19 08:21:12.599  -3961765.1339   3349012.2631   3698312.1578   1  16
2017/07/19 08:21:12.800  -3961765.1351   3349012.2630   3698312.1577   1  16
2017/07/19 08:21:13.000  -3961765.1326   3349012.2630   3698312.1556   1  16
2017/07/19 08:21:13.200  -3961765.1299   3349012.2605   3698312.1549   1  16
2017/07/19 08:21:13.400  -3961765.1314   3349012.2611   3698312.1555   1  16
2017/07/19 08:21:13.599  -3961765.1312   3349012.2588   3698312.1547   1  16
2017/07/19 08:21:13.800  -3961765.1317   3349012.2596   3698312.1550   1  16
