% program   : RTKPOST ver.2.4.3 b28
% inp file  : E:\Program\Fortran\Matlab_PPP\Net_Diff\for_redistribution_files_only\test\data\urban\rovt2000.17o
% inp file  : E:\Program\Fortran\Matlab_PPP\Net_Diff\for_redistribution_files_only\test\data\urban\reft2000.17o
% inp file  : E:\Program\Fortran\Matlab_PPP\Net_Diff\for_redistribution_files_only\test\data\urban\brdm2000.17p
% obs start : 2017/07/19 08:18:34.0 GPST (week1958 289114.0s)
% obs end   : 2017/07/19 09:00:35.4 GPST (week1958 291635.4s)
% pos mode  : kinematic
% freqs     : L1+L2
% solution  : forward
% elev mask : 10.0 deg
% dynamics  : off
% tidecorr  : on
% ionos opt : broadcast
% tropo opt : saastamoinen
% ephemeris : broadcast
% navi sys  : gps qzss beidou
% amb res   : instantaneous
% val thres : 3.0
% antenna1  :                       ( 0.0000  0.0000  0.0000)
% antenna2  :                       ( 0.0000  0.0000  0.0000)
% ref pos   : -3961905.5930   3348996.2040   3698212.0150
%
% (x/y/z-ecef=WGS84,Q=1:fix,2:float,3:sbas,4:dgps,5:single,6:ppp,ns=# of satellites)
%  GPST                      x-ecef(m)      y-ecef(m)      z-ecef(m)   Q  ns   sdx(m)   sdy(m)   sdz(m)  sdxy(m)  sdyz(m)  sdzx(m) age(s)  ratio
2017/07/19 08:18:34.000  -3961862.7366   3348962.7799   3698253.5897   1  12   0.0097   0.0142   0.0080  -0.0102   0.0095  -0.0082   0.00   43.3
2017/07/19 08:18:34.200  -3961862.7440   3348962.7897   3698253.5949   1  12   0.0097   0.0142   0.0080  -0.0102   0.0096  -0.0082   0.20   28.5
2017/07/19 08:18:34.400  -3961862.7388   3348962.7857   3698253.5922   1  12   0.0098   0.0142   0.0081  -0.0102   0.0096  -0.0082   0.40   35.3
2017/07/19 08:18:34.600  -3961862.7405   3348962.7840   3698253.5921   1  12   0.0098   0.0143   0.0081  -0.0102   0.0096  -0.0082   0.60   44.0
2017/07/19 08:18:34.800  -3961862.7405   3348962.7840   3698253.5897   1  12   0.0099   0.0144   0.0082  -0.0103   0.0097  -0.0083   0.80   32.3
2017/07/19 08:18:35.000  -3961862.7285   3348962.7670   3698253.5856   1  12   0.0097   0.0142   0.0080  -0.0102   0.0095  -0.0082   0.00   44.5
2017/07/19 08:18:35.200  -3961862.7336   3348962.7731   3698253.5864   1  12   0.0097   0.0142   0.0080  -0.0102   0.0096  -0.0082   0.20   46.5
2017/07/19 08:18:35.400  -3961862.7323   3348962.7757   3698253.5854   1  12   0.0098   0.0142   0.0081  -0.0102   0.0096  -0.0082   0.40   45.0
2017/07/19 08:18:35.600  -3961862.7328   3348962.7794   3698253.5860   1  12   0.0098   0.0143   0.0081  -0.0102   0.0096  -0.0082   0.60   24.9
2017/07/19 08:18:35.800  -3961862.7318   3348962.7725   3698253.5837   1  12   0.0099   0.0144   0.0082  -0.0103   0.0097  -0.0083   0.80   39.1
2017/07/19 08:18:36.000  -3961862.7376   3348962.7801   3698253.5926   1  12   0.0097   0.0142   0.0080  -0.0102   0.0095  -0.0082   0.00   37.1
2017/07/19 08:18:36.200  -3961862.7339   3348962.7781   3698253.5890   1  12   0.0097   0.0142   0.0080  -0.0102   0.0096  -0.0082   0.20   24.6
2017/07/19 08:18:36.400  -3961862.7365   3348962.7783   3698253.5914   1  12   0.0098   0.0142   0.0081  -0.0102   0.0096  -0.0082   0.40   23.3
2017/07/19 08:18:36.600  -3961862.7313   3348962.7736   3698253.5874   1  12   0.0098   0.0143   0.0081  -0.0102   0.0096  -0.0082   0.60   31.2
2017/07/19 08:18:36.800  -3961862.7372   3348962.7787   3698253.5906   1  12   0.0099   0.0144   0.0082  -0.0103   0.0097  -0.0083   0.80   21.9
2017/07/19 08:18:37.000  -3961862.7341   3348962.7731   3698253.5867   1  12   0.0097   0.0142   0.0080  -0.0102   0.0095  -0.0082   0.00   29.6
2017/07/19 08:18:37.200  -3961862.7331   3348962.7655   3698253.5847   1  12   0.0097   0.0142   0.0080  -0.0102   0.0096  -0.0082   0.20   30.5
2017/07/19 08:18:37.400  -3961862.7354   3348962.7711   3698253.5894   1  12   0.0098   0.0142   0.0081  -0.0102   0.0096  -0.0082   0.40   32.8
2017/07/19 08:18:37.600  -3961862.7355   3348962.7702   3698253.5872   1  12   0.0098   0.0143   0.0081  -0.0102   0.0096  -0.0082   0.60   22.6
2017/07/19 08:18:37.800  -3961862.7349   3348962.7710   3698253.5909   1  12   0.0099   0.0144   0.0082  -0.0103   0.0097  -0.0083   0.80   34.4
2017/07/19 08:18:38.000  -3961862.7338   3348962.7740   3698253.5884   1  12   0.0097   0.0142   0.0080  -0.0102   0.0095  -0.0082   0.00   29.5
2017/07/19 08:18:38.200  -3961862.7364   3348962.7793   3698253.5897   1  12   0.0097   0.0142   0.0080  -0.0102   0.0096  -0.0082   0.20   37.6
2017/07/19 08:18:38.400  -3961862.7371   3348962.7749   3698253.5895   1  12   0.0098   0.0142   0.0081  -0.0102   0.0096  -0.0082   0.40   28.6
2017/07/19 08:18:38.600  -3961862.7392   3348962.7831   3698253.5919   1  12   0.0098   0.0143   0.0081  -0.0102   0.0096  -0.0082   0.60   28.1
2017/07/19 08:18:38.800  -3961862.7359   3348962.7784   3698253.5922   1  12   0.0099   0.0144   0.0082  -0.0103   0.0097  -0.0083   0.80   31.7
2017/07/19 08:18:39.000  -3961862.7359   3348962.7764   3698253.5874   1  12   0.0097   0.0141   0.0080  -0.0102   0.0095  -0.0082   0.00   29.7
2017/07/19 08:18:39.200  -3961862.7347   3348962.7694   3698253.5884   1  12   0.0097   0.0142   0.0080  -0.0102   0.0096  -0.0082   0.20   49.1
2017/07/19 08:18:39.400  -3961862.7360   3348962.7709   3698253.5879   1  12   0.0098   0.0142   0.0081  -0.0102   0.0096  -0.0082   0.40   47.3
2017/07/19 08:18:39.600  -3961862.7312   3348962.7726   3698253.5845   1  12   0.0098   0.0143   0.0081  -0.0102   0.0096  -0.0082   0.60   35.7
2017/07/19 08:18:39.800  -3961862.7344   3348962.7687   3698253.5855   1  12   0.0099   0.0144   0.0082  -0.0103   0.0097  -0.0083   0.80   29.6
2017/07/19 08:18:40.000  -3961862.7375   3348962.7834   3698253.5901   1  12   0.0097   0.0141   0.0080  -0.0102   0.0095  -0.0082   0.00   35.7
2017/07/19 08:18:40.200  -3961862.7366   3348962.7863   3698253.5899   1  12   0.0097   0.0142   0.0080  -0.0102   0.0096  -0.0082   0.20   53.1
2017/07/19 08:18:40.400  -3961862.7339   3348962.7796   3698253.5892   1  12   0.0098   0.0142   0.0081  -0.0102   0.0096  -0.0082   0.40   64.1
2017/07/19 08:18:40.600  -3961862.7284   3348962.7740   3698253.5857   1  12   0.0098   0.0143   0.0081  -0.0102   0.0096  -0.0082   0.60   55.5
2017/07/19 08:18:40.800  -3961862.7333   3348962.7821   3698253.5880   1  12   0.0099   0.0144   0.0082  -0.0103   0.0097  -0.0083   0.80   37.0
2017/07/19 08:18:41.000  -3961862.7297   3348962.7660   3698253.5834   1  12   0.0097   0.0141   0.0080  -0.0102   0.0095  -0.0082   0.00   30.0
2017/07/19 08:18:41.200  -3961862.7298   3348962.7648   3698253.5849   1  12   0.0097   0.0142   0.0080  -0.0102   0.0096  -0.0082   0.20   27.0
2017/07/19 08:18:41.400  -3961862.7282   3348962.7700   3698253.5856   1  12   0.0098   0.0142   0.0081  -0.0102   0.0096  -0.0082   0.40   26.4
2017/07/19 08:18:41.600  -3961862.7270   3348962.7638   3698253.5789   1  12   0.0098   0.0143   0.0081  -0.0102   0.0096  -0.0082   0.60   32.4
2017/07/19 08:18:41.800  -3961862.7312   3348962.7667   3698253.5827   1  12   0.0099   0.0143   0.0082  -0.0103   0.0097  -0.0083   0.80   33.7
2017/07/19 08:18:42.000  -3961862.7283   3348962.7685   3698253.5854   1  12   0.0097   0.0141   0.0080  -0.0101   0.0095  -0.0082   0.00   48.3
2017/07/19 08:18:42.200  -3961862.7336   3348962.7720   3698253.5874   1  12   0.0097   0.0142   0.0080  -0.0102   0.0096  -0.0082   0.20   47.3
2017/07/19 08:18:42.400  -3961862.7243   3348962.7666   3698253.5832   1  12   0.0098   0.0142   0.0081  -0.0102   0.0096  -0.0082   0.40   42.1
2017/07/19 08:18:42.600  -3961862.7332   3348962.7701   3698253.5895   1  12   0.0098   0.0143   0.0081  -0.0102   0.0096  -0.0082   0.60   31.7
2017/07/19 08:18:42.800  -3961862.7316   3348962.7736   3698253.5882   1  12   0.0099   0.0143   0.0082  -0.0103   0.0097  -0.0083   0.80   33.3
2017/07/19 08:18:43.000  -3961862.7313   3348962.7688   3698253.5844   1  12   0.0097   0.0141   0.0080  -0.0101   0.0095  -0.0082   0.00   37.9
2017/07/19 08:18:43.200  -3961862.7341   3348962.7746   3698253.5897   1  12   0.0097   0.0142   0.0080  -0.0102   0.0095  -0.0082   0.20   51.3
2017/07/19 08:18:43.400  -3961862.7296   3348962.7725   3698253.5844   1  12   0.0098   0.0142   0.0081  -0.0102   0.0096  -0.0082   0.40   31.1
2017/07/19 08:18:43.600  -3961862.7299   3348962.7722   3698253.5855   1  12   0.0098   0.0143   0.0081  -0.0102   0.0096  -0.0082   0.60   32.1
2017/07/19 08:18:43.800  -3961862.7341   3348962.7744   3698253.5862   1  12   0.0099   0.0143   0.0082  -0.0103   0.0097  -0.0083   0.80   36.0
2017/07/19 08:18:44.000  -3961862.7333   3348962.7777   3698253.5889   1  12   0.0097   0.0141   0.0080  -0.0101   0.0095  -0.0082   0.00   31.5
2017/07/19 08:18:44.200  -3961862.7367   3348962.7797   3698253.5910   1  12   0.0097   0.0142   0.0080  -0.0102   0.0095  -0.0082   0.20   33.8
2017/07/19 08:18:44.400  -3961862.7305   3348962.7761   3698253.5872   1  12   0.0098   0.0142   0.0081  -0.0102   0.0096  -0.0082   0.40   50.1
2017/07/19 08:18:44.600  -3961862.7328   3348962.7722   3698253.5887   1  12   0.0098   0.0143   0.0081  -0.0102   0.0096  -0.0082   0.60   45.6
2017/07/19 08:18:44.800  -3961862.7340   3348962.7764   3698253.5888   1  12   0.0099   0.0143   0.0082  -0.0103   0.0097  -0.0083   0.80   40.0
2017/07/19 08:18:45.000  -3961862.7283   3348962.7715   3698253.5838   1  12   0.0097   0.0141   0.0080  -0.0101   0.0095  -0.0082   0.00   34.3
2017/07/19 08:18:45.200  -3961862.7320   3348962.7695   3698253.5832   1  12   0.0097   0.0142   0.0080  -0.0102   0.0095  -0.0082   0.20   29.3
2017/07/19 08:18:45.400  -3961862.7348   3348962.7752   3698253.5863   1  12   0.0098   0.0142   0.0081  -0.0102   0.0096  -0.0082   0.40   42.5
2017/07/19 08:18:45.600  -3961862.7255   3348962.7623   3698253.5819   1  12   0.0098   0.0143   0.0081  -0.0102   0.0096  -0.0082   0.60   34.6
2017/07/19 08:18:45.800  -3961862.7322   3348962.7690   3698253.5860   1  12   0.0099   0.0143   0.0082  -0.0103   0.0097  -0.0083   0.80   31.8
2017/07/19 08:18:46.000  -3961862.7348   3348962.7768   3698253.5881   1  12   0.0097   0.0141   0.0080  -0.0101   0.0095  -0.0082   0.00   56.2
2017/07/19 08:18:46.200  -3961862.7258   3348962.7687   3698253.5805   1  12   0.0097   0.0142   0.0080  -0.0102   0.0095  -0.0082   0.20   57.9
2017/07/19 08:18:46.400  -3961862.7334   3348962.7781   3698253.5910   1  12   0.0098   0.0142   0.0081  -0.0102   0.0096  -0.0082   0.40   65.6
2017/07/19 08:18:46.600  -3961862.7361   3348962.7800   3698253.5894   1  12   0.0098   0.0143   0.0081  -0.0102   0.0096  -0.0082   0.60   58.5
2017/07/19 08:18:46.800  -3961862.7251   3348962.7716   3698253.5851   1  12   0.0099   0.0143   0.0082  -0.0103   0.0097  -0.0083   0.80   61.5
2017/07/19 08:18:47.000  -3961862.7362   3348962.7797   3698253.5876   1  12   0.0097   0.0141   0.0080  -0.0101   0.0095  -0.0082   0.00   34.9
2017/07/19 08:18:47.200  -3961862.7323   3348962.7738   3698253.5864   1  12   0.0097   0.0141   0.0080  -0.0102   0.0095  -0.0082   0.20   31.2
2017/07/19 08:18:47.400  -3961862.7335   3348962.7785   3698253.5873   1  12   0.0098   0.0142   0.0081  -0.0102   0.0096  -0.0082   0.40   30.5
2017/07/19 08:18:47.600  -3961862.7337   3348962.7784   3698253.5884   1  12   0.0098   0.0143   0.0081  -0.0102   0.0096  -0.0082   0.60   31.8
2017/07/19 08:18:47.800  -3961862.7301   3348962.7772   3698253.5854   1  12   0.0099   0.0143   0.0082  -0.0103   0.0097  -0.0083   0.80   26.3
2017/07/19 08:18:48.000  -3961862.7269   3348962.7671   3698253.5820   1  12   0.0097   0.0141   0.0080  -0.0101   0.0095  -0.0082   0.00   20.4
2017/07/19 08:18:48.200  -3961862.7339   3348962.7756   3698253.5879   1  12   0.0097   0.0141   0.0080  -0.0102   0.0095  -0.0082   0.20   21.5
2017/07/19 08:18:48.400  -3961862.7304   3348962.7691   3698253.5848   1  12   0.0098   0.0142   0.0081  -0.0102   0.0096  -0.0082   0.40   18.9
2017/07/19 08:18:48.600  -3961862.7292   3348962.7694   3698253.5860   1  12   0.0098   0.0142   0.0081  -0.0102   0.0096  -0.0082   0.60   24.3
2017/07/19 08:18:48.800  -3961862.7287   3348962.7667   3698253.5831   1  12   0.0099   0.0143   0.0082  -0.0103   0.0097  -0.0083   0.80   20.0
2017/07/19 08:18:49.000  -3961862.7315   3348962.7713   3698253.5834   1  12   0.0097   0.0141   0.0080  -0.0101   0.0095  -0.0082   0.00   30.0
2017/07/19 08:18:49.200  -3961862.7258   3348962.7694   3698253.5829   1  12   0.0097   0.0141   0.0080  -0.0102   0.0095  -0.0082   0.20   38.8
2017/07/19 08:18:49.400  -3961862.7340   3348962.7808   3698253.5872   1  12   0.0098   0.0142   0.0081  -0.0102   0.0096  -0.0082   0.40   40.6
2017/07/19 08:18:49.600  -3961862.7314   3348962.7741   3698253.5840   1  12   0.0098   0.0142   0.0081  -0.0102   0.0096  -0.0082   0.60   23.0
2017/07/19 08:18:49.800  -3961862.7370   3348962.7805   3698253.5889   1  12   0.0099   0.0143   0.0082  -0.0103   0.0097  -0.0083   0.80   27.9
2017/07/19 08:18:50.000  -3961862.7324   3348962.7732   3698253.5888   1  12   0.0097   0.0141   0.0080  -0.0101   0.0095  -0.0082   0.00   20.9
2017/07/19 08:18:50.200  -3961862.7341   3348962.7764   3698253.5856   1  12   0.0097   0.0141   0.0080  -0.0102   0.0095  -0.0082   0.20   18.3
2017/07/19 08:18:50.400  -3961862.7334   3348962.7740   3698253.5872   1  12   0.0098   0.0142   0.0081  -0.0102   0.0096  -0.0082   0.40   20.3
2017/07/19 08:18:50.600  -3961862.7389   3348962.7775   3698253.5912   1  12   0.0098   0.0142   0.0081  -0.0102   0.0096  -0.0082   0.60   23.2
2017/07/19 08:18:50.800  -3961862.7360   3348962.7808   3698253.5919   1  12   0.0099   0.0143   0.0082  -0.0103   0.0097  -0.0083   0.80   24.5
2017/07/19 08:18:51.000  -3961862.7299   3348962.7687   3698253.5822   1  12   0.0097   0.0141   0.0080  -0.0101   0.0095  -0.0082   0.00   23.7
2017/07/19 08:18:51.200  -3961862.7353   3348962.7736   3698253.5887   1  12   0.0097   0.0141   0.0080  -0.0102   0.0095  -0.0082   0.20   36.4
2017/07/19 08:18:51.400  -3961862.7338   3348962.7781   3698253.5887   1  12   0.0098   0.0142   0.0081  -0.0102   0.0096  -0.0082   0.40   29.0
2017/07/19 08:18:51.600  -3961862.7356   3348962.7759   3698253.5887   1  12   0.0098   0.0142   0.0081  -0.0102   0.0096  -0.0082   0.60   28.9
2017/07/19 08:18:51.800  -3961862.7391   3348962.7814   3698253.5912   1  12   0.0099   0.0143   0.0082  -0.0103   0.0097  -0.0083   0.80   26.6
2017/07/19 08:18:52.000  -3961862.7341   3348962.7767   3698253.5899   1  12   0.0097   0.0141   0.0080  -0.0101   0.0095  -0.0082   0.00   38.3
2017/07/19 08:18:52.200  -3961862.7300   3348962.7666   3698253.5814   1  12   0.0097   0.0141   0.0080  -0.0102   0.0095  -0.0082   0.20   37.7
2017/07/19 08:18:52.400  -3961862.7305   3348962.7718   3698253.5841   1  12   0.0098   0.0142   0.0081  -0.0102   0.0096  -0.0082   0.40   31.6
2017/07/19 08:18:52.600  -3961862.7331   3348962.7738   3698253.5873   1  12   0.0098   0.0142   0.0081  -0.0102   0.0096  -0.0082   0.60   28.9
2017/07/19 08:18:52.800  -3961862.7314   3348962.7714   3698253.5867   1  12   0.0099   0.0143   0.0082  -0.0103   0.0097  -0.0083   0.80   30.7
2017/07/19 08:18:53.000  -3961862.7266   3348962.7611   3698253.5810   1  12   0.0097   0.0141   0.0080  -0.0101   0.0095  -0.0082   0.00   37.0
2017/07/19 08:18:53.200  -3961862.7329   3348962.7630   3698253.5830   1  12   0.0097   0.0141   0.0080  -0.0102   0.0095  -0.0082   0.20   34.5
2017/07/19 08:18:53.400  -3961862.7270   3348962.7599   3698253.5814   1  12   0.0098   0.0142   0.0081  -0.0102   0.0096  -0.0082   0.40   30.5
2017/07/19 08:18:53.600  -3961862.7246   3348962.7567   3698253.5777   1  12   0.0098   0.0142   0.0081  -0.0102   0.0096  -0.0082   0.60   25.4
2017/07/19 08:18:53.800  -3961862.7284   3348962.7655   3698253.5797   1  12   0.0099   0.0143   0.0082  -0.0103   0.0097  -0.0083   0.80   30.0
2017/07/19 08:18:54.000  -3961862.7326   3348962.7670   3698253.5857   1  12   0.0097   0.0141   0.0080  -0.0101   0.0095  -0.0082   0.00   27.1
2017/07/19 08:18:54.200  -3961862.7327   3348962.7730   3698253.5849   1  12   0.0097   0.0141   0.0080  -0.0101   0.0095  -0.0082   0.20   31.1
2017/07/19 08:18:54.400  -3961862.7343   3348962.7706   3698253.5846   1  12   0.0098   0.0142   0.0081  -0.0102   0.0096  -0.0082   0.40   30.9
2017/07/19 08:18:54.600  -3961862.7257   3348962.7644   3698253.5806   1  12   0.0098   0.0142   0.0081  -0.0102   0.0096  -0.0082   0.60   35.9
2017/07/19 08:18:54.800  -3961862.7258   3348962.7609   3698253.5805   1  12   0.0099   0.0143   0.0082  -0.0103   0.0097  -0.0083   0.80   40.7
2017/07/19 08:18:55.000  -3961862.7288   3348962.7711   3698253.5813   1  12   0.0097   0.0141   0.0080  -0.0101   0.0095  -0.0082   0.00   25.1
2017/07/19 08:18:55.200  -3961862.7327   3348962.7737   3698253.5835   1  12   0.0097   0.0141   0.0080  -0.0101   0.0095  -0.0082   0.20   25.2
2017/07/19 08:18:55.400  -3961862.7264   3348962.7688   3698253.5806   1  12   0.0098   0.0142   0.0081  -0.0102   0.0096  -0.0082   0.40   24.4
2017/07/19 08:18:55.600  -3961862.7334   3348962.7683   3698253.5859   1  12   0.0098   0.0142   0.0081  -0.0102   0.0096  -0.0082   0.60   28.8
2017/07/19 08:18:55.800  -3961862.7309   3348962.7649   3698253.5804   1  12   0.0099   0.0143   0.0082  -0.0103   0.0097  -0.0083   0.80   21.5
2017/07/19 08:18:56.000  -3961862.7261   3348962.7673   3698253.5837   1  12   0.0097   0.0141   0.0080  -0.0101   0.0095  -0.0082   0.00   29.2
2017/07/19 08:18:56.200  -3961862.7298   3348962.7661   3698253.5823   1  12   0.0097   0.0141   0.0080  -0.0101   0.0095  -0.0082   0.20   30.0
2017/07/19 08:18:56.400  -3961862.7285   3348962.7655   3698253.5817   1  12   0.0098   0.0142   0.0081  -0.0102   0.0096  -0.0082   0.40   30.1
2017/07/19 08:18:56.600  -3961862.7344   3348962.7727   3698253.5858   1  12   0.0098   0.0142   0.0081  -0.0102   0.0096  -0.0082   0.60   35.1
2017/07/19 08:18:56.800  -3961862.7275   3348962.7649   3698253.5832   1  12   0.0099   0.0143   0.0082  -0.0103   0.0097  -0.0083   0.80   29.8
2017/07/19 08:18:57.000  -3961862.7290   3348962.7631   3698253.5836   1  12   0.0097   0.0141   0.0080  -0.0101   0.0095  -0.0082   0.00   29.2
2017/07/19 08:18:57.200  -3961862.7255   3348962.7619   3698253.5796   1  12   0.0097   0.0141   0.0080  -0.0101   0.0095  -0.0082   0.20   19.0
2017/07/19 08:18:57.400  -3961862.7333   3348962.7705   3698253.5865   1  12   0.0098   0.0142   0.0081  -0.0102   0.0096  -0.0082   0.40   25.8
2017/07/19 08:18:57.600  -3961862.7304   3348962.7637   3698253.5828   1  12   0.0098   0.0142   0.0081  -0.0102   0.0096  -0.0082   0.60   27.0
2017/07/19 08:18:57.800  -3961862.7310   3348962.7641   3698253.5833   1  12   0.0099   0.0143   0.0082  -0.0103   0.0097  -0.0083   0.80   22.0
2017/07/19 08:18:58.000  -3961862.7267   3348962.7661   3698253.5823   1  12   0.0097   0.0141   0.0080  -0.0101   0.0095  -0.0082   0.00   24.8
2017/07/19 08:18:58.200  -3961862.7214   3348962.7603   3698253.5797   1  12   0.0097   0.0141   0.0080  -0.0101   0.0095  -0.0082   0.20   22.5
2017/07/19 08:18:58.400  -3961862.7296   3348962.7652   3698253.5838   1  12   0.0098   0.0142   0.0081  -0.0102   0.0096  -0.0082   0.40   25.7
2017/07/19 08:18:58.600  -3961862.7257   3348962.7617   3698253.5787   1  12   0.0098   0.0142   0.0081  -0.0102   0.0096  -0.0082   0.60   20.3
2017/07/19 08:18:58.800  -3961862.7254   3348962.7630   3698253.5793   1  12   0.0099   0.0143   0.0082  -0.0103   0.0097  -0.0083   0.80   23.3
2017/07/19 08:18:59.000  -3961862.7310   3348962.7672   3698253.5851   1  12   0.0097   0.0141   0.0080  -0.0101   0.0095  -0.0082   0.00   32.5
2017/07/19 08:18:59.200  -3961862.7205   3348962.7582   3698253.5762   1  12   0.0097   0.0141   0.0080  -0.0101   0.0095  -0.0082   0.20   33.7
2017/07/19 08:18:59.400  -3961862.7255   3348962.7626   3698253.5783   1  12   0.0098   0.0142   0.0081  -0.0102   0.0096  -0.0082   0.40   38.4
2017/07/19 08:18:59.600  -3961862.7315   3348962.7678   3698253.5829   1  12   0.0098   0.0142   0.0081  -0.0102   0.0096  -0.0082   0.60   26.0
2017/07/19 08:18:59.800  -3961862.7290   3348962.7652   3698253.5808   1  12   0.0099   0.0143   0.0082  -0.0103   0.0097  -0.0083   0.80   22.9
2017/07/19 08:19:00.000  -3961862.7214   3348962.7596   3698253.5791   1  12   0.0097   0.0141   0.0080  -0.0101   0.0095  -0.0082   0.00   29.1
2017/07/19 08:19:00.200  -3961862.7213   3348962.7596   3698253.5788   1  12   0.0097   0.0141   0.0080  -0.0101   0.0095  -0.0082   0.20   31.5
2017/07/19 08:19:00.400  -3961862.7205   3348962.7605   3698253.5797   1  12   0.0098   0.0142   0.0081  -0.0102   0.0096  -0.0082   0.40   26.9
2017/07/19 08:19:00.600  -3961862.7251   3348962.7571   3698253.5809   1  12   0.0098   0.0142   0.0081  -0.0102   0.0096  -0.0082   0.60   28.2
2017/07/19 08:19:00.800  -3961862.7212   3348962.7567   3698253.5784   1  12   0.0099   0.0143   0.0082  -0.0103   0.0097  -0.0083   0.80   35.5
2017/07/19 08:19:01.000  -3961862.7236   3348962.7608   3698253.5780   1  12   0.0097   0.0141   0.0080  -0.0101   0.0095  -0.0082   0.00   33.6
2017/07/19 08:19:01.200  -3961862.7260   3348962.7609   3698253.5800   1  12   0.0097   0.0141   0.0080  -0.0101   0.0095  -0.0082   0.20   33.0
2017/07/19 08:19:01.400  -3961862.7237   3348962.7632   3698253.5808   1  12   0.0098   0.0142   0.0081  -0.0102   0.0096  -0.0082   0.40   30.9
2017/07/19 08:19:01.600  -3961862.7236   3348962.7639   3698253.5772   1  12   0.0098   0.0142   0.0081  -0.0102   0.0096  -0.0082   0.60   25.4
2017/07/19 08:19:01.800  -3961862.7276   3348962.7680   3698253.5816   1  12   0.0099   0.0143   0.0082  -0.0103   0.0097  -0.0083   0.80   23.8
2017/07/19 08:19:02.000  -3961862.7261   3348962.7599   3698253.5801   1  12   0.0097   0.0141   0.0080  -0.0101   0.0095  -0.0082   0.00   22.1
2017/07/19 08:19:02.200  -3961862.7231   3348962.7571   3698253.5782   1  12   0.0097   0.0141   0.0080  -0.0101   0.0095  -0.0082   0.20   20.3
2017/07/19 08:19:02.400  -3961862.7270   3348962.7606   3698253.5778   1  12   0.0098   0.0142   0.0081  -0.0102   0.0096  -0.0082   0.40   23.0
2017/07/19 08:19:02.600  -3961862.7314   3348962.7705   3698253.5844   1  12   0.0098   0.0142   0.0081  -0.0102   0.0096  -0.0082   0.60   22.8
2017/07/19 08:19:02.800  -3961862.7307   3348962.7663   3698253.5824   1  12   0.0099   0.0143   0.0082  -0.0103   0.0097  -0.0083   0.80   16.3
2017/07/19 08:19:03.000  -3961862.7293   3348962.7683   3698253.5831   1  12   0.0097   0.0141   0.0080  -0.0101   0.0095  -0.0082   0.00   19.3
2017/07/19 08:19:03.200  -3961862.7320   3348962.7723   3698253.5869   1  12   0.0097   0.0141   0.0080  -0.0101   0.0095  -0.0082   0.20   16.6
2017/07/19 08:19:03.400  -3961862.7273   3348962.7689   3698253.5833   1  12   0.0098   0.0142   0.0081  -0.0102   0.0096  -0.0082   0.40   19.2
2017/07/19 08:19:03.600  -3961862.7292   3348962.7681   3698253.5827   1  12   0.0098   0.0142   0.0081  -0.0102   0.0096  -0.0082   0.60   14.7
2017/07/19 08:19:03.800  -3961862.7259   3348962.7613   3698253.5813   1  12   0.0099   0.0143   0.0082  -0.0103   0.0097  -0.0083   0.80   14.7
2017/07/19 08:19:04.000  -3961862.7292   3348962.7704   3698253.5813   1  12   0.0097   0.0141   0.0080  -0.0101   0.0095  -0.0082   0.00   22.8
2017/07/19 08:19:04.200  -3961862.7261   3348962.7649   3698253.5754   1  12   0.0097   0.0141   0.0080  -0.0101   0.0095  -0.0082   0.20   18.1
2017/07/19 08:19:04.400  -3961862.7308   3348962.7696   3698253.5813   1  12   0.0098   0.0142   0.0081  -0.0102   0.0096  -0.0082   0.40   28.8
2017/07/19 08:19:04.600  -3961862.7241   3348962.7622   3698253.5741   1  12   0.0098   0.0142   0.0081  -0.0102   0.0096  -0.0082   0.60   20.3
2017/07/19 08:19:04.800  -3961862.7281   3348962.7697   3698253.5788   1  12   0.0099   0.0143   0.0082  -0.0103   0.0097  -0.0083   0.80   21.7
2017/07/19 08:19:05.000  -3961862.7244   3348962.7656   3698253.5791   1  12   0.0097   0.0141   0.0080  -0.0101   0.0095  -0.0082   0.00   23.1
2017/07/19 08:19:05.200  -3961862.7272   3348962.7648   3698253.5791   1  12   0.0097   0.0141   0.0080  -0.0101   0.0095  -0.0082   0.20   28.2
2017/07/19 08:19:05.400  -3961862.7306   3348962.7717   3698253.5829   1  12   0.0098   0.0142   0.0081  -0.0102   0.0096  -0.0082   0.40   32.2
2017/07/19 08:19:05.600  -3961862.7257   3348962.7642   3698253.5791   1  12   0.0098   0.0142   0.0081  -0.0102   0.0096  -0.0082   0.60   22.7
2017/07/19 08:19:05.800  -3961862.7341   3348962.7730   3698253.5858   1  12   0.0099   0.0143   0.0082  -0.0103   0.0097  -0.0083   0.80   33.1
2017/07/19 08:19:06.000  -3961862.7219   3348962.7556   3698253.5737   1  12   0.0097   0.0141   0.0080  -0.0101   0.0095  -0.0082   0.00   27.7
2017/07/19 08:19:06.200  -3961862.7299   3348962.7662   3698253.5811   1  12   0.0097   0.0141   0.0080  -0.0101   0.0095  -0.0082   0.20   36.8
2017/07/19 08:19:06.400  -3961862.7259   3348962.7680   3698253.5783   1  12   0.0098   0.0142   0.0081  -0.0102   0.0096  -0.0082   0.40   26.9
2017/07/19 08:19:06.600  -3961862.7214   3348962.7633   3698253.5773   1  12   0.0098   0.0142   0.0081  -0.0102   0.0096  -0.0082   0.60   32.1
2017/07/19 08:19:06.800  -3961862.7260   3348962.7667   3698253.5773   1  12   0.0099   0.0143   0.0082  -0.0103   0.0097  -0.0083   0.80   26.1
2017/07/19 08:19:07.000  -3961862.7276   3348962.7644   3698253.5796   1  12   0.0097   0.0141   0.0080  -0.0101   0.0095  -0.0082   0.00   19.2
2017/07/19 08:19:07.200  -3961862.7245   3348962.7658   3698253.5775   1  12   0.0097   0.0141   0.0080  -0.0101   0.0095  -0.0082   0.20   17.4
2017/07/19 08:19:07.400  -3961862.7221   3348962.7526   3698253.5738   1  12   0.0098   0.0142   0.0081  -0.0102   0.0096  -0.0082   0.40   20.5
2017/07/19 08:19:07.600  -3961862.7232   3348962.7556   3698253.5736   1  12   0.0098   0.0142   0.0081  -0.0102   0.0096  -0.0082   0.60   22.7
2017/07/19 08:19:07.800  -3961862.7219   3348962.7544   3698253.5742   1  12   0.0099   0.0143   0.0082  -0.0103   0.0097  -0.0083   0.80   21.8
2017/07/19 08:19:08.000  -3961862.7236   3348962.7590   3698253.5773   1  12   0.0097   0.0141   0.0080  -0.0101   0.0095  -0.0082   0.00   17.7
2017/07/19 08:19:08.200  -3961862.7320   3348962.7673   3698253.5872   1  12   0.0097   0.0141   0.0080  -0.0101   0.0095  -0.0082   0.20   17.6
2017/07/19 08:19:08.400  -3961862.7300   3348962.7689   3698253.5824   1  12   0.0098   0.0142   0.0081  -0.0102   0.0096  -0.0082   0.40   15.7
2017/07/19 08:19:08.600  -3961862.7238   3348962.7593   3698253.5784   1  12   0.0098   0.0142   0.0081  -0.0102   0.0096  -0.0082   0.60   20.6
2017/07/19 08:19:08.800  -3961862.7315   3348962.7700   3698253.5855   1  12   0.0099   0.0143   0.0082  -0.0103   0.0097  -0.0083   0.80   18.4
2017/07/19 08:19:09.000  -3961862.7273   3348962.7688   3698253.5799   1  12   0.0097   0.0141   0.0080  -0.0101   0.0095  -0.0082   0.00   25.3
2017/07/19 08:19:09.200  -3961862.7232   3348962.7627   3698253.5757   1  12   0.0097   0.0141   0.0080  -0.0101   0.0095  -0.0082   0.20   25.1
2017/07/19 08:19:09.400  -3961862.7255   3348962.7659   3698253.5785   1  12   0.0098   0.0142   0.0081  -0.0102   0.0096  -0.0082   0.40   21.0
2017/07/19 08:19:09.600  -3961862.7281   3348962.7666   3698253.5784   1  12   0.0098   0.0142   0.0081  -0.0102   0.0096  -0.0082   0.60   22.6
2017/07/19 08:19:09.800  -3961862.7307   3348962.7711   3698253.5791   1  12   0.0099   0.0143   0.0082  -0.0103   0.0097  -0.0083   0.80   26.3
2017/07/19 08:19:10.000  -3961862.7285   3348962.7691   3698253.5801   1  12   0.0097   0.0141   0.0080  -0.0101   0.0095  -0.0082   0.00   25.2
2017/07/19 08:19:10.200  -3961862.7261   3348962.7710   3698253.5837   1  12   0.0097   0.0141   0.0080  -0.0101   0.0095  -0.0082   0.20   22.5
2017/07/19 08:19:10.400  -3961862.7294   3348962.7728   3698253.5856   1  12   0.0098   0.0142   0.0081  -0.0102   0.0096  -0.0082   0.40   23.2
2017/07/19 08:19:10.600  -3961862.7261   3348962.7692   3698253.5817   1  12   0.0098   0.0142   0.0081  -0.0102   0.0096  -0.0082   0.60   24.3
2017/07/19 08:19:10.800  -3961862.7220   3348962.7632   3698253.5777   1  12   0.0099   0.0143   0.0082  -0.0103   0.0097  -0.0083   0.80   24.4
2017/07/19 08:19:11.000  -3961862.7290   3348962.7668   3698253.5817   1  12   0.0097   0.0141   0.0080  -0.0101   0.0095  -0.0082   0.00   25.6
2017/07/19 08:19:11.200  -3961862.7261   3348962.7660   3698253.5778   1  12   0.0097   0.0141   0.0080  -0.0101   0.0095  -0.0082   0.20   29.1
2017/07/19 08:19:11.400  -3961862.7210   3348962.7632   3698253.5757   1  12   0.0098   0.0141   0.0081  -0.0102   0.0096  -0.0082   0.40   22.9
2017/07/19 08:19:11.600  -3961862.7255   3348962.7693   3698253.5784   1  12   0.0098   0.0142   0.0081  -0.0102   0.0096  -0.0082   0.60   21.4
2017/07/19 08:19:11.800  -3961862.7235   3348962.7609   3698253.5783   1  12   0.0099   0.0143   0.0082  -0.0103   0.0097  -0.0083   0.80   17.6
2017/07/19 08:19:12.000  -3961862.7308   3348962.7676   3698253.5834   1  12   0.0097   0.0141   0.0080  -0.0101   0.0095  -0.0082   0.00   33.4
2017/07/19 08:19:12.200  -3961862.7249   3348962.7593   3698253.5768   1  12   0.0097   0.0141   0.0080  -0.0101   0.0095  -0.0082   0.20   22.6
2017/07/19 08:19:12.400  -3961862.7238   3348962.7630   3698253.5748   1  12   0.0098   0.0141   0.0081  -0.0102   0.0096  -0.0082   0.40   21.9
2017/07/19 08:19:12.600  -3961862.7199   3348962.7592   3698253.5751   1  12   0.0098   0.0142   0.0081  -0.0102   0.0096  -0.0082   0.60   18.5
2017/07/19 08:19:12.800  -3961862.7197   3348962.7527   3698253.5745   1  12   0.0099   0.0143   0.0082  -0.0103   0.0097  -0.0083   0.80   24.5
2017/07/19 08:19:13.000  -3961862.7256   3348962.7635   3698253.5770   1  12   0.0097   0.0141   0.0080  -0.0101   0.0095  -0.0082   0.00   18.9
2017/07/19 08:19:13.200  -3961862.7253   3348962.7565   3698253.5760   1  12   0.0097   0.0141   0.0080  -0.0101   0.0095  -0.0082   0.20   21.0
2017/07/19 08:19:13.400  -3961862.7203   3348962.7496   3698253.5736   1  12   0.0098   0.0141   0.0081  -0.0102   0.0096  -0.0082   0.40   19.4
2017/07/19 08:19:13.600  -3961862.7258   3348962.7657   3698253.5802   1  12   0.0098   0.0142   0.0081  -0.0102   0.0096  -0.0082   0.60   19.6
2017/07/19 08:19:13.800  -3961862.7251   3348962.7623   3698253.5762   1  12   0.0099   0.0143   0.0082  -0.0103   0.0097  -0.0083   0.80   16.7
2017/07/19 08:19:14.000  -3961862.7261   3348962.7675   3698253.5807   1  12   0.0097   0.0141   0.0080  -0.0101   0.0095  -0.0082   0.00   20.8
2017/07/19 08:19:14.200  -3961862.7240   3348962.7680   3698253.5791   1  12   0.0097   0.0141   0.0080  -0.0101   0.0095  -0.0082   0.20   24.9
2017/07/19 08:19:14.400  -3961862.7232   3348962.7659   3698253.5777   1  12   0.0098   0.0141   0.0081  -0.0102   0.0096  -0.0082   0.40   20.8
2017/07/19 08:19:14.600  -3961862.7248   3348962.7630   3698253.5797   1  12   0.0098   0.0142   0.0081  -0.0102   0.0096  -0.0082   0.60   29.1
2017/07/19 08:19:14.800  -3961862.7263   3348962.7677   3698253.5798   1  12   0.0099   0.0143   0.0082  -0.0103   0.0097  -0.0083   0.80   20.1
2017/07/19 08:19:15.000  -3961862.7242   3348962.7610   3698253.5755   1  12   0.0097   0.0141   0.0080  -0.0101   0.0095  -0.0082   0.00   20.9
2017/07/19 08:19:15.200  -3961862.7246   3348962.7599   3698253.5760   1  12   0.0097   0.0141   0.0080  -0.0101   0.0095  -0.0082   0.20   17.1
2017/07/19 08:19:15.400  -3961862.7273   3348962.7628   3698253.5782   1  12   0.0098   0.0141   0.0081  -0.0102   0.0095  -0.0082   0.40   20.4
2017/07/19 08:19:15.600  -3961862.7225   3348962.7655   3698253.5767   1  12   0.0098   0.0142   0.0081  -0.0102   0.0096  -0.0082   0.60   20.3
2017/07/19 08:19:15.800  -3961862.7208   3348962.7592   3698253.5732   1  12   0.0099   0.0143   0.0082  -0.0103   0.0097  -0.0083   0.80   17.6
2017/07/19 08:19:16.000  -3961862.7280   3348962.7692   3698253.5795   1  12   0.0097   0.0141   0.0080  -0.0101   0.0095  -0.0082   0.00   19.0
2017/07/19 08:19:16.200  -3961862.7268   3348962.7630   3698253.5769   1  12   0.0097   0.0141   0.0080  -0.0101   0.0095  -0.0082   0.20   19.5
2017/07/19 08:19:16.400  -3961862.7248   3348962.7615   3698253.5761   1  12   0.0098   0.0141   0.0081  -0.0102   0.0095  -0.0082   0.40   23.1
2017/07/19 08:19:16.600  -3961862.7224   3348962.7608   3698253.5718   1  12   0.0098   0.0142   0.0081  -0.0102   0.0096  -0.0082   0.60   20.2
2017/07/19 08:19:16.800  -3961862.7258   3348962.7687   3698253.5770   1  12   0.0099   0.0143   0.0082  -0.0103   0.0097  -0.0083   0.80   19.1
2017/07/19 08:19:17.000  -3961862.7285   3348962.7631   3698253.5806   1  12   0.0097   0.0141   0.0080  -0.0101   0.0095  -0.0082   0.00   23.4
2017/07/19 08:19:17.200  -3961862.7312   3348962.7671   3698253.5805   1  12   0.0097   0.0141   0.0080  -0.0101   0.0095  -0.0082   0.20   25.0
2017/07/19 08:19:17.400  -3961862.7238   3348962.7649   3698253.5782   1  12   0.0098   0.0141   0.0081  -0.0102   0.0095  -0.0082   0.40   25.8
2017/07/19 08:19:17.600  -3961862.7275   3348962.7638   3698253.5782   1  12   0.0098   0.0142   0.0081  -0.0102   0.0096  -0.0082   0.60   28.3
2017/07/19 08:19:17.800  -3961862.7231   3348962.7637   3698253.5783   1  12   0.0099   0.0143   0.0082  -0.0103   0.0097  -0.0083   0.80   21.9
2017/07/19 08:19:18.000  -3961862.7240   3348962.7612   3698253.5754   1  12   0.0097   0.0141   0.0080  -0.0101   0.0095  -0.0082   0.00   28.1
2017/07/19 08:19:18.200  -3961862.7299   3348962.7706   3698253.5804   1  12   0.0097   0.0141   0.0080  -0.0101   0.0095  -0.0082   0.20   20.4
2017/07/19 08:19:18.400  -3961862.7247   3348962.7597   3698253.5759   1  12   0.0098   0.0141   0.0081  -0.0102   0.0095  -0.0082   0.40   25.2
2017/07/19 08:19:18.600  -3961862.7271   3348962.7644   3698253.5797   1  12   0.0098   0.0142   0.0081  -0.0102   0.0096  -0.0082   0.60   36.9
2017/07/19 08:19:18.800  -3961862.7263   3348962.7683   3698253.5775   1  12   0.0099   0.0143   0.0082  -0.0103   0.0097  -0.0083   0.80   26.3
2017/07/19 08:19:19.000  -3961862.7310   3348962.7758   3698253.5811   1  12   0.0097   0.0141   0.0080  -0.0101   0.0095  -0.0082   0.00   23.5
2017/07/19 08:19:19.200  -3961862.7268   3348962.7683   3698253.5802   1  12   0.0097   0.0141   0.0080  -0.0101   0.0095  -0.0082   0.20   33.5
2017/07/19 08:19:19.400  -3961862.7289   3348962.7682   3698253.5789   1  12   0.0098   0.0141   0.0081  -0.0102   0.0095  -0.0082   0.40   25.8
2017/07/19 08:19:19.600  -3961862.7182   3348962.7548   3698253.5730   1  12   0.0098   0.0142   0.0081  -0.0102   0.0096  -0.0082   0.60   23.0
2017/07/19 08:19:19.800  -3961862.7262   3348962.7631   3698253.5771   1  12   0.0099   0.0143   0.0082  -0.0103   0.0097  -0.0083   0.80   18.6
2017/07/19 08:19:20.000  -3961862.7274   3348962.7626   3698253.5793   1  12   0.0097   0.0141   0.0080  -0.0101   0.0095  -0.0082   0.00   23.7
2017/07/19 08:19:20.200  -3961862.7270   3348962.7672   3698253.5788   1  12   0.0097   0.0141   0.0080  -0.0101   0.0095  -0.0082   0.20   23.2
2017/07/19 08:19:20.400  -3961862.7263   3348962.7626   3698253.5776   1  12   0.0098   0.0141   0.0081  -0.0102   0.0095  -0.0082   0.40   18.0
2017/07/19 08:19:20.600  -3961862.7264   3348962.7637   3698253.5771   1  12   0.0098   0.0142   0.0081  -0.0102   0.0096  -0.0082   0.60   22.0
2017/07/19 08:19:20.800  -3961862.7283   3348962.7680   3698253.5806   1  12   0.0099   0.0143   0.0082  -0.0103   0.0097  -0.0083   0.80   20.5
2017/07/19 08:19:21.000  -3961862.7198   3348962.7540   3698253.5733   1  12   0.0097   0.0141   0.0080  -0.0101   0.0095  -0.0082   0.00   18.4
2017/07/19 08:19:21.200  -3961862.7196   3348962.7538   3698253.5729   1  12   0.0097   0.0141   0.0080  -0.0101   0.0095  -0.0082   0.20   25.8
2017/07/19 08:19:21.400  -3961862.7225   3348962.7592   3698253.5749   1  12   0.0098   0.0141   0.0081  -0.0102   0.0095  -0.0082   0.40   27.7
2017/07/19 08:19:21.600  -3961862.7243   3348962.7546   3698253.5739   1  12   0.0098   0.0142   0.0081  -0.0102   0.0096  -0.0082   0.60   23.9
2017/07/19 08:19:21.800  -3961862.7181   3348962.7515   3698253.5717   1  12   0.0099   0.0143   0.0082  -0.0103   0.0097  -0.0083   0.80   29.1
2017/07/19 08:19:22.000  -3961862.7221   3348962.7596   3698253.5747   1  12   0.0097   0.0141   0.0080  -0.0101   0.0095  -0.0082   0.00   15.6
2017/07/19 08:19:22.200  -3961862.7192   3348962.7540   3698253.5716   1  12   0.0097   0.0141   0.0080  -0.0101   0.0095  -0.0082   0.20   14.0
2017/07/19 08:19:22.400  -3961862.7250   3348962.7652   3698253.5767   1  12   0.0098   0.0141   0.0081  -0.0102   0.0095  -0.0082   0.40   15.6
2017/07/19 08:19:22.600  -3961862.7191   3348962.7537   3698253.5732   1  12   0.0098   0.0142   0.0081  -0.0102   0.0096  -0.0082   0.60   13.7
2017/07/19 08:19:22.800  -3961862.7186   3348962.7577   3698253.5716   1  12   0.0099   0.0143   0.0082  -0.0103   0.0097  -0.0083   0.80   14.3
2017/07/19 08:19:23.000  -3961862.7235   3348962.7608   3698253.5748   1  12   0.0097   0.0141   0.0080  -0.0101   0.0095  -0.0082   0.00   14.7
2017/07/19 08:19:23.200  -3961862.7238   3348962.7650   3698253.5781   1  12   0.0097   0.0141   0.0080  -0.0101   0.0095  -0.0082   0.20   15.1
2017/07/19 08:19:23.400  -3961862.7205   3348962.7571   3698253.5757   1  12   0.0098   0.0141   0.0081  -0.0102   0.0095  -0.0082   0.40   17.7
2017/07/19 08:19:23.600  -3961862.7211   3348962.7541   3698253.5739   1  12   0.0098   0.0142   0.0081  -0.0102   0.0096  -0.0082   0.60   15.6
2017/07/19 08:19:23.800  -3961862.7265   3348962.7624   3698253.5787   1  12   0.0099   0.0143   0.0082  -0.0103   0.0097  -0.0083   0.80   16.6
2017/07/19 08:19:24.000  -3961862.7227   3348962.7623   3698253.5790   1  12   0.0097   0.0141   0.0080  -0.0101   0.0095  -0.0082   0.00   11.5
2017/07/19 08:19:24.200  -3961862.7249   3348962.7604   3698253.5753   1  12   0.0097   0.0141   0.0080  -0.0101   0.0095  -0.0082   0.20   18.5
2017/07/19 08:19:24.400  -3961862.7278   3348962.7670   3698253.5808   1  12   0.0098   0.0141   0.0081  -0.0102   0.0095  -0.0082   0.40   17.0
2017/07/19 08:19:24.600  -3961862.7284   3348962.7641   3698253.5800   1  12   0.0098   0.0142   0.0081  -0.0102   0.0096  -0.0082   0.60   18.0
2017/07/19 08:19:24.800  -3961862.7286   3348962.7661   3698253.5807   1  12   0.0099   0.0143   0.0082  -0.0103   0.0097  -0.0083   0.80   16.1
2017/07/19 08:19:25.000  -3961862.7330   3348962.7689   3698253.5813   1  12   0.0097   0.0141   0.0080  -0.0101   0.0095  -0.0082   0.00   21.9
2017/07/19 08:19:25.200  -3961862.7289   3348962.7662   3698253.5791   1  12   0.0097   0.0141   0.0080  -0.0101   0.0095  -0.0082   0.20   19.2
2017/07/19 08:19:25.400  -3961862.7302   3348962.7655   3698253.5807   1  12   0.0098   0.0141   0.0081  -0.0102   0.0095  -0.0082   0.40   19.7
2017/07/19 08:19:25.600  -3961862.7253   3348962.7607   3698253.5761   1  12   0.0098   0.0142   0.0081  -0.0102   0.0096  -0.0082   0.60   12.5
2017/07/19 08:19:25.800  -3961862.7333   3348962.7776   3698253.5846   1  12   0.0099   0.0143   0.0082  -0.0103   0.0097  -0.0083   0.80   18.2
2017/07/19 08:19:26.000  -3961862.7233   3348962.7591   3698253.5739   1  12   0.0097   0.0141   0.0080  -0.0101   0.0095  -0.0082   0.00   20.4
2017/07/19 08:19:26.200  -3961862.7219   3348962.7601   3698253.5729   1  12   0.0097   0.0141   0.0080  -0.0101   0.0095  -0.0082   0.20   15.1
2017/07/19 08:19:26.400  -3961862.7146   3348962.7509   3698253.5674   1  12   0.0098   0.0141   0.0081  -0.0102   0.0095  -0.0082   0.40   15.1
2017/07/19 08:19:26.600  -3961862.7141   3348962.7533   3698253.5695   1  12   0.0098   0.0142   0.0081  -0.0102   0.0096  -0.0082   0.60   14.5
2017/07/19 08:19:26.800  -3961862.7143   3348962.7461   3698253.5650   1  12   0.0099   0.0143   0.0082  -0.0103   0.0097  -0.0083   0.80   18.3
2017/07/19 08:19:27.000  -3961862.7261   3348962.7626   3698253.5758   1  12   0.0097   0.0141   0.0080  -0.0101   0.0095  -0.0082   0.00   17.5
2017/07/19 08:19:27.200  -3961862.7298   3348962.7705   3698253.5787   1  12   0.0097   0.0141   0.0080  -0.0101   0.0095  -0.0082   0.20   15.2
2017/07/19 08:19:27.400  -3961862.7283   3348962.7662   3698253.5805   1  12   0.0098   0.0141   0.0081  -0.0102   0.0095  -0.0082   0.40   21.9
2017/07/19 08:19:27.600  -3961862.7245   3348962.7667   3698253.5786   1  12   0.0098   0.0142   0.0081  -0.0102   0.0096  -0.0082   0.60   18.1
2017/07/19 08:19:27.800  -3961862.7263   3348962.7670   3698253.5771   1  12   0.0099   0.0143   0.0082  -0.0103   0.0096  -0.0083   0.80   18.7
2017/07/19 08:19:28.000  -3961862.7288   3348962.7679   3698253.5794   1  12   0.0097   0.0141   0.0080  -0.0101   0.0095  -0.0082   0.00   11.3
2017/07/19 08:19:28.200  -3961862.7345   3348962.7747   3698253.5802   1  12   0.0097   0.0141   0.0080  -0.0101   0.0095  -0.0082   0.20   13.9
2017/07/19 08:19:28.400  -3961862.7322   3348962.7701   3698253.5780   1  12   0.0098   0.0141   0.0081  -0.0102   0.0095  -0.0082   0.40   17.6
2017/07/19 08:19:28.600  -3961862.7331   3348962.7703   3698253.5819   1  12   0.0098   0.0142   0.0081  -0.0102   0.0096  -0.0082   0.60   21.3
2017/07/19 08:19:28.800  -3961862.7337   3348962.7727   3698253.5811   1  12   0.0099   0.0143   0.0082  -0.0103   0.0096  -0.0083   0.80   18.4
2017/07/19 08:19:29.000  -3961862.7275   3348962.7706   3698253.5774   1  12   0.0097   0.0141   0.0080  -0.0101   0.0095  -0.0082   0.00   18.6
2017/07/19 08:19:29.200  -3961862.7283   3348962.7671   3698253.5780   1  12   0.0097   0.0141   0.0080  -0.0101   0.0095  -0.0082   0.20   15.6
2017/07/19 08:19:29.400  -3961862.7303   3348962.7726   3698253.5786   1  12   0.0098   0.0141   0.0081  -0.0102   0.0095  -0.0082   0.40   18.2
2017/07/19 08:19:29.600  -3961862.7297   3348962.7650   3698253.5787   1  12   0.0098   0.0142   0.0081  -0.0102   0.0096  -0.0082   0.60   19.4
2017/07/19 08:19:29.800  -3961862.7305   3348962.7706   3698253.5791   1  12   0.0099   0.0143   0.0082  -0.0103   0.0096  -0.0083   0.80   21.5
2017/07/19 08:19:30.000  -3961862.7224   3348962.7588   3698253.5743   1  12   0.0097   0.0141   0.0080  -0.0101   0.0095  -0.0082   0.00   16.7
2017/07/19 08:19:30.200  -3961862.7222   3348962.7575   3698253.5728   1  12   0.0097   0.0141   0.0080  -0.0101   0.0095  -0.0082   0.20   20.0
2017/07/19 08:19:30.400  -3961862.7258   3348962.7591   3698253.5764   1  12   0.0098   0.0141   0.0081  -0.0102   0.0095  -0.0082   0.40   22.4
2017/07/19 08:19:30.600  -3961862.7275   3348962.7621   3698253.5767   1  12   0.0098   0.0142   0.0081  -0.0102   0.0096  -0.0082   0.60   16.1
2017/07/19 08:19:30.800  -3961862.7227   3348962.7565   3698253.5752   1  12   0.0099   0.0143   0.0082  -0.0103   0.0096  -0.0083   0.80   19.6
2017/07/19 08:19:31.000  -3961862.7359   3348962.7768   3698253.5825   1  12   0.0097   0.0141   0.0080  -0.0101   0.0095  -0.0082   0.00   16.1
2017/07/19 08:19:31.200  -3961862.7298   3348962.7703   3698253.5833   1  12   0.0097   0.0141   0.0080  -0.0101   0.0095  -0.0082   0.20   17.4
2017/07/19 08:19:31.400  -3961862.7291   3348962.7706   3698253.5809   1  12   0.0098   0.0141   0.0081  -0.0101   0.0095  -0.0082   0.40   19.3
2017/07/19 08:19:31.600  -3961862.7317   3348962.7704   3698253.5829   1  12   0.0098   0.0142   0.0081  -0.0102   0.0096  -0.0082   0.60   18.0
2017/07/19 08:19:31.800  -3961862.7296   3348962.7689   3698253.5829   1  12   0.0099   0.0143   0.0082  -0.0103   0.0096  -0.0083   0.80   19.1
2017/07/19 08:19:32.000  -3961862.7268   3348962.7642   3698253.5768   1  12   0.0097   0.0141   0.0080  -0.0101   0.0095  -0.0082   0.00   17.4
2017/07/19 08:19:32.200  -3961862.7304   3348962.7662   3698253.5769   1  12   0.0097   0.0141   0.0080  -0.0101   0.0095  -0.0082   0.20   15.8
2017/07/19 08:19:32.400  -3961862.7296   3348962.7721   3698253.5800   1  12   0.0098   0.0141   0.0081  -0.0101   0.0095  -0.0082   0.40   16.6
2017/07/19 08:19:32.600  -3961862.7280   3348962.7699   3698253.5774   1  12   0.0098   0.0142   0.0081  -0.0102   0.0096  -0.0082   0.60   15.5
2017/07/19 08:19:32.800  -3961862.7263   3348962.7684   3698253.5739   1  12   0.0099   0.0143   0.0082  -0.0103   0.0096  -0.0083   0.80   13.3
2017/07/19 08:19:33.000  -3961862.7298   3348962.7749   3698253.5792   1  12   0.0097   0.0141   0.0080  -0.0101   0.0095  -0.0082   0.00   18.7
2017/07/19 08:19:33.200  -3961862.7330   3348962.7705   3698253.5803   1  12   0.0097   0.0141   0.0080  -0.0101   0.0095  -0.0082   0.20   19.1
2017/07/19 08:19:33.400  -3961862.7311   3348962.7742   3698253.5785   1  12   0.0098   0.0141   0.0081  -0.0101   0.0095  -0.0082   0.40   19.6
2017/07/19 08:19:33.600  -3961862.7308   3348962.7711   3698253.5791   1  12   0.0098   0.0142   0.0081  -0.0102   0.0096  -0.0082   0.60   17.3
2017/07/19 08:19:33.800  -3961862.7293   3348962.7691   3698253.5781   1  12   0.0099   0.0143   0.0082  -0.0103   0.0096  -0.0083   0.80   18.6
2017/07/19 08:19:34.000  -3961862.7305   3348962.7747   3698253.5812   1  12   0.0097   0.0141   0.0080  -0.0101   0.0095  -0.0082   0.00   20.7
2017/07/19 08:19:34.200  -3961862.7268   3348962.7668   3698253.5774   1  12   0.0097   0.0141   0.0080  -0.0101   0.0095  -0.0082   0.20   19.2
2017/07/19 08:19:34.400  -3961862.7295   3348962.7740   3698253.5808   1  12   0.0098   0.0141   0.0081  -0.0101   0.0095  -0.0082   0.40   18.5
2017/07/19 08:19:34.600  -3961862.7281   3348962.7677   3698253.5789   1  12   0.0098   0.0142   0.0081  -0.0102   0.0096  -0.0082   0.60   21.0
2017/07/19 08:19:34.800  -3961862.7266   3348962.7667   3698253.5788   1  12   0.0099   0.0143   0.0082  -0.0103   0.0096  -0.0083   0.80   20.3
2017/07/19 08:19:35.000  -3961862.7309   3348962.7772   3698253.5808   1  12   0.0097   0.0141   0.0080  -0.0101   0.0095  -0.0082   0.00   22.4
2017/07/19 08:19:35.200  -3961862.7249   3348962.7685   3698253.5757   1  12   0.0097   0.0141   0.0080  -0.0101   0.0095  -0.0082   0.20   14.9
2017/07/19 08:19:35.400  -3961862.7258   3348962.7681   3698253.5777   1  12   0.0098   0.0141   0.0081  -0.0101   0.0095  -0.0082   0.40   21.0
2017/07/19 08:19:35.600  -3961862.7249   3348962.7667   3698253.5755   1  12   0.0098   0.0142   0.0081  -0.0102   0.0096  -0.0082   0.60   22.1
2017/07/19 08:19:35.800  -3961862.7324   3348962.7737   3698253.5804   1  12   0.0099   0.0143   0.0082  -0.0103   0.0096  -0.0083   0.80   26.4
2017/07/19 08:19:36.000  -3961862.7288   3348962.7634   3698253.5767   1  12   0.0097   0.0141   0.0080  -0.0101   0.0095  -0.0082   0.00   21.3
2017/07/19 08:19:36.200  -3961862.7269   3348962.7650   3698253.5769   1  12   0.0097   0.0141   0.0080  -0.0101   0.0095  -0.0082   0.20   18.5
2017/07/19 08:19:36.400  -3961862.7222   3348962.7611   3698253.5742   1  12   0.0098   0.0141   0.0081  -0.0101   0.0095  -0.0082   0.40   21.6
2017/07/19 08:19:36.600  -3961862.7297   3348962.7695   3698253.5785   1  12   0.0098   0.0142   0.0081  -0.0102   0.0096  -0.0082   0.60   18.4
2017/07/19 08:19:36.800  -3961862.7243   3348962.7617   3698253.5740   1  12   0.0099   0.0143   0.0082  -0.0103   0.0096  -0.0083   0.80   18.6
2017/07/19 08:19:37.000  -3961862.7261   3348962.7621   3698253.5767   1  12   0.0097   0.0141   0.0080  -0.0101   0.0095  -0.0082   0.00   13.7
2017/07/19 08:19:37.200  -3961862.7275   3348962.7663   3698253.5771   1  12   0.0097   0.0141   0.0080  -0.0101   0.0095  -0.0082   0.20   23.7
2017/07/19 08:19:37.400  -3961862.7284   3348962.7666   3698253.5797   1  12   0.0098   0.0141   0.0081  -0.0101   0.0095  -0.0082   0.40   15.3
2017/07/19 08:19:37.600  -3961862.7266   3348962.7664   3698253.5776   1  12   0.0098   0.0142   0.0081  -0.0102   0.0096  -0.0082   0.60   18.0
2017/07/19 08:19:37.800  -3961862.7182   3348962.7632   3698253.5743   1  12   0.0099   0.0143   0.0082  -0.0103   0.0096  -0.0083   0.80   14.5
2017/07/19 08:19:38.000  -3961862.7273   3348962.7679   3698253.5803   1  12   0.0097   0.0141   0.0080  -0.0101   0.0095  -0.0082   0.00   16.5
2017/07/19 08:19:38.200  -3961862.7270   3348962.7634   3698253.5770   1  12   0.0097   0.0141   0.0080  -0.0101   0.0095  -0.0082   0.20   18.5
2017/07/19 08:19:38.400  -3961862.7292   3348962.7666   3698253.5800   1  12   0.0098   0.0141   0.0081  -0.0101   0.0095  -0.0082   0.40   19.4
2017/07/19 08:19:38.600  -3961862.7252   3348962.7665   3698253.5767   1  12   0.0098   0.0142   0.0081  -0.0102   0.0096  -0.0082   0.60   20.8
2017/07/19 08:19:38.800  -3961862.7293   3348962.7678   3698253.5779   1  12   0.0099   0.0143   0.0082  -0.0103   0.0096  -0.0083   0.80   18.2
2017/07/19 08:19:39.000  -3961862.7266   3348962.7699   3698253.5792   1  12   0.0097   0.0141   0.0080  -0.0101   0.0095  -0.0082   0.00   15.5
2017/07/19 08:19:39.200  -3961862.7291   3348962.7701   3698253.5797   1  12   0.0097   0.0141   0.0080  -0.0101   0.0095  -0.0082   0.20   25.4
2017/07/19 08:19:39.400  -3961862.7247   3348962.7668   3698253.5767   1  12   0.0098   0.0141   0.0081  -0.0101   0.0095  -0.0082   0.40   18.9
2017/07/19 08:19:39.600  -3961862.7308   3348962.7748   3698253.5814   1  12   0.0098   0.0142   0.0081  -0.0102   0.0096  -0.0082   0.60   15.7
2017/07/19 08:19:39.800  -3961862.7289   3348962.7731   3698253.5784   1  12   0.0099   0.0143   0.0082  -0.0103   0.0096  -0.0083   0.80   15.7
2017/07/19 08:19:40.000  -3961862.7229   3348962.7643   3698253.5730   1  12   0.0097   0.0141   0.0080  -0.0101   0.0095  -0.0082   0.00   16.3
2017/07/19 08:19:40.200  -3961862.7264   3348962.7669   3698253.5772   1  12   0.0097   0.0141   0.0080  -0.0101   0.0095  -0.0082   0.20   17.9
2017/07/19 08:19:40.400  -3961862.7219   3348962.7626   3698253.5736   1  12   0.0098   0.0141   0.0081  -0.0101   0.0095  -0.0082   0.40   13.5
2017/07/19 08:19:40.600  -3961862.7270   3348962.7717   3698253.5789   1  12   0.0098   0.0142   0.0081  -0.0102   0.0096  -0.0082   0.60   13.4
2017/07/19 08:19:40.800  -3961862.7340   3348962.7766   3698253.5826   1  12   0.0099   0.0143   0.0082  -0.0103   0.0096  -0.0083   0.80   15.0
2017/07/19 08:19:41.000  -3961862.7203   3348962.7631   3698253.5737   1  12   0.0097   0.0141   0.0080  -0.0101   0.0095  -0.0082   0.00   20.5
2017/07/19 08:19:41.200  -3961862.7258   3348962.7687   3698253.5777   1  12   0.0097   0.0141   0.0080  -0.0101   0.0095  -0.0082   0.20   18.6
2017/07/19 08:19:41.400  -3961862.7192   3348962.7619   3698253.5730   1  12   0.0098   0.0141   0.0081  -0.0101   0.0095  -0.0082   0.40   18.4
2017/07/19 08:19:41.600  -3961862.7263   3348962.7719   3698253.5796   1  12   0.0098   0.0142   0.0081  -0.0102   0.0096  -0.0082   0.60   20.3
2017/07/19 08:19:41.800  -3961862.7206   3348962.7675   3698253.5731   1  12   0.0099   0.0143   0.0081  -0.0103   0.0096  -0.0083   0.80   18.1
2017/07/19 08:19:42.000  -3961862.7322   3348962.7785   3698253.5805   1  12   0.0097   0.0140   0.0080  -0.0101   0.0095  -0.0082   0.00   18.3
2017/07/19 08:19:42.200  -3961862.7277   3348962.7661   3698253.5765   1  12   0.0097   0.0141   0.0080  -0.0101   0.0095  -0.0082   0.20   16.5
2017/07/19 08:19:42.400  -3961862.7282   3348962.7686   3698253.5766   1  12   0.0098   0.0141   0.0081  -0.0101   0.0095  -0.0082   0.40   18.6
2017/07/19 08:19:42.600  -3961862.7249   3348962.7654   3698253.5769   1  12   0.0098   0.0142   0.0081  -0.0102   0.0096  -0.0082   0.60   18.4
2017/07/19 08:19:42.800  -3961862.7218   3348962.7587   3698253.5734   1  12   0.0099   0.0143   0.0081  -0.0103   0.0096  -0.0083   0.80   18.9
2017/07/19 08:19:43.000  -3961862.7330   3348962.7765   3698253.5842   1  12   0.0097   0.0140   0.0080  -0.0101   0.0095  -0.0082   0.00   18.1
2017/07/19 08:19:43.200  -3961862.7300   3348962.7707   3698253.5793   1  12   0.0097   0.0141   0.0080  -0.0101   0.0095  -0.0082   0.20   18.2
2017/07/19 08:19:43.400  -3961862.7294   3348962.7716   3698253.5798   1  12   0.0098   0.0141   0.0081  -0.0101   0.0095  -0.0082   0.40   24.5
2017/07/19 08:19:43.600  -3961862.7276   3348962.7709   3698253.5788   1  12   0.0098   0.0142   0.0081  -0.0102   0.0096  -0.0082   0.60   16.1
2017/07/19 08:19:43.800  -3961862.7291   3348962.7682   3698253.5799   1  12   0.0099   0.0142   0.0081  -0.0103   0.0096  -0.0083   0.80   17.2
2017/07/19 08:19:44.000  -3961862.7301   3348962.7743   3698253.5803   1  12   0.0097   0.0140   0.0080  -0.0101   0.0095  -0.0082   0.00   17.4
2017/07/19 08:19:44.200  -3961862.7329   3348962.7744   3698253.5821   1  12   0.0097   0.0141   0.0080  -0.0101   0.0095  -0.0082   0.20   23.3
2017/07/19 08:19:44.400  -3961862.7320   3348962.7796   3698253.5807   1  12   0.0098   0.0141   0.0081  -0.0101   0.0095  -0.0082   0.40   17.2
2017/07/19 08:19:44.600  -3961862.7269   3348962.7684   3698253.5788   1  12   0.0098   0.0142   0.0081  -0.0102   0.0096  -0.0082   0.60   13.3
2017/07/19 08:19:44.800  -3961862.7347   3348962.7785   3698253.5865   1  12   0.0099   0.0142   0.0081  -0.0103   0.0096  -0.0083   0.80   17.0
2017/07/19 08:19:45.000  -3961862.7279   3348962.7630   3698253.5764   1  12   0.0097   0.0140   0.0080  -0.0101   0.0095  -0.0082   0.00   15.6
2017/07/19 08:19:45.200  -3961862.7246   3348962.7650   3698253.5731   1  12   0.0097   0.0141   0.0080  -0.0101   0.0095  -0.0082   0.20   19.9
2017/07/19 08:19:45.400  -3961862.7263   3348962.7640   3698253.5747   1  12   0.0098   0.0141   0.0081  -0.0101   0.0095  -0.0082   0.40   17.6
2017/07/19 08:19:45.600  -3961862.7245   3348962.7626   3698253.5753   1  12   0.0098   0.0142   0.0081  -0.0102   0.0096  -0.0082   0.60   16.1
2017/07/19 08:19:45.800  -3961862.7225   3348962.7562   3698253.5755   1  12   0.0099   0.0142   0.0081  -0.0103   0.0096  -0.0083   0.80   18.0
2017/07/19 08:19:46.000  -3961862.7297   3348962.7729   3698253.5797   1  12   0.0097   0.0140   0.0080  -0.0101   0.0095  -0.0081   0.00   14.9
2017/07/19 08:19:46.200  -3961862.7282   3348962.7714   3698253.5778   1  12   0.0097   0.0141   0.0080  -0.0101   0.0095  -0.0082   0.20   16.7
2017/07/19 08:19:46.400  -3961862.7337   3348962.7830   3698253.5823   1  12   0.0098   0.0141   0.0081  -0.0101   0.0095  -0.0082   0.40   17.9
2017/07/19 08:19:46.600  -3961862.7352   3348962.7796   3698253.5831   1  12   0.0098   0.0142   0.0081  -0.0102   0.0096  -0.0082   0.60   19.5
2017/07/19 08:19:46.800  -3961862.7363   3348962.7842   3698253.5831   1  12   0.0099   0.0142   0.0081  -0.0103   0.0096  -0.0083   0.80   16.4
2017/07/19 08:19:47.000  -3961862.7308   3348962.7701   3698253.5819   1  12   0.0097   0.0140   0.0080  -0.0101   0.0095  -0.0081   0.00   13.6
2017/07/19 08:19:47.200  -3961862.7246   3348962.7685   3698253.5765   1  12   0.0097   0.0141   0.0080  -0.0101   0.0095  -0.0082   0.20   11.8
2017/07/19 08:19:47.400  -3961862.7262   3348962.7689   3698253.5770   1  12   0.0098   0.0141   0.0081  -0.0101   0.0095  -0.0082   0.40   14.7
2017/07/19 08:19:47.600  -3961862.7297   3348962.7763   3698253.5830   1  12   0.0098   0.0142   0.0081  -0.0102   0.0096  -0.0082   0.60   15.5
2017/07/19 08:19:47.800  -3961862.7279   3348962.7730   3698253.5807   1  12   0.0099   0.0142   0.0081  -0.0103   0.0096  -0.0083   0.80   12.6
2017/07/19 08:19:48.000  -3961862.7304   3348962.7691   3698253.5787   1  12   0.0097   0.0140   0.0080  -0.0101   0.0095  -0.0081   0.00   19.8
2017/07/19 08:19:48.200  -3961862.7314   3348962.7733   3698253.5798   1  12   0.0097   0.0141   0.0080  -0.0101   0.0095  -0.0082   0.20   16.0
2017/07/19 08:19:48.400  -3961862.7354   3348962.7726   3698253.5813   1  12   0.0098   0.0141   0.0081  -0.0101   0.0095  -0.0082   0.40   19.1
2017/07/19 08:19:48.600  -3961862.7285   3348962.7686   3698253.5775   1  12   0.0098   0.0142   0.0081  -0.0102   0.0096  -0.0082   0.60   14.6
2017/07/19 08:19:48.800  -3961862.7346   3348962.7748   3698253.5805   1  12   0.0099   0.0142   0.0081  -0.0103   0.0096  -0.0083   0.80   19.6
2017/07/19 08:19:49.000  -3961862.7300   3348962.7700   3698253.5785   1  12   0.0097   0.0140   0.0080  -0.0101   0.0095  -0.0081   0.00   20.6
2017/07/19 08:19:49.200  -3961862.7246   3348962.7630   3698253.5720   1  12   0.0097   0.0140   0.0080  -0.0101   0.0095  -0.0082   0.20   12.8
2017/07/19 08:19:49.400  -3961862.7249   3348962.7619   3698253.5760   1  12   0.0098   0.0141   0.0081  -0.0101   0.0095  -0.0082   0.40   20.1
2017/07/19 08:19:49.600  -3961862.7287   3348962.7675   3698253.5768   1  12   0.0098   0.0142   0.0081  -0.0102   0.0096  -0.0082   0.60   14.1
2017/07/19 08:19:49.800  -3961862.7301   3348962.7679   3698253.5771   1  12   0.0099   0.0142   0.0081  -0.0103   0.0096  -0.0083   0.80   18.6
2017/07/19 08:19:50.000  -3961862.7298   3348962.7723   3698253.5795   1  12   0.0097   0.0140   0.0080  -0.0101   0.0095  -0.0081   0.00   14.7
2017/07/19 08:19:50.200  -3961862.7276   3348962.7703   3698253.5779   1  12   0.0097   0.0140   0.0080  -0.0101   0.0095  -0.0082   0.20   16.0
2017/07/19 08:19:50.400  -3961862.7295   3348962.7727   3698253.5812   1  12   0.0098   0.0141   0.0081  -0.0101   0.0095  -0.0082   0.40   15.6
2017/07/19 08:19:50.600  -3961862.7268   3348962.7659   3698253.5764   1  12   0.0098   0.0141   0.0081  -0.0102   0.0096  -0.0082   0.60   13.3
2017/07/19 08:19:50.800  -3961862.7271   3348962.7670   3698253.5752   1  12   0.0099   0.0142   0.0081  -0.0103   0.0096  -0.0083   0.80   16.4
2017/07/19 08:19:51.000  -3961862.7332   3348962.7784   3698253.5802   1  12   0.0097   0.0140   0.0080  -0.0101   0.0095  -0.0081   0.00   13.4
2017/07/19 08:19:51.200  -3961862.7339   3348962.7778   3698253.5813   1  12   0.0097   0.0140   0.0080  -0.0101   0.0095  -0.0082   0.20   18.2
2017/07/19 08:19:51.400  -3961862.7330   3348962.7751   3698253.5788   1  12   0.0098   0.0141   0.0081  -0.0101   0.0095  -0.0082   0.40   18.2
2017/07/19 08:19:51.600  -3961862.7324   3348962.7750   3698253.5796   1  12   0.0098   0.0141   0.0081  -0.0102   0.0096  -0.0082   0.60   14.1
2017/07/19 08:19:51.800  -3961862.7363   3348962.7837   3698253.5845   1  12   0.0099   0.0142   0.0081  -0.0103   0.0096  -0.0083   0.80   18.7
2017/07/19 08:19:52.000  -3961862.7315   3348962.7748   3698253.5786   1  12   0.0097   0.0140   0.0080  -0.0101   0.0095  -0.0081   0.00   17.5
2017/07/19 08:19:52.200  -3961862.7378   3348962.7800   3698253.5835   1  12   0.0097   0.0140   0.0080  -0.0101   0.0095  -0.0082   0.20   13.2
2017/07/19 08:19:52.400  -3961862.7328   3348962.7735   3698253.5818   1  12   0.0098   0.0141   0.0081  -0.0101   0.0095  -0.0082   0.40   18.7
2017/07/19 08:19:52.600  -3961862.7368   3348962.7779   3698253.5804   1  12   0.0098   0.0141   0.0081  -0.0102   0.0096  -0.0082   0.60   15.0
2017/07/19 08:19:52.800  -3961862.7339   3348962.7703   3698253.5784   1  12   0.0099   0.0142   0.0081  -0.0103   0.0096  -0.0083   0.80   21.7
2017/07/19 08:19:53.000  -3961862.7362   3348962.7738   3698253.5811   1  12   0.0097   0.0140   0.0080  -0.0101   0.0095  -0.0081   0.00   15.3
2017/07/19 08:19:53.200  -3961862.7304   3348962.7755   3698253.5798   1  12   0.0097   0.0140   0.0080  -0.0101   0.0095  -0.0082   0.20   15.3
2017/07/19 08:19:53.400  -3961862.7344   3348962.7798   3698253.5818   1  12   0.0098   0.0141   0.0081  -0.0101   0.0095  -0.0082   0.40   12.8
2017/07/19 08:19:53.600  -3961862.7370   3348962.7750   3698253.5830   1  12   0.0098   0.0141   0.0081  -0.0102   0.0096  -0.0082   0.60   14.9
2017/07/19 08:19:53.800  -3961862.7308   3348962.7718   3698253.5820   1  12   0.0099   0.0142   0.0081  -0.0103   0.0096  -0.0083   0.80   13.6
2017/07/19 08:19:54.000  -3961862.7299   3348962.7698   3698253.5789   1  12   0.0097   0.0140   0.0080  -0.0101   0.0095  -0.0081   0.00   16.2
2017/07/19 08:19:54.200  -3961862.7314   3348962.7735   3698253.5803   1  12   0.0097   0.0140   0.0080  -0.0101   0.0095  -0.0082   0.20   14.5
